[{"id":3573374,"name":"The Valley","nameKo":"더밸리","ascii":"The Valley","lat":18.21704,"lon":-63.05783,"population":2035},{"id":3573496,"name":"Blowing Point Village","ascii":"Blowing Point Village","lat":18.17648,"lon":-63.09375,"population":942},{"id":11205445,"name":"Sandy Hill","ascii":"Sandy Hill","lat":18.22104,"lon":-63.01329,"population":879},{"id":3573473,"name":"East End Village","ascii":"East End Village","lat":18.23333,"lon":-63,"population":671},{"id":3573407,"name":"Sandy Ground Village","ascii":"Sandy Ground Village","lat":18.20118,"lon":-63.08998,"population":274},{"id":3573378,"name":"Farrington","ascii":"Farrington","lat":18.215,"lon":-63.02238,"population":0},{"id":3573466,"name":"George Hill","ascii":"George Hill","lat":18.19939,"lon":-63.0665,"population":0},{"id":3573456,"name":"Island Harbour","ascii":"Island Harbour","lat":18.25601,"lon":-63.0102,"population":0},{"id":3573420,"name":"North Hill Village","ascii":"North Hill Village","lat":18.20542,"lon":-63.07847,"population":0},{"id":3573418,"name":"North Side","ascii":"North Side","lat":18.22919,"lon":-63.04401,"population":0},{"id":3573385,"name":"South Hill Village","ascii":"South Hill Village","lat":18.19201,"lon":-63.08779,"population":0},{"id":3573380,"name":"Stoney Ground","ascii":"Stoney Ground","lat":18.22026,"lon":-63.04607,"population":0},{"id":3573375,"name":"The Quarter","ascii":"The Quarter","lat":18.20799,"lon":-63.04178,"population":0},{"id":3573364,"name":"West End Village","ascii":"West End Village","lat":18.17191,"lon":-63.14941,"population":0}]