[{"id":3041732,"name":"Mariehamn","nameKo":"마리에함","ascii":"Mariehamn","lat":60.09726,"lon":19.93481,"population":10682},{"id":630705,"name":"Ytterby","ascii":"Ytterby","lat":60.16667,"lon":20.01667,"population":6384},{"id":13527044,"name":"Yomala","ascii":"Yomala","lat":60.16689,"lon":19.93341,"population":5789},{"id":3041760,"name":"Jomala","ascii":"Jomala","lat":60.14902,"lon":19.951,"population":3662},{"id":3041666,"name":"Tjudö","ascii":"Tjudoe","lat":60.33333,"lon":19.95,"population":2630},{"id":3041798,"name":"Finström","ascii":"Finstroem","lat":60.26667,"lon":19.93333,"population":2412},{"id":648382,"name":"Lemland","ascii":"Lemland","lat":60.07178,"lon":20.08472,"population":1829},{"id":637878,"name":"Saltvik","ascii":"Saltvik","lat":60.28333,"lon":20.05,"population":1691},{"id":3041776,"name":"Hammarland","ascii":"Hammarland","lat":60.21667,"lon":19.75,"population":1395},{"id":659823,"name":"Godby","ascii":"Godby","lat":60.22995,"lon":19.9881,"population":1369},{"id":660567,"name":"Bomarsund","ascii":"Bomarsund","lat":60.21234,"lon":20.24023,"population":1016},{"id":635815,"name":"Sund","ascii":"Sund","lat":60.25,"lon":20.11667,"population":1016},{"id":3041807,"name":"Eckerö","ascii":"Eckeroe","lat":60.21249,"lon":19.61442,"population":959},{"id":659949,"name":"Föglö","ascii":"Foegloe","lat":60.01392,"lon":20.41377,"population":632},{"id":660521,"name":"Brändö","ascii":"Braendoe","lat":60.41165,"lon":21.04534,"population":515},{"id":3041792,"name":"Geta","ascii":"Geta","lat":60.37453,"lon":19.84455,"population":452},{"id":632421,"name":"Vårdö","ascii":"Vardoe","lat":60.25,"lon":20.38333,"population":411},{"id":650395,"name":"Kumlinge","ascii":"Kumlinge","lat":60.26013,"lon":20.77892,"population":384},{"id":651986,"name":"Kökar","ascii":"Koekar","lat":59.92051,"lon":20.90883,"population":355},{"id":647455,"name":"Lumparland","ascii":"Lumparland","lat":60.11695,"lon":20.25819,"population":335},{"id":636158,"name":"Sottunga","ascii":"Sottunga","lat":60.13023,"lon":20.66683,"population":144}]