[{"id":2800866,"name":"Brussels","nameKo":"브뤼셀","ascii":"Brussels","lat":50.85045,"lon":4.34878,"population":1019022},{"id":2803138,"name":"Antwerpen","nameKo":"안트베르펜","ascii":"Antwerpen","lat":51.22047,"lon":4.40026,"population":529247},{"id":2797656,"name":"Gent","nameKo":"헨트","ascii":"Gent","lat":51.05,"lon":3.71667,"population":265086},{"id":2800481,"name":"Charleroi","nameKo":"샤를루아","ascii":"Charleroi","lat":50.41136,"lon":4.44448,"population":200132},{"id":2792413,"name":"Liège","nameKo":"리에주","ascii":"Liege","lat":50.63373,"lon":5.56749,"population":195278},{"id":2803201,"name":"Anderlecht","nameKo":"안더레흐트","ascii":"Anderlecht","lat":50.83619,"lon":4.31454,"population":160553},{"id":2787149,"name":"Schaerbeek","nameKo":"스하르베이크","ascii":"Schaerbeek","lat":50.86935,"lon":4.37737,"population":132761},{"id":2800931,"name":"Brugge","nameKo":"브뤼허","ascii":"Brugge","lat":51.20892,"lon":3.22424,"population":118509},{"id":2790471,"name":"Namur","nameKo":"나뮈르","ascii":"Namur","lat":50.4669,"lon":4.86746,"population":110939},{"id":2792482,"name":"Leuven","ascii":"Leuven","lat":50.87959,"lon":4.70093,"population":101032},{"id":2791018,"name":"Molenbeek-Saint-Jean","ascii":"Molenbeek-Saint-Jean","lat":50.8499,"lon":4.31248,"population":97037},{"id":2790869,"name":"Mons","nameKo":"몽스","ascii":"Mons","lat":50.45413,"lon":3.95229,"population":95299},{"id":2795011,"name":"Ixelles","nameKo":"익셀","ascii":"Ixelles","lat":50.83333,"lon":4.36667,"population":86671},{"id":2785123,"name":"Uccle","nameKo":"위클","ascii":"Uccle","lat":50.80225,"lon":4.33943,"population":82929},{"id":2799478,"name":"Deurne","ascii":"Deurne","lat":51.22134,"lon":4.46595,"population":78747},{"id":2796491,"name":"Hasselt","nameKo":"하셀트","ascii":"Hasselt","lat":50.93106,"lon":5.33781,"population":77651},{"id":2803448,"name":"Aalst","ascii":"Aalst","lat":50.93604,"lon":4.0355,"population":77534},{"id":2791537,"name":"Mechelen","nameKo":"메헬렌","ascii":"Mechelen","lat":51.02574,"lon":4.47762,"population":77530},{"id":2793508,"name":"La Louvière","nameKo":"라루비에르","ascii":"La Louviere","lat":50.48657,"lon":4.18785,"population":76668},{"id":2794055,"name":"Kortrijk","nameKo":"코르트레이크","ascii":"Kortrijk","lat":50.82803,"lon":3.26487,"population":73879},{"id":2785341,"name":"Tournai","nameKo":"투르네","ascii":"Tournai","lat":50.60715,"lon":3.38932,"population":69554},{"id":2789786,"name":"Ostend","nameKo":"오스텐더","ascii":"Ostend","lat":51.21551,"lon":2.927,"population":69011},{"id":2786578,"name":"Sint-Niklaas","ascii":"Sint-Niklaas","lat":51.16509,"lon":4.1437,"population":69010},{"id":2797670,"name":"Genk","ascii":"Genk","lat":50.965,"lon":5.50082,"population":63666},{"id":2786824,"name":"Seraing","nameKo":"세랭","ascii":"Seraing","lat":50.58362,"lon":5.50115,"population":60737},{"id":2783476,"name":"Woluwe-Saint-Lambert","nameKo":"월뤼브생랑베르","ascii":"Woluwe-Saint-Lambert","lat":50.84389,"lon":4.42912,"population":56584},{"id":2798139,"name":"Forest","nameKo":"포레","ascii":"Forest","lat":50.81678,"lon":4.32775,"population":56254},{"id":2787889,"name":"Roeselare","nameKo":"루셀라레","ascii":"Roeselare","lat":50.94653,"lon":3.12269,"population":56016},{"id":2784821,"name":"Verviers","nameKo":"베르비에","ascii":"Verviers","lat":50.58907,"lon":5.86241,"population":52824},{"id":2794914,"name":"Jette","nameKo":"제트","ascii":"Jette","lat":50.87309,"lon":4.33419,"population":52490},{"id":2790595,"name":"Mouscron","nameKo":"무스크롱","ascii":"Mouscron","lat":50.74497,"lon":3.20639,"population":52069},{"id":2787413,"name":"Saint-Gilles","nameKo":"생질","ascii":"Saint-Gilles","lat":50.82763,"lon":4.34389,"population":50221},{"id":2798578,"name":"Etterbeek","nameKo":"에테르베이크","ascii":"Etterbeek","lat":50.83272,"lon":4.38835,"population":48344},{"id":2801471,"name":"Borgerhout","ascii":"Borgerhout","lat":51.20957,"lon":4.43539,"population":46087},{"id":2799645,"name":"Dendermonde","nameKo":"덴데르몬더","ascii":"Dendermonde","lat":51.02869,"lon":4.10106,"population":45673},{"id":2802031,"name":"Beveren","nameKo":"베베런","ascii":"Beveren","lat":51.21187,"lon":4.25633,"population":45179},{"id":2791301,"name":"Merksem","ascii":"Merksem","lat":51.24623,"lon":4.44903,"population":44435},{"id":2785141,"name":"Turnhout","nameKo":"튀른하우트","ascii":"Turnhout","lat":51.32254,"lon":4.94471,"population":44000},{"id":2802249,"name":"Berchem","ascii":"Berchem","lat":51.19021,"lon":4.43264,"population":43511},{"id":2798554,"name":"Evere","nameKo":"에베러","ascii":"Evere","lat":50.87441,"lon":4.39905,"population":41667},{"id":2792196,"name":"Lokeren","ascii":"Lokeren","lat":51.10364,"lon":3.99339,"population":41438},{"id":2783615,"name":"Wilrijk","ascii":"Wilrijk","lat":51.16734,"lon":4.39513,"population":41403},{"id":2802170,"name":"Beringen","ascii":"Beringen","lat":51.04954,"lon":5.22606,"population":40930},{"id":2799365,"name":"Dilbeek","ascii":"Dilbeek","lat":50.84799,"lon":4.25972,"population":39482},{"id":2796153,"name":"Heist-op-den-Berg","ascii":"Heist-op-den-Berg","lat":51.07537,"lon":4.72827,"population":37873},{"id":2786545,"name":"Sint-Truiden","nameKo":"신트트라위던","ascii":"Sint-Truiden","lat":50.81679,"lon":5.18647,"population":37859},{"id":2801154,"name":"Braine-l'Alleud","ascii":"Braine-l'Alleud","lat":50.68363,"lon":4.36784,"population":37512},{"id":2801117,"name":"Brasschaat","ascii":"Brasschaat","lat":51.2912,"lon":4.49182,"population":37040},{"id":2797114,"name":"Grimbergen","ascii":"Grimbergen","lat":50.93409,"lon":4.37213,"population":37000},{"id":2784604,"name":"Vilvoorde","ascii":"Vilvoorde","lat":50.92814,"lon":4.42938,"population":36955},{"id":2795930,"name":"Herstal","nameKo":"에르스탈","ascii":"Herstal","lat":50.66415,"lon":5.62346,"population":36503},{"id":2791961,"name":"Maasmechelen","ascii":"Maasmechelen","lat":50.96545,"lon":5.69452,"population":36251},{"id":2784068,"name":"Waregem","nameKo":"바레험","ascii":"Waregem","lat":50.88898,"lon":3.42756,"population":35896},{"id":2800448,"name":"Châtelet","ascii":"Chatelet","lat":50.40338,"lon":4.52826,"population":35238},{"id":2795100,"name":"Ieper","nameKo":"이퍼르","ascii":"Ieper","lat":50.85114,"lon":2.88569,"population":35089},{"id":2790114,"name":"Ninove","ascii":"Ninove","lat":50.82776,"lon":4.02657,"population":34795},{"id":2797779,"name":"Geel","nameKo":"헤일","ascii":"Geel","lat":51.16557,"lon":4.98917,"population":34697},{"id":2796696,"name":"Halle","ascii":"Halle","lat":50.73385,"lon":4.23454,"population":34479},{"id":2795730,"name":"Hoboken","ascii":"Hoboken","lat":51.17611,"lon":4.34844,"population":34443},{"id":2783941,"name":"Wavre","nameKo":"우아브르","ascii":"Wavre","lat":50.71717,"lon":4.60138,"population":34305},{"id":2802960,"name":"Auderghem","nameKo":"오데르겜","ascii":"Auderghem","lat":50.81667,"lon":4.43333,"population":33984},{"id":2794210,"name":"Knokke-Heist","nameKo":"크노커헤이스트","ascii":"Knokke-Heist","lat":51.35,"lon":3.26667,"population":33781},{"id":2786963,"name":"Schoten","ascii":"Schoten","lat":51.25251,"lon":4.50268,"population":33622},{"id":2792397,"name":"Lier","nameKo":"리르","ascii":"Lier","lat":51.13128,"lon":4.57041,"population":33272},{"id":2791067,"name":"Mol","nameKo":"몰","ascii":"Mol","lat":51.19188,"lon":5.11662,"population":32659},{"id":2786743,"name":"Sint-Amandsberg","ascii":"Sint-Amandsberg","lat":51.05947,"lon":3.74943,"population":32115},{"id":2801922,"name":"Binche","nameKo":"뱅슈","ascii":"Binche","lat":50.41155,"lon":4.16469,"population":32030},{"id":2792179,"name":"Lommel","ascii":"Lommel","lat":51.23074,"lon":5.31349,"population":31993},{"id":2791343,"name":"Menen","ascii":"Menen","lat":50.79722,"lon":3.12245,"population":31916},{"id":2789529,"name":"Oudenaarde","nameKo":"아우데나르더","ascii":"Oudenaarde","lat":50.85168,"lon":3.60891,"population":31866},{"id":2785470,"name":"Tienen","ascii":"Tienen","lat":50.80745,"lon":4.9378,"population":31743},{"id":2798551,"name":"Evergem","ascii":"Evergem","lat":51.11306,"lon":3.70976,"population":31615},{"id":2795800,"name":"Heusden","ascii":"Heusden","lat":51.03664,"lon":5.28013,"population":31017},{"id":2783759,"name":"Wevelgem","ascii":"Wevelgem","lat":50.8,"lon":3.16667,"population":30954},{"id":2797638,"name":"Geraardsbergen","ascii":"Geraardsbergen","lat":50.77343,"lon":3.88223,"population":30807},{"id":2786559,"name":"Sint-Pieters-Leeuw","ascii":"Sint-Pieters-Leeuw","lat":50.77926,"lon":4.24355,"population":30446},{"id":2801824,"name":"Blauwput","ascii":"Blauwput","lat":50.88587,"lon":4.72415,"population":30215},{"id":2794507,"name":"Kessel-Lo","ascii":"Kessel-Lo","lat":50.88549,"lon":4.73717,"population":30215},{"id":2796132,"name":"Helchteren","ascii":"Helchteren","lat":51.05591,"lon":5.38244,"population":30050},{"id":2795261,"name":"Houthalen","ascii":"Houthalen","lat":51.03427,"lon":5.37429,"population":30050},{"id":2785389,"name":"Tongeren","nameKo":"통에런","ascii":"Tongeren","lat":50.78054,"lon":5.46484,"population":29816},{"id":2799746,"name":"Deinze","ascii":"Deinze","lat":50.98175,"lon":3.53096,"population":29815},{"id":2783985,"name":"Waterloo","nameKo":"워털루","ascii":"Waterloo","lat":50.71469,"lon":4.3991,"population":29778},{"id":2801924,"name":"Bilzen","ascii":"Bilzen","lat":50.87325,"lon":5.5184,"population":29622},{"id":2792073,"name":"Louvain-la-Neuve","ascii":"Louvain-la-Neuve","lat":50.66829,"lon":4.61443,"population":29521},{"id":2800063,"name":"Courcelles","ascii":"Courcelles","lat":50.46379,"lon":4.3747,"population":29473},{"id":2803033,"name":"Asse","nameKo":"아서","ascii":"Asse","lat":50.91011,"lon":4.19836,"population":28985},{"id":2783310,"name":"Zaventem","ascii":"Zaventem","lat":50.88365,"lon":4.47298,"population":28188},{"id":2803429,"name":"Aarschot","nameKo":"아르스홋","ascii":"Aarschot","lat":50.98715,"lon":4.83695,"population":27656},{"id":2787387,"name":"Saint-Josse-ten-Noode","nameKo":"생조스탕노드","ascii":"Saint-Josse-ten-Noode","lat":50.8538,"lon":4.37282,"population":27366},{"id":2803160,"name":"Ans","ascii":"Ans","lat":50.6623,"lon":5.52029,"population":27297},{"id":2803010,"name":"Ath","ascii":"Ath","lat":50.62937,"lon":3.77801,"population":26681},{"id":2794730,"name":"Kapellen","ascii":"Kapellen","lat":51.31377,"lon":4.43539,"population":26410},{"id":2795009,"name":"Izegem","ascii":"Izegem","lat":50.91396,"lon":3.21378,"population":26382},{"id":2803073,"name":"Arlon","nameKo":"아를롱","ascii":"Arlon","lat":49.68333,"lon":5.81667,"population":26179},{"id":2785778,"name":"Temse","ascii":"Temse","lat":51.12794,"lon":4.21372,"population":26054},{"id":2796542,"name":"Harelbeke","ascii":"Harelbeke","lat":50.85343,"lon":3.30935,"population":25978},{"id":2796009,"name":"Herentals","ascii":"Herentals","lat":51.17655,"lon":4.83248,"population":25912},{"id":2791964,"name":"Maaseik","nameKo":"마세이크","ascii":"Maaseik","lat":51.09802,"lon":5.78379,"population":25201},{"id":2802247,"name":"Berchem-Sainte-Agathe","ascii":"Berchem-Sainte-Agathe","lat":50.86567,"lon":4.29557,"population":25162},{"id":2783979,"name":"Watermael-Boitsfort","nameKo":"와테르말부아포르","ascii":"Watermael-Boitsfort","lat":50.80154,"lon":4.41436,"population":25157},{"id":2798307,"name":"Flémalle-Haute","ascii":"Flemalle-Haute","lat":50.59994,"lon":5.44471,"population":25144},{"id":2786420,"name":"Soignies","ascii":"Soignies","lat":50.57904,"lon":4.07129,"population":24869},{"id":2797844,"name":"Ganshoren","nameKo":"강소랑","ascii":"Ganshoren","lat":50.87065,"lon":4.31531,"population":24859},{"id":2793446,"name":"Lanaken","ascii":"Lanaken","lat":50.89318,"lon":5.6468,"population":24771},{"id":2790676,"name":"Mortsel","ascii":"Mortsel","lat":51.16697,"lon":4.45127,"population":24525},{"id":2794860,"name":"Jumet","ascii":"Jumet","lat":50.4422,"lon":4.43745,"population":24510},{"id":2783175,"name":"Zottegem","ascii":"Zottegem","lat":50.86955,"lon":3.81052,"population":24434},{"id":2787769,"name":"Ronse","ascii":"Ronse","lat":50.74574,"lon":3.6005,"population":24204},{"id":2790101,"name":"Nivelles","ascii":"Nivelles","lat":50.59833,"lon":4.32848,"population":24149},{"id":2803204,"name":"Andenne","ascii":"Andenne","lat":50.48941,"lon":5.09513,"population":24055},{"id":2791726,"name":"Marcinelle","ascii":"Marcinelle","lat":50.39216,"lon":4.44388,"population":23696},{"id":2789471,"name":"Oupeye","ascii":"Oupeye","lat":50.71184,"lon":5.6468,"population":23594},{"id":2783456,"name":"Wondelgem","ascii":"Wondelgem","lat":51.08705,"lon":3.70909,"population":23546},{"id":2789413,"name":"Overijse","ascii":"Overijse","lat":50.77436,"lon":4.53461,"population":23486},{"id":2783089,"name":"Zwevegem","ascii":"Zwevegem","lat":50.81268,"lon":3.33848,"population":23358},{"id":2798873,"name":"Ekeren","ascii":"Ekeren","lat":51.28087,"lon":4.41813,"population":23300},{"id":2795783,"name":"Heverlee","ascii":"Heverlee","lat":50.86426,"lon":4.69597,"population":23278},{"id":2802433,"name":"Beersel","ascii":"Beersel","lat":50.76589,"lon":4.3002,"population":23228},{"id":2783763,"name":"Wetteren","ascii":"Wetteren","lat":51.00526,"lon":3.88341,"population":22930},{"id":2796637,"name":"Hamme","ascii":"Hamme","lat":51.09822,"lon":4.13705,"population":22891},{"id":2783632,"name":"Willebroek","ascii":"Willebroek","lat":51.06041,"lon":4.36019,"population":22808},{"id":2787356,"name":"Saint-Nicolas","ascii":"Saint-Nicolas","lat":50.62837,"lon":5.53243,"population":22586},{"id":2783801,"name":"Westerlo","ascii":"Westerlo","lat":51.09049,"lon":4.91544,"population":22579},{"id":2799397,"name":"Diest","ascii":"Diest","lat":50.98923,"lon":5.05062,"population":22516},{"id":2787416,"name":"Saint-Ghislain","ascii":"Saint-Ghislain","lat":50.44816,"lon":3.81886,"population":22500},{"id":2791814,"name":"Manage","ascii":"Manage","lat":50.50312,"lon":4.23589,"population":22196},{"id":2791857,"name":"Maldegem","ascii":"Maldegem","lat":51.20737,"lon":3.44511,"population":22092},{"id":2798297,"name":"Fleurus","nameKo":"플뢰뤼스","ascii":"Fleurus","lat":50.48351,"lon":4.55006,"population":22080},{"id":2794190,"name":"Koekelberg","nameKo":"쿠켈베르흐","ascii":"Koekelberg","lat":50.86117,"lon":4.33136,"population":21984},{"id":2783308,"name":"Zedelgem","ascii":"Zedelgem","lat":51.14236,"lon":3.1368,"population":21968},{"id":2794166,"name":"Koksijde","ascii":"Koksijde","lat":51.11642,"lon":2.63772,"population":21957},{"id":2799007,"name":"Edegem","ascii":"Edegem","lat":51.15662,"lon":4.44504,"population":21839},{"id":2797713,"name":"Gembloux","nameKo":"장블루","ascii":"Gembloux","lat":50.56149,"lon":4.69889,"population":21676},{"id":2787989,"name":"Rixensart","ascii":"Rixensart","lat":50.71229,"lon":4.52529,"population":21616},{"id":2789751,"name":"Oostkamp","ascii":"Oostkamp","lat":51.15432,"lon":3.23128,"population":21489},{"id":2783274,"name":"Zemst","ascii":"Zemst","lat":50.98318,"lon":4.46079,"population":21096},{"id":2797096,"name":"Grivegnée","ascii":"Grivegnee","lat":50.62148,"lon":5.61101,"population":21057},{"id":2800438,"name":"Chaudfontaine","ascii":"Chaudfontaine","lat":50.5828,"lon":5.6341,"population":20960},{"id":2790135,"name":"Nijlen","ascii":"Nijlen","lat":51.16096,"lon":4.67008,"population":20792},{"id":2785622,"name":"Tervuren","ascii":"Tervuren","lat":50.82372,"lon":4.51418,"population":20623},{"id":2798023,"name":"Frameries","ascii":"Frameries","lat":50.40578,"lon":3.89603,"population":20598},{"id":2787048,"name":"Schilde","ascii":"Schilde","lat":51.24107,"lon":4.58336,"population":20373},{"id":2794117,"name":"Kontich","ascii":"Kontich","lat":51.13213,"lon":4.44706,"population":20290},{"id":2783293,"name":"Zele","ascii":"Zele","lat":51.06566,"lon":4.0403,"population":20236},{"id":2801150,"name":"Braine-le-Comte","ascii":"Braine-le-Comte","lat":50.60979,"lon":4.14658,"population":20133},{"id":2801226,"name":"Boussu","ascii":"Boussu","lat":50.43417,"lon":3.7944,"population":20058},{"id":2797532,"name":"Gilly","ascii":"Gilly","lat":50.42449,"lon":4.4789,"population":20043},{"id":2801447,"name":"Bornem","ascii":"Bornem","lat":51.09716,"lon":4.24364,"population":19997},{"id":2802743,"name":"Balen","ascii":"Balen","lat":51.16837,"lon":5.17027,"population":19978},{"id":2795113,"name":"Huy","nameKo":"이","ascii":"Huy","lat":50.51894,"lon":5.23284,"population":19973},{"id":2800220,"name":"Colfontaine","ascii":"Colfontaine","lat":50.4141,"lon":3.85569,"population":19964},{"id":2783188,"name":"Zonhoven","ascii":"Zonhoven","lat":50.99064,"lon":5.36819,"population":19922},{"id":2803030,"name":"Assebroek","ascii":"Assebroek","lat":51.19367,"lon":3.2623,"population":19772},{"id":2792235,"name":"Lochristi","ascii":"Lochristi","lat":51.09644,"lon":3.83194,"population":19696},{"id":2794981,"name":"Jambes","ascii":"Jambes","lat":50.45636,"lon":4.87166,"population":19658},{"id":2788726,"name":"Poperinge","ascii":"Poperinge","lat":50.85386,"lon":2.72659,"population":19537},{"id":2786641,"name":"Sint-Katelijne-Waver","ascii":"Sint-Katelijne-Waver","lat":51.06691,"lon":4.53469,"population":19487},{"id":2786739,"name":"Sint-Andries","ascii":"Sint-Andries","lat":51.19696,"lon":3.17891,"population":19336},{"id":2785476,"name":"Tielt","ascii":"Tielt","lat":50.99931,"lon":3.32707,"population":19299},{"id":2796012,"name":"Herent","ascii":"Herent","lat":50.90861,"lon":4.67056,"population":19218},{"id":2798987,"name":"Eeklo","ascii":"Eeklo","lat":51.18703,"lon":3.55654,"population":19116},{"id":2785364,"name":"Torhout","ascii":"Torhout","lat":51.0656,"lon":3.10085,"population":18933},{"id":2803443,"name":"Aalter","ascii":"Aalter","lat":51.09017,"lon":3.44693,"population":18802},{"id":2790796,"name":"Montignies-sur-Sambre","ascii":"Montignies-sur-Sambre","lat":50.41081,"lon":4.49109,"population":18765},{"id":2795398,"name":"Hoogstraten","ascii":"Hoogstraten","lat":51.40029,"lon":4.76034,"population":18524},{"id":2791424,"name":"Meise","ascii":"Meise","lat":50.93934,"lon":4.32655,"population":18497},{"id":2788499,"name":"Quaregnon","ascii":"Quaregnon","lat":50.44067,"lon":3.8653,"population":18491},{"id":2783081,"name":"Zwijndrecht","ascii":"Zwijndrecht","lat":51.21979,"lon":4.32664,"population":18249},{"id":2790697,"name":"Morlanwelz-Mariemont","ascii":"Morlanwelz-Mariemont","lat":50.45502,"lon":4.24519,"population":18233},{"id":2794179,"name":"Koersel","ascii":"Koersel","lat":51.05909,"lon":5.27121,"population":18076},{"id":2798573,"name":"Eupen","nameKo":"오이펜","ascii":"Eupen","lat":50.6279,"lon":6.03647,"population":18029},{"id":2801858,"name":"Blankenberge","ascii":"Blankenberge","lat":51.31306,"lon":3.13227,"population":18000},{"id":2785169,"name":"Tubize","nameKo":"튀비즈","ascii":"Tubize","lat":50.69059,"lon":4.2009,"population":18000},{"id":2786700,"name":"Sint-Genesius-Rode","ascii":"Sint-Genesius-Rode","lat":50.74645,"lon":4.35754,"population":17990},{"id":2791194,"name":"Middelkerke","ascii":"Middelkerke","lat":51.18532,"lon":2.82077,"population":17789},{"id":2794070,"name":"Kortenberg","ascii":"Kortenberg","lat":50.88982,"lon":4.54353,"population":17774},{"id":2794663,"name":"Kasterlee","ascii":"Kasterlee","lat":51.24118,"lon":4.96651,"population":17765},{"id":2799412,"name":"Diepenbeek","ascii":"Diepenbeek","lat":50.90769,"lon":5.41875,"population":17699},{"id":2792567,"name":"Lessines","ascii":"Lessines","lat":50.71104,"lon":3.83579,"population":17687},{"id":2786694,"name":"Sint-Gillis-Waas","ascii":"Sint-Gillis-Waas","lat":51.21914,"lon":4.12374,"population":17658},{"id":2784189,"name":"Walcourt","ascii":"Walcourt","lat":50.25401,"lon":4.43796,"population":17501},{"id":2794788,"name":"Kalmthout","ascii":"Kalmthout","lat":51.38442,"lon":4.47556,"population":17485},{"id":2788348,"name":"Ranst","ascii":"Ranst","lat":51.18983,"lon":4.56533,"population":17405},{"id":2793144,"name":"Lebbeke","ascii":"Lebbeke","lat":51.00464,"lon":4.13457,"population":17372},{"id":2783820,"name":"Wervik","ascii":"Wervik","lat":50.78069,"lon":3.03854,"population":17340},{"id":2786229,"name":"Stabroek","ascii":"Stabroek","lat":51.33189,"lon":4.37127,"population":17294},{"id":2783197,"name":"Zolder","ascii":"Zolder","lat":51.02455,"lon":5.30983,"population":17289},{"id":2800445,"name":"Châtelineau","ascii":"Chatelineau","lat":50.41499,"lon":4.52016,"population":17166},{"id":2796833,"name":"Haaltert","ascii":"Haaltert","lat":50.90634,"lon":4.00093,"population":17129},{"id":2791700,"name":"Mariakerke","ascii":"Mariakerke","lat":51.07476,"lon":3.68289,"population":17062},{"id":2784548,"name":"Visé","ascii":"Vise","lat":50.7376,"lon":5.69907,"population":17054},{"id":2786087,"name":"Stekene","ascii":"Stekene","lat":51.2099,"lon":4.03651,"population":16989},{"id":2799647,"name":"Denderleeuw","ascii":"Denderleeuw","lat":50.88506,"lon":4.07601,"population":16969},{"id":2799226,"name":"Dour","ascii":"Dour","lat":50.39583,"lon":3.77792,"population":16861},{"id":2791744,"name":"Marche-en-Famenne","nameKo":"마르슈앙파멘","ascii":"Marche-en-Famenne","lat":50.22678,"lon":5.34416,"population":16856},{"id":2799496,"name":"Destelbergen","ascii":"Destelbergen","lat":51.05952,"lon":3.79899,"population":16853},{"id":2793077,"name":"Lede","ascii":"Lede","lat":50.96626,"lon":3.98594,"population":16813},{"id":2791315,"name":"Merelbeke","ascii":"Merelbeke","lat":50.99447,"lon":3.74621,"population":16684},{"id":2789162,"name":"Péruwelz","ascii":"Peruwelz","lat":50.50819,"lon":3.59373,"population":16647},{"id":2785612,"name":"Tessenderlo","nameKo":"테선데를로","ascii":"Tessenderlo","lat":51.06513,"lon":5.08856,"population":16574},{"id":2795912,"name":"Herve","ascii":"Herve","lat":50.64083,"lon":5.79353,"population":16544},{"id":2795908,"name":"Herzele","ascii":"Herzele","lat":50.88681,"lon":3.89014,"population":16523},{"id":2802435,"name":"Beerse","ascii":"Beerse","lat":51.31927,"lon":4.85304,"population":16208},{"id":2790357,"name":"Neerpelt","ascii":"Neerpelt","lat":51.22807,"lon":5.4427,"population":16122},{"id":2799090,"name":"Duffel","ascii":"Duffel","lat":51.09554,"lon":4.50903,"population":16011},{"id":2786634,"name":"Sint-Kruis","ascii":"Sint-Kruis","lat":51.21399,"lon":3.24949,"population":16000},{"id":2798301,"name":"Fléron","ascii":"Fleron","lat":50.61516,"lon":5.68062,"population":15994},{"id":2788506,"name":"Puurs","ascii":"Puurs","lat":51.07409,"lon":4.28844,"population":15944},{"id":2788765,"name":"Pont-à-Celles","ascii":"Pont-a-Celles","lat":50.50518,"lon":4.36887,"population":15909},{"id":2797652,"name":"Gentbrugge","ascii":"Gentbrugge","lat":51.03692,"lon":3.76509,"population":15885},{"id":2801494,"name":"Boom","ascii":"Boom","lat":51.09242,"lon":4.3717,"population":15810},{"id":2788088,"name":"Riemst","ascii":"Riemst","lat":50.80995,"lon":5.60131,"population":15809},{"id":2789232,"name":"Peer","ascii":"Peer","lat":51.1303,"lon":5.45952,"population":15551},{"id":2799369,"name":"Diksmuide","ascii":"Diksmuide","lat":51.03248,"lon":2.86384,"population":15515},{"id":2792360,"name":"Lille","ascii":"Lille","lat":51.24197,"lon":4.82313,"population":15466},{"id":2795795,"name":"Heusy","ascii":"Heusy","lat":50.57457,"lon":5.86618,"population":15420},{"id":2791534,"name":"Mechelen-aan-de-Maas","ascii":"Mechelen-aan-de-Maas","lat":50.96589,"lon":5.69144,"population":15374},{"id":2802039,"name":"Bevere","ascii":"Bevere","lat":50.8496,"lon":3.5873,"population":15311},{"id":2788521,"name":"Putte","ascii":"Putte","lat":51.05337,"lon":4.63263,"population":15276},{"id":2786344,"name":"Soumagne","ascii":"Soumagne","lat":50.61385,"lon":5.74679,"population":15237},{"id":2791735,"name":"Marchienne-au-Pont","ascii":"Marchienne-au-Pont","lat":50.40573,"lon":4.3953,"population":15154},{"id":2787662,"name":"Rotselaar","ascii":"Rotselaar","lat":50.95302,"lon":4.71665,"population":15007},{"id":2783416,"name":"Wuustwezel","ascii":"Wuustwezel","lat":51.39214,"lon":4.59546,"population":15000},{"id":2795516,"name":"Hollogne-aux-Pierres","ascii":"Hollogne-aux-Pierres","lat":50.64059,"lon":5.47179,"population":14944},{"id":2802990,"name":"Aubange","ascii":"Aubange","lat":49.56652,"lon":5.80492,"population":14932},{"id":2801103,"name":"Bredene","ascii":"Bredene","lat":51.23489,"lon":2.97559,"population":14862},{"id":2800298,"name":"Ciney","nameKo":"시네","ascii":"Ciney","lat":50.29449,"lon":5.10015,"population":14830},{"id":2793940,"name":"Kruibeke","ascii":"Kruibeke","lat":51.17048,"lon":4.31444,"population":14815},{"id":2785517,"name":"Thuin","ascii":"Thuin","lat":50.33933,"lon":4.28604,"population":14682},{"id":2783151,"name":"Zulte","ascii":"Zulte","lat":50.91954,"lon":3.44859,"population":14670},{"id":2791323,"name":"Merchtem","ascii":"Merchtem","lat":50.95129,"lon":4.23197,"population":14660},{"id":2785654,"name":"Ternat","ascii":"Ternat","lat":50.86654,"lon":4.16682,"population":14569},{"id":2787521,"name":"Rumst","ascii":"Rumst","lat":51.08153,"lon":4.42217,"population":14521},{"id":2802437,"name":"Beernem","ascii":"Beernem","lat":51.13981,"lon":3.33896,"population":14512},{"id":2793429,"name":"Landen","ascii":"Landen","lat":50.75267,"lon":5.082,"population":14458},{"id":2794212,"name":"Knokke","ascii":"Knokke","lat":51.35113,"lon":3.28744,"population":14449},{"id":2783856,"name":"Wemmel","ascii":"Wemmel","lat":50.90812,"lon":4.30613,"population":14406},{"id":2802583,"name":"Bastogne","nameKo":"바스토뉴","ascii":"Bastogne","lat":50.00347,"lon":5.71844,"population":14395},{"id":2801093,"name":"Bree","ascii":"Bree","lat":51.14152,"lon":5.5969,"population":14363},{"id":2800500,"name":"Chapelle-lez-Herlaimont","ascii":"Chapelle-lez-Herlaimont","lat":50.4713,"lon":4.28227,"population":14353},{"id":2798949,"name":"Éghezée","ascii":"Eghezee","lat":50.59076,"lon":4.91175,"population":14352},{"id":2795329,"name":"Houdeng-Goegnies","ascii":"Houdeng-Goegnies","lat":50.49032,"lon":4.17513,"population":14312},{"id":2797694,"name":"Genappe","ascii":"Genappe","lat":50.61173,"lon":4.45152,"population":14266},{"id":2787532,"name":"Rumbeke","ascii":"Rumbeke","lat":50.93248,"lon":3.16716,"population":14265},{"id":2803420,"name":"Aartselaar","ascii":"Aartselaar","lat":51.13412,"lon":4.38678,"population":14193},{"id":2792856,"name":"Leopoldsburg","ascii":"Leopoldsburg","lat":51.11667,"lon":5.25,"population":14149},{"id":2796583,"name":"Hannut","ascii":"Hannut","lat":50.67142,"lon":5.07898,"population":14129},{"id":2801106,"name":"Brecht","ascii":"Brecht","lat":51.35024,"lon":4.63829,"population":14007},{"id":2803130,"name":"Anzegem","ascii":"Anzegem","lat":50.837,"lon":3.47786,"population":13920},{"id":2802610,"name":"Basse Lasne","ascii":"Basse Lasne","lat":50.69503,"lon":4.49218,"population":13861},{"id":2802154,"name":"Berlare","ascii":"Berlare","lat":51.03333,"lon":4,"population":13853},{"id":2798309,"name":"Flémalle-Grande","ascii":"Flemalle-Grande","lat":50.60906,"lon":5.47668,"population":13738},{"id":2784066,"name":"Waremme","ascii":"Waremme","lat":50.6976,"lon":5.25524,"population":13737},{"id":2785949,"name":"Strombeek-Bever","ascii":"Strombeek-Bever","lat":50.91039,"lon":4.35582,"population":13727},{"id":2785293,"name":"Tremelo","ascii":"Tremelo","lat":50.99231,"lon":4.70807,"population":13721},{"id":2792007,"name":"Lummen","ascii":"Lummen","lat":50.98772,"lon":5.19121,"population":13689},{"id":2799347,"name":"Dison","ascii":"Dison","lat":50.61004,"lon":5.8534,"population":13642},{"id":2795106,"name":"Ichtegem","ascii":"Ichtegem","lat":51.09572,"lon":3.01549,"population":13582},{"id":2792034,"name":"Lubbeek","ascii":"Lubbeek","lat":50.88278,"lon":4.83896,"population":13574},{"id":2788312,"name":"Ravels","ascii":"Ravels","lat":51.37274,"lon":4.9921,"population":13560},{"id":2800025,"name":"Couvin","nameKo":"쿠뱅","ascii":"Couvin","lat":50.05284,"lon":4.49495,"population":13518},{"id":2800816,"name":"Buggenhout","ascii":"Buggenhout","lat":51.0159,"lon":4.20173,"population":13510},{"id":2798636,"name":"Esneux","ascii":"Esneux","lat":50.53596,"lon":5.56775,"population":13497},{"id":2803026,"name":"Assenede","ascii":"Assenede","lat":51.22598,"lon":3.75085,"population":13495},{"id":2795933,"name":"Herselt","ascii":"Herselt","lat":51.05159,"lon":4.88231,"population":13493},{"id":2794999,"name":"Jabbeke","ascii":"Jabbeke","lat":51.18185,"lon":3.08935,"population":13488},{"id":2802292,"name":"Beloeil","ascii":"Beloeil","lat":50.55047,"lon":3.73484,"population":13405},{"id":2789403,"name":"Overpelt","ascii":"Overpelt","lat":51.21038,"lon":5.41557,"population":13344},{"id":2803246,"name":"Amay","ascii":"Amay","lat":50.54829,"lon":5.30974,"population":13307},{"id":2783737,"name":"Wezembeek-Oppem","ascii":"Wezembeek-Oppem","lat":50.8395,"lon":4.49427,"population":13245},{"id":2789771,"name":"Oosterzele","ascii":"Oosterzele","lat":50.95261,"lon":3.79826,"population":13151},{"id":2799108,"name":"Drongen","ascii":"Drongen","lat":51.05067,"lon":3.65649,"population":13016},{"id":2786697,"name":"Sint-Gillis-bij-Dendermonde","ascii":"Sint-Gillis-bij-Dendermonde","lat":51.01905,"lon":4.11146,"population":12953},{"id":2796157,"name":"Heist","ascii":"Heist","lat":51.33867,"lon":3.23882,"population":12951},{"id":2786242,"name":"Sprimont","ascii":"Sprimont","lat":50.50922,"lon":5.6595,"population":12945},{"id":2784092,"name":"Wanze","ascii":"Wanze","lat":50.53907,"lon":5.20846,"population":12918},{"id":2783586,"name":"Wingene","ascii":"Wingene","lat":51.05782,"lon":3.27359,"population":12887},{"id":2799357,"name":"Dinant","nameKo":"디낭","ascii":"Dinant","lat":50.25807,"lon":4.91166,"population":12875},{"id":2794016,"name":"Kraainem","ascii":"Kraainem","lat":50.86155,"lon":4.46946,"population":12815},{"id":2790749,"name":"Mont-sur-Marchienne","ascii":"Mont-sur-Marchienne","lat":50.38997,"lon":4.40732,"population":12761},{"id":2801820,"name":"Blégny","ascii":"Blegny","lat":50.67255,"lon":5.72508,"population":12745},{"id":2791834,"name":"Malmédy","ascii":"Malmedy","lat":50.42686,"lon":6.02794,"population":12654},{"id":2793857,"name":"Kuurne","ascii":"Kuurne","lat":50.85143,"lon":3.2824,"population":12638},{"id":2801060,"name":"Bressoux","ascii":"Bressoux","lat":50.63988,"lon":5.60629,"population":12588},{"id":2797128,"name":"Grez-Doiceau","ascii":"Grez-Doiceau","lat":50.73901,"lon":4.69829,"population":12367},{"id":2789483,"name":"Oud-Turnhout","ascii":"Oud-Turnhout","lat":51.31978,"lon":4.9841,"population":12354},{"id":2801754,"name":"Bocholt","ascii":"Bocholt","lat":51.17337,"lon":5.57994,"population":12346},{"id":2783347,"name":"Zandhoven","ascii":"Zandhoven","lat":51.21488,"lon":4.66164,"population":12306},{"id":2786581,"name":"Sint-Michiels","ascii":"Sint-Michiels","lat":51.18806,"lon":3.21142,"population":12297},{"id":2791951,"name":"Machelen","ascii":"Machelen","lat":50.91061,"lon":4.44174,"population":12252},{"id":2803083,"name":"Arendonk","ascii":"Arendonk","lat":51.32267,"lon":5.08289,"population":12247},{"id":2798700,"name":"Erembodegem","ascii":"Erembodegem","lat":50.91905,"lon":4.05041,"population":12152},{"id":2801743,"name":"Boechout","ascii":"Boechout","lat":51.15959,"lon":4.49195,"population":12145},{"id":2789654,"name":"Opwijk","ascii":"Opwijk","lat":50.96724,"lon":4.18442,"population":12045},{"id":2791261,"name":"Mettet","ascii":"Mettet","lat":50.32119,"lon":4.66232,"population":12014},{"id":2784804,"name":"Veurne","ascii":"Veurne","lat":51.07316,"lon":2.66803,"population":11983},{"id":2792423,"name":"Liedekerke","ascii":"Liedekerke","lat":50.86892,"lon":4.08743,"population":11980},{"id":2787948,"name":"Rochefort","ascii":"Rochefort","lat":50.1631,"lon":5.2216,"population":11978},{"id":2789475,"name":"Ougrée","ascii":"Ougree","lat":50.60149,"lon":5.5444,"population":11975},{"id":2794445,"name":"Kinrooi","ascii":"Kinrooi","lat":51.14543,"lon":5.74207,"population":11946},{"id":2794074,"name":"Kortemark","ascii":"Kortemark","lat":51.02951,"lon":3.04112,"population":11937},{"id":2789388,"name":"Paal","ascii":"Paal","lat":51.03988,"lon":5.17233,"population":11935},{"id":2794895,"name":"Jodoigne","ascii":"Jodoigne","lat":50.72357,"lon":4.86914,"population":11930},{"id":2783462,"name":"Wommelgem","ascii":"Wommelgem","lat":51.20452,"lon":4.5225,"population":11917},{"id":2783278,"name":"Zelzate","ascii":"Zelzate","lat":51.18963,"lon":3.80777,"population":11901},{"id":2797798,"name":"Gavere","ascii":"Gavere","lat":50.92917,"lon":3.66184,"population":11888},{"id":2795823,"name":"Heule","ascii":"Heule","lat":50.83752,"lon":3.23818,"population":11873},{"id":2799779,"name":"De Haan","ascii":"De Haan","lat":51.27261,"lon":3.03446,"population":11766},{"id":2784019,"name":"Wasmes","ascii":"Wasmes","lat":50.41464,"lon":3.8471,"population":11731},{"id":2802015,"name":"Beyne-Heusay","ascii":"Beyne-Heusay","lat":50.62251,"lon":5.66508,"population":11608},{"id":2793797,"name":"Laarne","ascii":"Laarne","lat":51.03078,"lon":3.85077,"population":11600},{"id":2803199,"name":"Anderlues","ascii":"Anderlues","lat":50.40704,"lon":4.27136,"population":11597},{"id":2802135,"name":"Bernissart","ascii":"Bernissart","lat":50.4746,"lon":3.64961,"population":11588},{"id":2785593,"name":"Theux","ascii":"Theux","lat":50.53323,"lon":5.81245,"population":11587},{"id":2783184,"name":"Zonnebeke","ascii":"Zonnebeke","lat":50.8726,"lon":2.98725,"population":11581},{"id":2801483,"name":"Boortmeerbeek","ascii":"Boortmeerbeek","lat":50.97929,"lon":4.57443,"population":11570},{"id":2795985,"name":"Herk-de-Stad","ascii":"Herk-de-Stad","lat":50.94013,"lon":5.16636,"population":11566},{"id":2798470,"name":"Farciennes","ascii":"Farciennes","lat":50.43006,"lon":4.54152,"population":11488},{"id":2790824,"name":"Montegnée","ascii":"Montegnee","lat":50.64576,"lon":5.51411,"population":11417},{"id":2793863,"name":"Kuringen","ascii":"Kuringen","lat":50.94426,"lon":5.29902,"population":11409},{"id":2788577,"name":"Profondeville","ascii":"Profondeville","lat":50.37581,"lon":4.86506,"population":11401},{"id":2798747,"name":"Enghien","ascii":"Enghien","lat":50.69375,"lon":4.03788,"population":11367},{"id":2800073,"name":"Couillet","ascii":"Couillet","lat":50.39139,"lon":4.45908,"population":11365},{"id":2794929,"name":"Jemeppe-sur-Meuse","ascii":"Jemeppe-sur-Meuse","lat":50.61701,"lon":5.49849,"population":11312},{"id":2799797,"name":"Deerlijk","ascii":"Deerlijk","lat":50.85337,"lon":3.35416,"population":11292},{"id":2784555,"name":"Virton","nameKo":"비르통","ascii":"Virton","lat":49.56824,"lon":5.53259,"population":11259},{"id":2790235,"name":"Nevele","ascii":"Nevele","lat":51.03531,"lon":3.54574,"population":11153},{"id":2797517,"name":"Gistel","ascii":"Gistel","lat":51.15612,"lon":2.96387,"population":11084},{"id":2786852,"name":"Seneffe","ascii":"Seneffe","lat":50.53135,"lon":4.26301,"population":11025},{"id":2797376,"name":"Gosselies","ascii":"Gosselies","lat":50.46936,"lon":4.43324,"population":11017},{"id":2783728,"name":"Wichelen","ascii":"Wichelen","lat":51.00526,"lon":3.97683,"population":11014},{"id":2791255,"name":"Meulebeke","ascii":"Meulebeke","lat":50.95136,"lon":3.28804,"population":10948},{"id":2800430,"name":"Chaumont-Gistoux","ascii":"Chaumont-Gistoux","lat":50.67753,"lon":4.7212,"population":10943},{"id":2791366,"name":"Melsele","ascii":"Melsele","lat":51.22285,"lon":4.28201,"population":10941},{"id":2797979,"name":"Frasnes-lez-Buissenal","ascii":"Frasnes-lez-Buissenal","lat":50.66783,"lon":3.62047,"population":10936},{"id":2803285,"name":"Alken","ascii":"Alken","lat":50.87553,"lon":5.30558,"population":10933},{"id":2799885,"name":"Damme","nameKo":"다머","ascii":"Damme","lat":51.25147,"lon":3.28144,"population":10924},{"id":2803323,"name":"Aiseau","ascii":"Aiseau","lat":50.41158,"lon":4.58671,"population":10906},{"id":2790433,"name":"Nazareth","ascii":"Nazareth","lat":50.95686,"lon":3.59425,"population":10890},{"id":2783284,"name":"Zellik","ascii":"Zellik","lat":50.88408,"lon":4.27325,"population":10874},{"id":2790150,"name":"Nieuwpoort","ascii":"Nieuwpoort","lat":51.13008,"lon":2.75135,"population":10845},{"id":2794936,"name":"Jemappes","nameKo":"주마프","ascii":"Jemappes","lat":50.44914,"lon":3.89096,"population":10809},{"id":2786226,"name":"Staden","ascii":"Staden","lat":50.97456,"lon":3.01469,"population":10786},{"id":2797336,"name":"Grâce-Berleur","ascii":"Grace-Berleur","lat":50.64032,"lon":5.50329,"population":10758},{"id":2786318,"name":"Spa","ascii":"Spa","lat":50.48375,"lon":5.86674,"population":10756},{"id":2798652,"name":"Ertvelde","ascii":"Ertvelde","lat":51.17921,"lon":3.74722,"population":10730},{"id":2797094,"name":"Grobbendonk","ascii":"Grobbendonk","lat":51.19043,"lon":4.73562,"population":10724},{"id":2798276,"name":"Florennes","ascii":"Florennes","lat":50.25127,"lon":4.60636,"population":10723},{"id":2790729,"name":"Moorslede","ascii":"Moorslede","lat":50.8919,"lon":3.06117,"population":10720},{"id":7669081,"name":"Tielt-Winge","ascii":"Tielt-Winge","lat":50.91743,"lon":4.88368,"population":10707},{"id":2791385,"name":"Melle","ascii":"Melle","lat":51.00232,"lon":3.80526,"population":10687},{"id":2803183,"name":"Angleur","ascii":"Angleur","lat":50.6113,"lon":5.59942,"population":10647},{"id":2802837,"name":"Aywaille","nameKo":"에와유","ascii":"Aywaille","lat":50.47411,"lon":5.67684,"population":10636},{"id":2788051,"name":"Rijkevorsel","ascii":"Rijkevorsel","lat":51.34795,"lon":4.76053,"population":10606},{"id":2794856,"name":"Jupille-sur-Meuse","ascii":"Jupille-sur-Meuse","lat":50.64587,"lon":5.63307,"population":10604},{"id":2795056,"name":"Ingelmunster","ascii":"Ingelmunster","lat":50.92081,"lon":3.25571,"population":10603},{"id":2786124,"name":"Steenokkerzeel","ascii":"Steenokkerzeel","lat":50.91851,"lon":4.50989,"population":10566},{"id":2789492,"name":"Oud-Heverlee","ascii":"Oud-Heverlee","lat":50.83522,"lon":4.66421,"population":10533},{"id":2802289,"name":"Belsele","ascii":"Belsele","lat":51.14598,"lon":4.08859,"population":10489},{"id":2784231,"name":"Waasmunster","ascii":"Waasmunster","lat":51.10572,"lon":4.08573,"population":10460},{"id":2802156,"name":"Berlaar","ascii":"Berlaar","lat":51.1176,"lon":4.65835,"population":10370},{"id":2801438,"name":"Borsbeek","ascii":"Borsbeek","lat":51.19661,"lon":4.48543,"population":10334},{"id":2789145,"name":"Petegem-aan-de-Leie","ascii":"Petegem-aan-de-Leie","lat":50.96667,"lon":3.53333,"population":10332},{"id":2784349,"name":"Vosselaar","ascii":"Vosselaar","lat":51.30856,"lon":4.8896,"population":10317},{"id":2795699,"name":"Hoeilaart","ascii":"Hoeilaart","lat":50.7673,"lon":4.46835,"population":10272},{"id":2799047,"name":"Durbuy","nameKo":"뒤르비","ascii":"Durbuy","lat":50.35291,"lon":5.45631,"population":10251},{"id":2793722,"name":"La Calamine","ascii":"La Calamine","lat":50.71809,"lon":6.01107,"population":10232},{"id":2798887,"name":"Eisden","ascii":"Eisden","lat":50.98463,"lon":5.71433,"population":10152},{"id":2788299,"name":"Rebecq-Rognon","ascii":"Rebecq-Rognon","lat":50.65147,"lon":4.10683,"population":10049},{"id":2799570,"name":"De Pinte","ascii":"De Pinte","lat":50.99339,"lon":3.64747,"population":10020},{"id":2798615,"name":"Essen","ascii":"Essen","lat":51.46791,"lon":4.46901,"population":10000},{"id":2783204,"name":"Zoersel","ascii":"Zoersel","lat":51.26825,"lon":4.71296,"population":10000},{"id":2799947,"name":"Cuesmes","ascii":"Cuesmes","lat":50.43624,"lon":3.92323,"population":9992},{"id":2801467,"name":"Borgloon","ascii":"Borgloon","lat":50.80505,"lon":5.34366,"population":9955},{"id":2788410,"name":"Raeren","ascii":"Raeren","lat":50.6672,"lon":6.11535,"population":9925},{"id":2795423,"name":"Hooglede","ascii":"Hooglede","lat":50.98333,"lon":3.08333,"population":9900},{"id":2783612,"name":"Wilsele","ascii":"Wilsele","lat":50.89188,"lon":4.69769,"population":9845},{"id":2790891,"name":"Monceau-sur-Sambre","ascii":"Monceau-sur-Sambre","lat":50.41694,"lon":4.37668,"population":9812},{"id":2799024,"name":"Écaussinnes-d'Enghien","ascii":"Ecaussinnes-d'Enghien","lat":50.56822,"lon":4.1658,"population":9802},{"id":2799577,"name":"De Panne","ascii":"De Panne","lat":51.09793,"lon":2.59368,"population":9799},{"id":2803278,"name":"Alleur","ascii":"Alleur","lat":50.67465,"lon":5.51316,"population":9768},{"id":2790361,"name":"Neeroeteren","ascii":"Neeroeteren","lat":51.09156,"lon":5.69933,"population":9759},{"id":2800325,"name":"Chimay","nameKo":"시메","ascii":"Chimay","lat":50.04856,"lon":4.31712,"population":9720},{"id":2801152,"name":"Braine-le-Château","ascii":"Braine-le-Chateau","lat":50.6799,"lon":4.27385,"population":9627},{"id":2788849,"name":"Plombières","ascii":"Plombieres","lat":50.73656,"lon":5.95922,"population":9596},{"id":2784641,"name":"Villers-la-Ville","ascii":"Villers-la-Ville","lat":50.57953,"lon":4.53398,"population":9592},{"id":2789570,"name":"Ottignies","ascii":"Ottignies","lat":50.66535,"lon":4.56679,"population":9557},{"id":2789190,"name":"Pepinster","ascii":"Pepinster","lat":50.56568,"lon":5.80386,"population":9530},{"id":2787327,"name":"Saint-Servais","ascii":"Saint-Servais","lat":50.4763,"lon":4.83656,"population":9516},{"id":2796085,"name":"Hemiksem","ascii":"Hemiksem","lat":51.14484,"lon":4.33874,"population":9504},{"id":2794852,"name":"Jurbise","ascii":"Jurbise","lat":50.531,"lon":3.90942,"population":9483},{"id":2789714,"name":"Opglabbeek","ascii":"Opglabbeek","lat":51.04258,"lon":5.58346,"population":9452},{"id":2792352,"name":"Limal","ascii":"Limal","lat":50.69477,"lon":4.57538,"population":9443},{"id":2798666,"name":"Erquelinnes","ascii":"Erquelinnes","lat":50.30688,"lon":4.11129,"population":9396},{"id":2800042,"name":"Court-Saint-Étienne","ascii":"Court-Saint-Etienne","lat":50.63378,"lon":4.56851,"population":9353},{"id":2791494,"name":"Meerhout","ascii":"Meerhout","lat":51.1321,"lon":5.07842,"population":9346},{"id":2798604,"name":"Estaimpuis","ascii":"Estaimpuis","lat":50.70485,"lon":3.26785,"population":9340},{"id":2792057,"name":"Lovendegem","ascii":"Lovendegem","lat":51.10168,"lon":3.61298,"population":9272},{"id":2795648,"name":"Hoeselt","ascii":"Hoeselt","lat":50.84714,"lon":5.48767,"population":9265},{"id":2789346,"name":"Pamel","ascii":"Pamel","lat":50.8453,"lon":4.07129,"population":9241},{"id":2802123,"name":"Bertem","ascii":"Bertem","lat":50.86403,"lon":4.62918,"population":9215},{"id":2802405,"name":"Begijnendijk","ascii":"Begijnendijk","lat":51.01942,"lon":4.78377,"population":9178},{"id":2800395,"name":"Chênée","ascii":"Chenee","lat":50.612,"lon":5.6141,"population":9163},{"id":2803091,"name":"Ardooie","ascii":"Ardooie","lat":50.9757,"lon":3.19736,"population":9161},{"id":2786616,"name":"Sint-Lievens-Houtem","ascii":"Sint-Lievens-Houtem","lat":50.9197,"lon":3.86225,"population":9146},{"id":2795184,"name":"Huldenberg","ascii":"Huldenberg","lat":50.78939,"lon":4.5831,"population":9137},{"id":2787315,"name":"Saint-Vith","ascii":"Saint-Vith","lat":50.28146,"lon":6.12724,"population":9135},{"id":2802871,"name":"Avelgem","ascii":"Avelgem","lat":50.77618,"lon":3.44502,"population":9106},{"id":2795511,"name":"Holsbeek","ascii":"Holsbeek","lat":50.92097,"lon":4.75747,"population":9094},{"id":2798099,"name":"Fosses-la-Ville","ascii":"Fosses-la-Ville","lat":50.39517,"lon":4.69623,"population":9062},{"id":2795936,"name":"Herseaux","ascii":"Herseaux","lat":50.71667,"lon":3.21667,"population":9048},{"id":2786548,"name":"Sint-Stevens-Woluwe","ascii":"Sint-Stevens-Woluwe","lat":50.86838,"lon":4.45195,"population":9038},{"id":2783870,"name":"Welkenraedt","ascii":"Welkenraedt","lat":50.6605,"lon":5.97034,"population":9006},{"id":2796625,"name":"Hamont","ascii":"Hamont","lat":51.25332,"lon":5.54732,"population":9001},{"id":2801998,"name":"Bierbeek","ascii":"Bierbeek","lat":50.82876,"lon":4.75949,"population":8994},{"id":2787616,"name":"Roux","ascii":"Roux","lat":50.44111,"lon":4.3917,"population":8983},{"id":2797417,"name":"Gooik","ascii":"Gooik","lat":50.79443,"lon":4.11378,"population":8957},{"id":2795255,"name":"Houthulst","ascii":"Houthulst","lat":50.97824,"lon":2.9505,"population":8951},{"id":2790804,"name":"Montigny-le-Tilleul","ascii":"Montigny-le-Tilleul","lat":50.38056,"lon":4.37582,"population":8938},{"id":2783684,"name":"Wijnegem","ascii":"Wijnegem","lat":51.22787,"lon":4.51895,"population":8932},{"id":2796854,"name":"Gullegem","ascii":"Gullegem","lat":50.84301,"lon":3.20466,"population":8888},{"id":2801161,"name":"Bracquegnies","ascii":"Bracquegnies","lat":50.47094,"lon":4.1197,"population":8880},{"id":2785962,"name":"Strépy-Bracquegnies","ascii":"Strepy-Bracquegnies","lat":50.4728,"lon":4.12022,"population":8880},{"id":2794724,"name":"Kapelle-op-den-Bos","ascii":"Kapelle-op-den-Bos","lat":51.0097,"lon":4.36303,"population":8859},{"id":2783717,"name":"Wielsbeke","ascii":"Wielsbeke","lat":50.9,"lon":3.36667,"population":8828},{"id":2786587,"name":"Sint-Martens-Lennik","ascii":"Sint-Martens-Lennik","lat":50.81158,"lon":4.16965,"population":8818},{"id":2788353,"name":"Ransart","ascii":"Ransart","lat":50.46166,"lon":4.47616,"population":8813},{"id":2795361,"name":"Hornu","ascii":"Hornu","lat":50.4328,"lon":3.82736,"population":8793},{"id":2789519,"name":"Oudenburg","ascii":"Oudenburg","lat":51.18489,"lon":3.00035,"population":8752},{"id":2798184,"name":"Fontaine-l'Évêque","ascii":"Fontaine-l'Eveque","lat":50.40907,"lon":4.32427,"population":8730},{"id":2786080,"name":"Stembert","ascii":"Stembert","lat":50.59107,"lon":5.89404,"population":8696},{"id":2802025,"name":"Beverlo","ascii":"Beverlo","lat":51.08646,"lon":5.21855,"population":8681},{"id":2790225,"name":"Niel","ascii":"Niel","lat":51.11096,"lon":4.33428,"population":8656},{"id":2802849,"name":"Awans","ascii":"Awans","lat":50.66774,"lon":5.46329,"population":8612},{"id":2795801,"name":"Heusden","ascii":"Heusden","lat":51.02815,"lon":3.80425,"population":8606},{"id":2796715,"name":"Halen","ascii":"Halen","lat":50.94837,"lon":5.11096,"population":8548},{"id":2789794,"name":"Oostduinkerke","ascii":"Oostduinkerke","lat":51.11565,"lon":2.68217,"population":8534},{"id":2786659,"name":"Sint-Job-in-'t-Goor","ascii":"Sint-Job-in-'t-Goor","lat":51.29907,"lon":4.57289,"population":8515},{"id":2792226,"name":"Lodelinsart","ascii":"Lodelinsart","lat":50.43138,"lon":4.44886,"population":8489},{"id":2797563,"name":"Ghlin","ascii":"Ghlin","lat":50.47313,"lon":3.90289,"population":8485},{"id":2795634,"name":"Hoevenen","ascii":"Hoevenen","lat":51.30604,"lon":4.40203,"population":8473},{"id":2802902,"name":"Auvelais","ascii":"Auvelais","lat":50.4504,"lon":4.63228,"population":8456},{"id":2793070,"name":"Ledeberg","ascii":"Ledeberg","lat":51.03859,"lon":3.74458,"population":8454},{"id":2793202,"name":"Lauwe","ascii":"Lauwe","lat":50.79479,"lon":3.1869,"population":8392},{"id":2786055,"name":"Sterrebeek","ascii":"Sterrebeek","lat":50.86171,"lon":4.49375,"population":8357},{"id":2794854,"name":"Juprelle","ascii":"Juprelle","lat":50.7076,"lon":5.53127,"population":8354},{"id":2794194,"name":"Koekelare","ascii":"Koekelare","lat":51.09047,"lon":2.9783,"population":8317},{"id":2786591,"name":"Sint-Martens-Latem","ascii":"Sint-Martens-Latem","lat":51.01459,"lon":3.63779,"population":8303},{"id":2799230,"name":"Dottignies","ascii":"Dottignies","lat":50.73333,"lon":3.3,"population":8299},{"id":2797641,"name":"Genval","ascii":"Genval","lat":50.72162,"lon":4.49375,"population":8253},{"id":2802501,"name":"Beauraing","ascii":"Beauraing","lat":50.11042,"lon":4.95554,"population":8242},{"id":2793733,"name":"La Bruyère","ascii":"La Bruyere","lat":50.39478,"lon":4.61444,"population":8194},{"id":2793907,"name":"Kruishoutem","ascii":"Kruishoutem","lat":50.90168,"lon":3.52588,"population":8179},{"id":2783786,"name":"Westmalle","ascii":"Westmalle","lat":51.29767,"lon":4.69013,"population":8173},{"id":2792428,"name":"Lichtervelde","ascii":"Lichtervelde","lat":51.03333,"lon":3.15,"population":8169},{"id":2783385,"name":"Yvoir","ascii":"Yvoir","lat":50.3279,"lon":4.88059,"population":8169},{"id":2783195,"name":"Zomergem","ascii":"Zomergem","lat":51.11994,"lon":3.56496,"population":8158},{"id":2802606,"name":"Bassenge","ascii":"Bassenge","lat":50.75883,"lon":5.60989,"population":8151},{"id":2797051,"name":"Groot-Bijgaarden","ascii":"Groot-Bijgaarden","lat":50.87174,"lon":4.24973,"population":8145},{"id":2789254,"name":"Pâturages","ascii":"Paturages","lat":50.4072,"lon":3.855,"population":8106},{"id":2800637,"name":"Carnières","ascii":"Carnieres","lat":50.44428,"lon":4.25509,"population":8087},{"id":2802106,"name":"Bertrix","ascii":"Bertrix","lat":49.85596,"lon":5.25539,"population":8063},{"id":2789016,"name":"Philippeville","nameKo":"필리프빌","ascii":"Philippeville","lat":50.19612,"lon":4.54374,"population":8051},{"id":2783464,"name":"Wolvertem","ascii":"Wolvertem","lat":50.95172,"lon":4.30964,"population":8045},{"id":2794063,"name":"Kortessem","ascii":"Kortessem","lat":50.8589,"lon":5.38974,"population":8042},{"id":2803005,"name":"Athus","ascii":"Athus","lat":49.56475,"lon":5.83736,"population":8028},{"id":2788138,"name":"Retie","ascii":"Retie","lat":51.26652,"lon":5.08242,"population":8000},{"id":2795232,"name":"Hove","ascii":"Hove","lat":51.15446,"lon":4.4707,"population":7968},{"id":2787878,"name":"Le Roeulx","ascii":"Le Roeulx","lat":50.50365,"lon":4.11163,"population":7968},{"id":2791297,"name":"Merksplas","ascii":"Merksplas","lat":51.35851,"lon":4.86513,"population":7963},{"id":2797851,"name":"Galmaarden","ascii":"Galmaarden","lat":50.75389,"lon":3.97121,"population":7939},{"id":2797523,"name":"Gingelom","ascii":"Gingelom","lat":50.74792,"lon":5.13422,"population":7930},{"id":2800195,"name":"Comines","ascii":"Comines","lat":50.7754,"lon":3.00119,"population":7899},{"id":2783170,"name":"Zoutleeuw","ascii":"Zoutleeuw","lat":50.83316,"lon":5.10376,"population":7897},{"id":2794223,"name":"Knesselare","ascii":"Knesselare","lat":51.13932,"lon":3.41282,"population":7889},{"id":2786769,"name":"Silly","ascii":"Silly","lat":50.64877,"lon":3.92363,"population":7887},{"id":2789800,"name":"Oostakker","ascii":"Oostakker","lat":51.10124,"lon":3.76945,"population":7885},{"id":2785103,"name":"Uitkerke","ascii":"Uitkerke","lat":51.30684,"lon":3.13712,"population":7863},{"id":2784237,"name":"Waarschoot","ascii":"Waarschoot","lat":51.1525,"lon":3.605,"population":7762},{"id":2796807,"name":"Habay-la-Vieille","ascii":"Habay-la-Vieille","lat":49.72329,"lon":5.61999,"population":7704},{"id":2801215,"name":"Boutersem","ascii":"Boutersem","lat":50.84105,"lon":4.83367,"population":7702},{"id":2792266,"name":"Lissewege","ascii":"Lissewege","lat":51.29427,"lon":3.19331,"population":7699},{"id":2792898,"name":"Lembeek","ascii":"Lembeek","lat":50.7157,"lon":4.21832,"population":7689},{"id":2788446,"name":"Quévy-le-Petit","ascii":"Quevy-le-Petit","lat":50.36879,"lon":3.93602,"population":7689},{"id":2794989,"name":"Jalhay","ascii":"Jalhay","lat":50.55876,"lon":5.96764,"population":7688},{"id":2787080,"name":"Schelle","ascii":"Schelle","lat":51.12615,"lon":4.34114,"population":7675},{"id":2796735,"name":"Haine-Saint-Pierre","ascii":"Haine-Saint-Pierre","lat":50.45747,"lon":4.20659,"population":7662},{"id":2786746,"name":"Sint-Amands","ascii":"Sint-Amands","lat":51.05645,"lon":4.20957,"population":7653},{"id":2786516,"name":"Sleidinge","ascii":"Sleidinge","lat":51.13363,"lon":3.67405,"population":7640},{"id":2800883,"name":"Brunehault","ascii":"Brunehault","lat":50.50524,"lon":4.43209,"population":7592},{"id":2794510,"name":"Kessel","ascii":"Kessel","lat":51.13892,"lon":4.62962,"population":7591},{"id":2791673,"name":"Marke","ascii":"Marke","lat":50.80678,"lon":3.23344,"population":7575},{"id":2798597,"name":"Estinnes-au-Val","ascii":"Estinnes-au-Val","lat":50.41016,"lon":4.10477,"population":7573},{"id":2785208,"name":"Trooz","ascii":"Trooz","lat":50.57026,"lon":5.69521,"population":7559},{"id":2795331,"name":"Houdeng-Aimeries","ascii":"Houdeng-Aimeries","lat":50.48132,"lon":4.14545,"population":7534},{"id":2785839,"name":"Tamines","ascii":"Tamines","lat":50.43378,"lon":4.60713,"population":7526},{"id":2803144,"name":"Antoing","ascii":"Antoing","lat":50.56765,"lon":3.4492,"population":7507},{"id":2800765,"name":"Burcht","ascii":"Burcht","lat":51.20393,"lon":4.34286,"population":7494},{"id":2793406,"name":"Langdorp","ascii":"Langdorp","lat":50.99561,"lon":4.87175,"population":7492},{"id":2789737,"name":"Oostrozebeke","ascii":"Oostrozebeke","lat":50.92093,"lon":3.33799,"population":7489},{"id":2798279,"name":"Floreffe","ascii":"Floreffe","lat":50.43452,"lon":4.7596,"population":7480},{"id":2784333,"name":"Vottem","ascii":"Vottem","lat":50.67155,"lon":5.57693,"population":7478},{"id":2786390,"name":"Sombreffe","ascii":"Sombreffe","lat":50.52865,"lon":4.60087,"population":7452},{"id":2793548,"name":"La Hulpe","ascii":"La Hulpe","lat":50.73091,"lon":4.48577,"population":7415},{"id":2794818,"name":"Kain","ascii":"Kain","lat":50.63869,"lon":3.39688,"population":7412},{"id":2785385,"name":"Tongerlo","ascii":"Tongerlo","lat":51.10622,"lon":4.91638,"population":7404},{"id":2783084,"name":"Zwijnaarde","ascii":"Zwijnaarde","lat":51.00077,"lon":3.70746,"population":7379},{"id":2794072,"name":"Kortenaken","ascii":"Kortenaken","lat":50.90862,"lon":5.05968,"population":7374},{"id":2784986,"name":"Vedrin","ascii":"Vedrin","lat":50.50273,"lon":4.87604,"population":7308},{"id":2784775,"name":"Vielsalm","ascii":"Vielsalm","lat":50.28407,"lon":5.91502,"population":7291},{"id":2796737,"name":"Haine-Saint-Paul","ascii":"Haine-Saint-Paul","lat":50.45544,"lon":4.1885,"population":7268},{"id":2803053,"name":"As","ascii":"As","lat":51.00755,"lon":5.58453,"population":7250},{"id":2784111,"name":"Wanfercée-Baulet","ascii":"Wanfercee-Baulet","lat":50.47291,"lon":4.58748,"population":7246},{"id":2796695,"name":"Halle","ascii":"Halle","lat":51.24075,"lon":4.64327,"population":7200},{"id":2793747,"name":"La Bouverie","ascii":"La Bouverie","lat":50.40524,"lon":3.8744,"population":7169},{"id":2787060,"name":"Scherpenheuvel","ascii":"Scherpenheuvel","lat":50.98075,"lon":4.97552,"population":7162},{"id":2791272,"name":"Messancy","ascii":"Messancy","lat":49.59201,"lon":5.81879,"population":7144},{"id":2803174,"name":"Anhée","ascii":"Anhee","lat":50.31039,"lon":4.87827,"population":7125},{"id":2792474,"name":"Leuze","ascii":"Leuze","lat":50.6,"lon":3.6,"population":7095},{"id":2797138,"name":"Grembergen","ascii":"Grembergen","lat":51.05406,"lon":4.10458,"population":7080},{"id":2803187,"name":"Andrimont","ascii":"Andrimont","lat":50.61298,"lon":5.88294,"population":7064},{"id":2787552,"name":"Ruisbroek","ascii":"Ruisbroek","lat":50.79015,"lon":4.29771,"population":7041},{"id":2798973,"name":"Eernegem","ascii":"Eernegem","lat":51.1326,"lon":3.02562,"population":7040},{"id":2789745,"name":"Oostmalle","ascii":"Oostmalle","lat":51.3,"lon":4.73333,"population":7034},{"id":2787937,"name":"Rocourt","ascii":"Rocourt","lat":50.67579,"lon":5.54621,"population":7010},{"id":2801500,"name":"Booischot","ascii":"Booischot","lat":51.05219,"lon":4.7751,"population":6973},{"id":2783143,"name":"Zutendaal","ascii":"Zutendaal","lat":50.93306,"lon":5.5753,"population":6962},{"id":12902635,"name":"Negenmanneke","ascii":"Negenmanneke","lat":50.80458,"lon":4.28506,"population":6915},{"id":2784227,"name":"Wachtebeke","ascii":"Wachtebeke","lat":51.16852,"lon":3.87183,"population":6911},{"id":2788273,"name":"Reet","ascii":"Reet","lat":51.10201,"lon":4.41264,"population":6865},{"id":2784364,"name":"Vorst","ascii":"Vorst","lat":51.08029,"lon":5.01998,"population":6824},{"id":2783864,"name":"Wellen","ascii":"Wellen","lat":50.84096,"lon":5.33867,"population":6804},{"id":2787425,"name":"Saint-Georges-sur-Meuse","ascii":"Saint-Georges-sur-Meuse","lat":50.60007,"lon":5.3574,"population":6803},{"id":2785305,"name":"Trazegnies","ascii":"Trazegnies","lat":50.46379,"lon":4.3329,"population":6798},{"id":2797719,"name":"Geluwe","ascii":"Geluwe","lat":50.80978,"lon":3.07695,"population":6757},{"id":2792891,"name":"Lemberge","ascii":"Lemberge","lat":50.97629,"lon":3.77054,"population":6726},{"id":2799880,"name":"Dampremy","ascii":"Dampremy","lat":50.41705,"lon":4.43092,"population":6716},{"id":2796297,"name":"Heers","ascii":"Heers","lat":50.75383,"lon":5.3021,"population":6689},{"id":2786622,"name":"Sint-Lenaarts","ascii":"Sint-Lenaarts","lat":51.34868,"lon":4.68009,"population":6685},{"id":2796627,"name":"Hamois","ascii":"Hamois","lat":50.3402,"lon":5.15619,"population":6662},{"id":2784199,"name":"Waimes","ascii":"Waimes","lat":50.41488,"lon":6.11207,"population":6661},{"id":2786626,"name":"Sint-Laureins","ascii":"Sint-Laureins","lat":51.24202,"lon":3.52441,"population":6657},{"id":2786185,"name":"Stavelot","ascii":"Stavelot","lat":50.395,"lon":5.93124,"population":6646},{"id":2802510,"name":"Beaumont","ascii":"Beaumont","lat":50.23699,"lon":4.23926,"population":6645},{"id":2789096,"name":"Lettelingen","ascii":"Lettelingen","lat":50.68333,"lon":4.08333,"population":6611},{"id":2786638,"name":"Sint-Katherina-Lombeek","ascii":"Sint-Katherina-Lombeek","lat":50.87314,"lon":4.1536,"population":6607},{"id":2796319,"name":"Hechtel","ascii":"Hechtel","lat":51.12518,"lon":5.36768,"population":6605},{"id":2788925,"name":"Pittem","ascii":"Pittem","lat":50.99279,"lon":3.26317,"population":6589},{"id":2783215,"name":"Zingem","ascii":"Zingem","lat":50.90409,"lon":3.65305,"population":6588},{"id":2783850,"name":"Wépion","ascii":"Wepion","lat":50.42153,"lon":4.86403,"population":6586},{"id":2788444,"name":"Quiévrain","ascii":"Quievrain","lat":50.40737,"lon":3.68351,"population":6560},{"id":2790756,"name":"Mont-Saint-Guibert","ascii":"Mont-Saint-Guibert","lat":50.63427,"lon":4.61061,"population":6557},{"id":2790421,"name":"Brakel","ascii":"Brakel","lat":50.80101,"lon":3.76264,"population":6513},{"id":2784996,"name":"Vaux-sous-Chèvremont","ascii":"Vaux-sous-Chevremont","lat":50.60302,"lon":5.6335,"population":6503},{"id":2783232,"name":"Zichem","ascii":"Zichem","lat":51.00187,"lon":4.98316,"population":6497},{"id":2803347,"name":"Adegem","ascii":"Adegem","lat":51.20509,"lon":3.4954,"population":6473},{"id":2792466,"name":"Leval-Trahegnies","ascii":"Leval-Trahegnies","lat":50.4213,"lon":4.22556,"population":6473},{"id":2790179,"name":"Nieuwerkerken","ascii":"Nieuwerkerken","lat":50.8638,"lon":5.19467,"population":6466},{"id":2795956,"name":"Herne","ascii":"Herne","lat":50.72423,"lon":4.03481,"population":6459},{"id":2786603,"name":"Sint-Maria-Lierde","ascii":"Sint-Maria-Lierde","lat":50.81867,"lon":3.84436,"population":6449},{"id":2794277,"name":"Klemskerke","ascii":"Klemskerke","lat":51.24222,"lon":3.02401,"population":6447},{"id":2795785,"name":"Hever","ascii":"Hever","lat":50.99545,"lon":4.55126,"population":6426},{"id":2786713,"name":"Sint-Denijs-Westrem","ascii":"Sint-Denijs-Westrem","lat":51.02135,"lon":3.67202,"population":6419},{"id":2790286,"name":"Neufchâteau","ascii":"Neufchateau","lat":49.84074,"lon":5.43535,"population":6416},{"id":2799897,"name":"Dalhem","ascii":"Dalhem","lat":50.71315,"lon":5.72774,"population":6391},{"id":2796056,"name":"Hensies","ascii":"Hensies","lat":50.43263,"lon":3.68411,"population":6390},{"id":2786792,"name":"'s-Gravenwezel","ascii":"'s-Gravenwezel","lat":51.26267,"lon":4.56113,"population":6379},{"id":2800790,"name":"Buizingen","ascii":"Buizingen","lat":50.74227,"lon":4.25278,"population":6369},{"id":2789948,"name":"Oedelem","ascii":"Oedelem","lat":51.17033,"lon":3.33762,"population":6360},{"id":2802812,"name":"Baasrode","ascii":"Baasrode","lat":51.03805,"lon":4.1546,"population":6352},{"id":2787319,"name":"Saint-Vaast","ascii":"Saint-Vaast","lat":50.45426,"lon":4.16041,"population":6351},{"id":2802483,"name":"Beauvechain","ascii":"Beauvechain","lat":50.78195,"lon":4.7718,"population":6334},{"id":2786762,"name":"Sinaai","ascii":"Sinaai","lat":51.15789,"lon":4.04087,"population":6319},{"id":2786077,"name":"Stene","ascii":"Stene","lat":51.20437,"lon":2.91259,"population":6310},{"id":2803018,"name":"Assesse","ascii":"Assesse","lat":50.36934,"lon":5.02204,"population":6279},{"id":2800457,"name":"Chastre-Villeroux-Blanmont","ascii":"Chastre-Villeroux-Blanmont","lat":50.60857,"lon":4.64198,"population":6243},{"id":2796353,"name":"Havré","ascii":"Havre","lat":50.46401,"lon":4.04675,"population":6219},{"id":2798668,"name":"Erps-Kwerps","ascii":"Erps-Kwerps","lat":50.90119,"lon":4.55984,"population":6213},{"id":2792435,"name":"Lichtaart","ascii":"Lichtaart","lat":51.22495,"lon":4.91681,"population":6212},{"id":2790178,"name":"Nieuwerkerken","ascii":"Nieuwerkerken","lat":50.92386,"lon":4.00433,"population":6174},{"id":2797581,"name":"Gesves","ascii":"Gesves","lat":50.40146,"lon":5.07457,"population":6150},{"id":2802557,"name":"Baudour","ascii":"Baudour","lat":50.48296,"lon":3.8332,"population":6137},{"id":2794930,"name":"Jemeppe-sur-Sambre","ascii":"Jemeppe-sur-Sambre","lat":50.46543,"lon":4.6655,"population":6127},{"id":2798784,"name":"Embourg","ascii":"Embourg","lat":50.59043,"lon":5.6068,"population":6124},{"id":2794707,"name":"Kaprijke","ascii":"Kaprijke","lat":51.2172,"lon":3.61519,"population":6114},{"id":2790733,"name":"Moorsele","ascii":"Moorsele","lat":50.8409,"lon":3.15971,"population":6102},{"id":2799362,"name":"Dilsen","ascii":"Dilsen","lat":51.03718,"lon":5.72096,"population":6099},{"id":2790163,"name":"Nieuwkerken-Waas","ascii":"Nieuwkerken-Waas","lat":51.19358,"lon":4.17776,"population":6082},{"id":2802422,"name":"Beerzel","ascii":"Beerzel","lat":51.05753,"lon":4.67127,"population":6077},{"id":2784114,"name":"Wandre","ascii":"Wandre","lat":50.66774,"lon":5.65959,"population":6076},{"id":2784639,"name":"Villers-le-Bouillet","ascii":"Villers-le-Bouillet","lat":50.57708,"lon":5.25945,"population":6059},{"id":2800328,"name":"Chièvres","ascii":"Chievres","lat":50.58787,"lon":3.80711,"population":6045},{"id":2798400,"name":"Fayt-lez-Manage","ascii":"Fayt-lez-Manage","lat":50.48698,"lon":4.22959,"population":6040},{"id":2795017,"name":"Ittre","ascii":"Ittre","lat":50.64396,"lon":4.26476,"population":6014},{"id":2798868,"name":"Eksaarde","ascii":"Eksaarde","lat":51.14876,"lon":3.96814,"population":6005},{"id":2787071,"name":"Schepdaal","ascii":"Schepdaal","lat":50.83836,"lon":4.19609,"population":6004},{"id":2799649,"name":"Denderhoutem","ascii":"Denderhoutem","lat":50.87234,"lon":4.01821,"population":6000},{"id":2784168,"name":"Walhain-Saint-Paul","ascii":"Walhain-Saint-Paul","lat":50.62627,"lon":4.69837,"population":5992},{"id":2789911,"name":"Ohain","ascii":"Ohain","lat":50.69885,"lon":4.4698,"population":5977},{"id":2803266,"name":"Alsemberg","ascii":"Alsemberg","lat":50.74134,"lon":4.33754,"population":5943},{"id":2802828,"name":"Baal","ascii":"Baal","lat":50.9955,"lon":4.75317,"population":5931},{"id":2795618,"name":"Hofstade","ascii":"Hofstade","lat":50.9613,"lon":4.02663,"population":5927},{"id":2795024,"name":"Itegem","ascii":"Itegem","lat":51.10328,"lon":4.72855,"population":5911},{"id":2783087,"name":"Zwevezele","ascii":"Zwevezele","lat":51.03683,"lon":3.21186,"population":5873},{"id":2791507,"name":"Meerbeke","ascii":"Meerbeke","lat":50.82444,"lon":4.03674,"population":5866},{"id":2786630,"name":"Sint-Kwintens-Lennik","ascii":"Sint-Kwintens-Lennik","lat":50.80377,"lon":4.15489,"population":5856},{"id":2791120,"name":"Moerbeke","ascii":"Moerbeke","lat":51.17409,"lon":3.93001,"population":5855},{"id":2787572,"name":"Ruddervoorde","ascii":"Ruddervoorde","lat":51.09589,"lon":3.20743,"population":5832},{"id":2786873,"name":"Seilles","ascii":"Seilles","lat":50.50065,"lon":5.09268,"population":5826},{"id":2797761,"name":"Geetbets","ascii":"Geetbets","lat":50.89431,"lon":5.11199,"population":5813},{"id":2798866,"name":"Eksel","ascii":"Eksel","lat":51.15184,"lon":5.3906,"population":5804},{"id":2790479,"name":"Nalinnes","ascii":"Nalinnes","lat":50.32434,"lon":4.44572,"population":5785},{"id":2794802,"name":"Kalken","ascii":"Kalken","lat":51.03836,"lon":3.9186,"population":5782},{"id":2788046,"name":"Rijmenam","ascii":"Rijmenam","lat":51.0016,"lon":4.58405,"population":5755},{"id":2788381,"name":"Ramillies","ascii":"Ramillies","lat":50.63395,"lon":4.90119,"population":5749},{"id":2784980,"name":"Veerle","ascii":"Veerle","lat":51.06989,"lon":4.98761,"population":5748},{"id":2798743,"name":"Engis","ascii":"Engis","lat":50.58156,"lon":5.39916,"population":5737},{"id":2802374,"name":"Bekkevoort","ascii":"Bekkevoort","lat":50.94074,"lon":4.969,"population":5714},{"id":2798305,"name":"Flénu","ascii":"Flenu","lat":50.43673,"lon":3.88573,"population":5704},{"id":2802570,"name":"Battice","ascii":"Battice","lat":50.64734,"lon":5.82104,"population":5691},{"id":2802529,"name":"Bazel","ascii":"Bazel","lat":51.14741,"lon":4.30129,"population":5687},{"id":2801147,"name":"Braives","ascii":"Braives","lat":50.62848,"lon":5.14798,"population":5672},{"id":2795013,"name":"Ivoz-Ramet","ascii":"Ivoz-Ramet","lat":50.58798,"lon":5.4657,"population":5672},{"id":2791460,"name":"Meeuwen","ascii":"Meeuwen","lat":51.0991,"lon":5.52106,"population":5668},{"id":2798145,"name":"Forchies-la-Marche","ascii":"Forchies-la-Marche","lat":50.4369,"lon":4.32115,"population":5649},{"id":2789821,"name":"Onze-Lieve-Vrouw-Waver","ascii":"Onze-Lieve-Vrouw-Waver","lat":51.06265,"lon":4.57941,"population":5621},{"id":2792348,"name":"Limbourg","ascii":"Limbourg","lat":50.61222,"lon":5.9412,"population":5612},{"id":2801550,"name":"Boncelles","ascii":"Boncelles","lat":50.57108,"lon":5.53625,"population":5578},{"id":2793853,"name":"Kwaadmechelen","ascii":"Kwaadmechelen","lat":51.10099,"lon":5.14478,"population":5574},{"id":2798836,"name":"Ellezelles","ascii":"Ellezelles","lat":50.73512,"lon":3.67985,"population":5566},{"id":2787407,"name":"Saint-Hubert","ascii":"Saint-Hubert","lat":50.02668,"lon":5.37401,"population":5538},{"id":2783805,"name":"Westende","ascii":"Westende","lat":51.15961,"lon":2.7687,"population":5522},{"id":2788028,"name":"Rillaar","ascii":"Rillaar","lat":50.97376,"lon":4.89177,"population":5518},{"id":2800711,"name":"Butgenbach","ascii":"Butgenbach","lat":50.42689,"lon":6.20504,"population":5516},{"id":2802518,"name":"Beaufays","ascii":"Beaufays","lat":50.55884,"lon":5.63881,"population":5489},{"id":2802021,"name":"Beverst","ascii":"Beverst","lat":50.89091,"lon":5.47548,"population":5483},{"id":2799034,"name":"Dworp","ascii":"Dworp","lat":50.72983,"lon":4.30106,"population":5470},{"id":2796174,"name":"Heinsch","ascii":"Heinsch","lat":49.69986,"lon":5.7467,"population":5470},{"id":2792245,"name":"Lobbes","ascii":"Lobbes","lat":50.35258,"lon":4.26716,"population":5467},{"id":2791831,"name":"Malonne","ascii":"Malonne","lat":50.43969,"lon":4.79562,"population":5467},{"id":2798272,"name":"Florenville","ascii":"Florenville","lat":49.69983,"lon":5.3074,"population":5464},{"id":2785449,"name":"Tilff","ascii":"Tilff","lat":50.56432,"lon":5.57642,"population":5455},{"id":2792345,"name":"Limelette","ascii":"Limelette","lat":50.68428,"lon":4.57186,"population":5416},{"id":2800584,"name":"Céroux-Mousty","ascii":"Ceroux-Mousty","lat":50.66089,"lon":4.5207,"population":5397},{"id":2792879,"name":"Lendelede","ascii":"Lendelede","lat":50.88626,"lon":3.23747,"population":5393},{"id":2790558,"name":"Muizen","ascii":"Muizen","lat":51.01111,"lon":4.51427,"population":5386},{"id":2803391,"name":"Achel","ascii":"Achel","lat":51.253,"lon":5.47977,"population":5365},{"id":2786777,"name":"Sijsele","ascii":"Sijsele","lat":51.20846,"lon":3.31714,"population":5348},{"id":2801283,"name":"Bouillon","ascii":"Bouillon","lat":49.79324,"lon":5.06703,"population":5347},{"id":2800782,"name":"Bullange","ascii":"Bullange","lat":50.40731,"lon":6.25749,"population":5340},{"id":2791317,"name":"Mere","ascii":"Mere","lat":50.92306,"lon":3.97134,"population":5335},{"id":2802034,"name":"Beveren-Leie","ascii":"Beveren-Leie","lat":50.87538,"lon":3.34034,"population":5331},{"id":2789769,"name":"Oostham","ascii":"Oostham","lat":51.10374,"lon":5.17877,"population":5320},{"id":2801891,"name":"Bissegem","ascii":"Bissegem","lat":50.82378,"lon":3.22844,"population":5310},{"id":2800204,"name":"Comblain-au-Pont","ascii":"Comblain-au-Pont","lat":50.47488,"lon":5.57711,"population":5308},{"id":2796144,"name":"Hekelgem","ascii":"Hekelgem","lat":50.90569,"lon":4.10769,"population":5258},{"id":2798134,"name":"Forêt","ascii":"Foret","lat":50.58387,"lon":5.7,"population":5240},{"id":2788650,"name":"Prayon","ascii":"Prayon","lat":50.57795,"lon":5.6753,"population":5240},{"id":2799509,"name":"Desselgem","ascii":"Desselgem","lat":50.88611,"lon":3.35958,"population":5234},{"id":2798593,"name":"Étalle","ascii":"Etalle","lat":49.67385,"lon":5.60019,"population":5228},{"id":2803242,"name":"Amblève","ascii":"Ambleve","lat":50.35357,"lon":6.17002,"population":5221},{"id":2784957,"name":"Veldegem","ascii":"Veldegem","lat":51.1048,"lon":3.1591,"population":5189},{"id":2790906,"name":"Momignies","ascii":"Momignies","lat":50.0271,"lon":4.16519,"population":5183},{"id":2798847,"name":"Elewijt","ascii":"Elewijt","lat":50.96043,"lon":4.49684,"population":5172},{"id":2798882,"name":"Eke","ascii":"Eke","lat":50.95929,"lon":3.6396,"population":5168},{"id":2790043,"name":"Noorderwijk","ascii":"Noorderwijk","lat":51.14122,"lon":4.84061,"population":5166},{"id":2796482,"name":"Hastière-Lavaux","ascii":"Hastiere-Lavaux","lat":50.21849,"lon":4.82446,"population":5147},{"id":2787547,"name":"Ruiselede","ascii":"Ruiselede","lat":51.04039,"lon":3.39416,"population":5129},{"id":2790736,"name":"Moorsel","ascii":"Moorsel","lat":50.94743,"lon":4.09825,"population":5103},{"id":2791566,"name":"Maurage","ascii":"Maurage","lat":50.45652,"lon":4.09704,"population":5098},{"id":2790451,"name":"Nassogne","ascii":"Nassogne","lat":50.12849,"lon":5.34274,"population":5081},{"id":2785021,"name":"Varsenare","ascii":"Varsenare","lat":51.18981,"lon":3.13916,"population":5081},{"id":2793392,"name":"Langemark","ascii":"Langemark","lat":50.9131,"lon":2.91965,"population":5079},{"id":2797500,"name":"Glabbeek","ascii":"Glabbeek","lat":50.87267,"lon":4.95615,"population":5070},{"id":2791733,"name":"Marchin","ascii":"Marchin","lat":50.46707,"lon":5.2428,"population":5063},{"id":2786938,"name":"Schriek","ascii":"Schriek","lat":51.02844,"lon":4.69357,"population":5062},{"id":2798678,"name":"Erpe","ascii":"Erpe","lat":50.93565,"lon":3.97219,"population":5056},{"id":2785477,"name":"Tielt","ascii":"Tielt","lat":50.9421,"lon":4.90505,"population":5053},{"id":2788211,"name":"Remicourt","ascii":"Remicourt","lat":50.68069,"lon":5.32785,"population":5050},{"id":2795740,"name":"Hingene","ascii":"Hingene","lat":51.10345,"lon":4.26904,"population":5047},{"id":2792313,"name":"Linden","ascii":"Linden","lat":50.89494,"lon":4.77027,"population":5042},{"id":2789354,"name":"Paliseul","ascii":"Paliseul","lat":49.90395,"lon":5.13537,"population":5037},{"id":2800541,"name":"Champion","ascii":"Champion","lat":50.4953,"lon":4.90385,"population":5031},{"id":2787176,"name":"Sauvenière","ascii":"Sauveniere","lat":50.58157,"lon":4.72466,"population":5029},{"id":2799416,"name":"Diegem","ascii":"Diegem","lat":50.89727,"lon":4.43354,"population":5001},{"id":2786728,"name":"Sint-Antonius","ascii":"Sint-Antonius","lat":51.26667,"lon":4.63861,"population":5000},{"id":2795337,"name":"Hotton","ascii":"Hotton","lat":50.26742,"lon":5.44609,"population":4969},{"id":2787147,"name":"Schaffen","ascii":"Schaffen","lat":50.99993,"lon":5.08667,"population":4948},{"id":2801992,"name":"Bierges","ascii":"Bierges","lat":50.71143,"lon":4.58658,"population":4941},{"id":2788227,"name":"Rekkem","ascii":"Rekkem","lat":50.7837,"lon":3.16346,"population":4938},{"id":2790868,"name":"Mons-lez-Liège","ascii":"Mons-lez-Liege","lat":50.62306,"lon":5.45626,"population":4936},{"id":2803014,"name":"Astene","ascii":"Astene","lat":50.98512,"lon":3.56654,"population":4935},{"id":2801292,"name":"Bouffioulx","ascii":"Bouffioulx","lat":50.39116,"lon":4.5155,"population":4935},{"id":2784211,"name":"Waha","ascii":"Waha","lat":50.20915,"lon":5.34174,"population":4923},{"id":2787530,"name":"Rumes","ascii":"Rumes","lat":50.5545,"lon":3.30535,"population":4918},{"id":2792108,"name":"Loppem","ascii":"Loppem","lat":51.15662,"lon":3.19599,"population":4913},{"id":2803252,"name":"Alveringem","ascii":"Alveringem","lat":51.01238,"lon":2.71117,"population":4910},{"id":2789943,"name":"Oelegem","ascii":"Oelegem","lat":51.2131,"lon":4.59832,"population":4906},{"id":2800320,"name":"Chiny","ascii":"Chiny","lat":49.73833,"lon":5.34104,"population":4897},{"id":2793558,"name":"La Hestre","ascii":"La Hestre","lat":50.47556,"lon":4.24739,"population":4890},{"id":2783791,"name":"Westkapelle","ascii":"Westkapelle","lat":51.31511,"lon":3.3017,"population":4883},{"id":2802087,"name":"Betekom","ascii":"Betekom","lat":50.98683,"lon":4.78185,"population":4873},{"id":2795617,"name":"Hofstade","ascii":"Hofstade","lat":50.99134,"lon":4.49229,"population":4868},{"id":2792119,"name":"Lontzen","ascii":"Lontzen","lat":50.68126,"lon":6.00712,"population":4862},{"id":2787550,"name":"Ruisbroek","ascii":"Ruisbroek","lat":51.08832,"lon":4.33127,"population":4860},{"id":2789172,"name":"Péronnes","ascii":"Peronnes","lat":50.43782,"lon":4.14906,"population":4855},{"id":2783915,"name":"Weelde","ascii":"Weelde","lat":51.40777,"lon":4.99251,"population":4854},{"id":2799114,"name":"Drogenbos","ascii":"Drogenbos","lat":50.78733,"lon":4.31471,"population":4843},{"id":2796616,"name":"Ham-sur-Heure","ascii":"Ham-sur-Heure","lat":50.323,"lon":4.38844,"population":4842},{"id":2796052,"name":"Heppen","ascii":"Heppen","lat":51.10934,"lon":5.22898,"population":4838},{"id":8521705,"name":"Aartrijke","ascii":"Aartrijke","lat":51.11915,"lon":3.09076,"population":4837},{"id":2792301,"name":"Linkebeek","ascii":"Linkebeek","lat":50.76781,"lon":4.33688,"population":4823},{"id":2795021,"name":"Itterbeek","ascii":"Itterbeek","lat":50.83803,"lon":4.24948,"population":4808},{"id":2785631,"name":"Tertre","ascii":"Tertre","lat":50.4692,"lon":3.81243,"population":4792},{"id":2796369,"name":"Havelange","ascii":"Havelange","lat":50.38931,"lon":5.23816,"population":4790},{"id":2800286,"name":"Clabecq","ascii":"Clabecq","lat":50.69245,"lon":4.2215,"population":4782},{"id":2787307,"name":"Saive","ascii":"Saive","lat":50.65316,"lon":5.68517,"population":4771},{"id":2792023,"name":"Luingne","ascii":"Luingne","lat":50.73952,"lon":3.23603,"population":4757},{"id":2802359,"name":"Belgrade","ascii":"Belgrade","lat":50.47138,"lon":4.82935,"population":4756},{"id":2801525,"name":"Bonnert","ascii":"Bonnert","lat":49.71131,"lon":5.81865,"population":4747},{"id":2790120,"name":"Nimy","ascii":"Nimy","lat":50.47668,"lon":3.95516,"population":4726},{"id":2783868,"name":"Welle","ascii":"Welle","lat":50.89876,"lon":4.05602,"population":4722},{"id":2784786,"name":"Vichte","ascii":"Vichte","lat":50.83868,"lon":3.40129,"population":4721},{"id":2783575,"name":"Winksele","ascii":"Winksele","lat":50.8986,"lon":4.64607,"population":4710},{"id":2783168,"name":"Zuun","ascii":"Zuun","lat":50.7902,"lon":4.27711,"population":4709},{"id":2797346,"name":"Gouvy","ascii":"Gouvy","lat":50.186,"lon":5.93917,"population":4706},{"id":2792093,"name":"Lot","ascii":"Lot","lat":50.7679,"lon":4.27711,"population":4698},{"id":2784907,"name":"Veltem-Beisem","ascii":"Veltem-Beisem","lat":50.90807,"lon":4.61906,"population":4698},{"id":2798730,"name":"Ensival","ascii":"Ensival","lat":50.58053,"lon":5.84927,"population":4690},{"id":2800363,"name":"Cheratte","ascii":"Cheratte","lat":50.68237,"lon":5.66955,"population":4689},{"id":2786628,"name":"Sint-Lambrechts-Herk","ascii":"Sint-Lambrechts-Herk","lat":50.89914,"lon":5.30786,"population":4676},{"id":2791090,"name":"Moerzeke","ascii":"Moerzeke","lat":51.06914,"lon":4.16137,"population":4657},{"id":2789409,"name":"Overmere","ascii":"Overmere","lat":51.04691,"lon":3.9466,"population":4626},{"id":2795322,"name":"Houffalize","ascii":"Houffalize","lat":50.13235,"lon":5.78962,"population":4614},{"id":2792442,"name":"Libin","ascii":"Libin","lat":49.98107,"lon":5.25612,"population":4609},{"id":2786570,"name":"Sint-Pauwels","ascii":"Sint-Pauwels","lat":51.19391,"lon":4.09649,"population":4608},{"id":2798714,"name":"Eppegem","ascii":"Eppegem","lat":50.96237,"lon":4.45513,"population":4597},{"id":2784994,"name":"Vaux-sur-Sûre","ascii":"Vaux-sur-Sure","lat":49.911,"lon":5.57848,"population":4581},{"id":2794632,"name":"Kaulille","ascii":"Kaulille","lat":51.18763,"lon":5.52372,"population":4570},{"id":2788135,"name":"Retinne","ascii":"Retinne","lat":50.63084,"lon":5.69821,"population":4554},{"id":2802042,"name":"Bévercé","ascii":"Beverce","lat":50.44101,"lon":6.03535,"population":4550},{"id":2794525,"name":"Kermt","ascii":"Kermt","lat":50.94757,"lon":5.24832,"population":4543},{"id":2798313,"name":"Flawinne","ascii":"Flawinne","lat":50.45794,"lon":4.81047,"population":4541},{"id":2786387,"name":"Somme-Leuze","ascii":"Somme-Leuze","lat":50.33699,"lon":5.36705,"population":4532},{"id":2785736,"name":"Teralfene","ascii":"Teralfene","lat":50.89195,"lon":4.09895,"population":4525},{"id":2803040,"name":"Asper","ascii":"Asper","lat":50.9137,"lon":3.65126,"population":4523},{"id":2795238,"name":"Houyet","ascii":"Houyet","lat":50.18619,"lon":5.00762,"population":4505},{"id":2800591,"name":"Cerfontaine","ascii":"Cerfontaine","lat":50.17047,"lon":4.41028,"population":4500},{"id":2790532,"name":"Munsterbilzen","ascii":"Munsterbilzen","lat":50.88939,"lon":5.52647,"population":4493},{"id":2788231,"name":"Rekem","ascii":"Rekem","lat":50.92244,"lon":5.6938,"population":4493},{"id":2802996,"name":"Attert","ascii":"Attert","lat":49.75035,"lon":5.78634,"population":4491},{"id":2797552,"name":"Gierle","ascii":"Gierle","lat":51.26852,"lon":4.86733,"population":4488},{"id":2801290,"name":"Bouge","ascii":"Bouge","lat":50.47193,"lon":4.89218,"population":4486},{"id":2801636,"name":"Bois-d'Haine","ascii":"Bois-d'Haine","lat":50.5018,"lon":4.21555,"population":4467},{"id":2795148,"name":"Humbeek","ascii":"Humbeek","lat":50.96799,"lon":4.3796,"population":4464},{"id":2793054,"name":"Leefdaal","ascii":"Leefdaal","lat":50.84759,"lon":4.58936,"population":4457},{"id":2793346,"name":"Lanklaar","ascii":"Lanklaar","lat":51.01937,"lon":5.72508,"population":4453},{"id":2803150,"name":"Antheit","ascii":"Antheit","lat":50.54927,"lon":5.24022,"population":4447},{"id":2786349,"name":"Sougné-Remouchamps","ascii":"Sougne-Remouchamps","lat":50.48242,"lon":5.70757,"population":4437},{"id":2783739,"name":"Wezemaal","ascii":"Wezemaal","lat":50.94848,"lon":4.75536,"population":4436},{"id":2798365,"name":"Ferrières","ascii":"Ferrieres","lat":50.40157,"lon":5.61092,"population":4434},{"id":2789972,"name":"Obourg","ascii":"Obourg","lat":50.47384,"lon":4.00881,"population":4429},{"id":2788368,"name":"Ramsel","ascii":"Ramsel","lat":51.0324,"lon":4.83242,"population":4428},{"id":2797781,"name":"Gedinne","ascii":"Gedinne","lat":49.98037,"lon":4.93674,"population":4416},{"id":2795063,"name":"Incourt","ascii":"Incourt","lat":50.69151,"lon":4.79816,"population":4395},{"id":2784529,"name":"Vivegnis","ascii":"Vivegnis","lat":50.69243,"lon":5.64757,"population":4369},{"id":2801880,"name":"Blaasveld","ascii":"Blaasveld","lat":51.05585,"lon":4.37668,"population":4367},{"id":2788854,"name":"Ploegsteert","ascii":"Ploegsteert","lat":50.72659,"lon":2.88019,"population":4352},{"id":2792356,"name":"Lillois-Witterzée","ascii":"Lillois-Witterzee","lat":50.64549,"lon":4.36681,"population":4350},{"id":2785957,"name":"Strijpen","ascii":"Strijpen","lat":50.86801,"lon":3.78797,"population":4346},{"id":2796820,"name":"Haasdonk","ascii":"Haasdonk","lat":51.18151,"lon":4.24137,"population":4333},{"id":2789684,"name":"Opoeteren","ascii":"Opoeteren","lat":51.06923,"lon":5.65556,"population":4331},{"id":2789908,"name":"Ohey","ascii":"Ohey","lat":50.4357,"lon":5.12375,"population":4324},{"id":2795949,"name":"Héron","ascii":"Heron","lat":50.54731,"lon":5.09774,"population":4305},{"id":2792219,"name":"Loenhout","ascii":"Loenhout","lat":51.39947,"lon":4.64404,"population":4302},{"id":2800497,"name":"Lasne-Chapelle-Saint-Lambert","ascii":"Lasne-Chapelle-Saint-Lambert","lat":50.69298,"lon":4.50105,"population":4289},{"id":2794127,"name":"Koningshooikt","ascii":"Koningshooikt","lat":51.09607,"lon":4.60992,"population":4280},{"id":2790240,"name":"Neuville-en-Condroz","ascii":"Neuville-en-Condroz","lat":50.55293,"lon":5.45076,"population":4275},{"id":2787805,"name":"Romsée","ascii":"Romsee","lat":50.61091,"lon":5.66457,"population":4270},{"id":2792071,"name":"Louveigné","ascii":"Louveigne","lat":50.53015,"lon":5.71547,"population":4267},{"id":2791154,"name":"Minderhout","ascii":"Minderhout","lat":51.41709,"lon":4.76292,"population":4264},{"id":2801849,"name":"Blaton","ascii":"Blaton","lat":50.50038,"lon":3.66008,"population":4258},{"id":2789708,"name":"Ophain-Bois-Seigneur-Isaac","ascii":"Ophain-Bois-Seigneur-Isaac","lat":50.66646,"lon":4.34865,"population":4255},{"id":2786236,"name":"Spy","ascii":"Spy","lat":50.48143,"lon":4.70944,"population":4236},{"id":2798056,"name":"Sint-Pieters-Voeren","ascii":"Sint-Pieters-Voeren","lat":50.73863,"lon":5.82224,"population":4235},{"id":2790515,"name":"Musson","ascii":"Musson","lat":49.55835,"lon":5.70525,"population":4225},{"id":2793279,"name":"La Roche-en-Ardenne","nameKo":"라로슈앙아르덴","ascii":"La Roche-en-Ardenne","lat":50.18361,"lon":5.57547,"population":4200},{"id":2785436,"name":"Tilleur","ascii":"Tilleur","lat":50.61805,"lon":5.54277,"population":4189},{"id":2795502,"name":"Hombeek","ascii":"Hombeek","lat":51.01753,"lon":4.43891,"population":4182},{"id":2786330,"name":"Souvret","ascii":"Souvret","lat":50.4486,"lon":4.34569,"population":4158},{"id":2791950,"name":"Machelen-aan-de-Leie","ascii":"Machelen-aan-de-Leie","lat":50.95973,"lon":3.49046,"population":4153},{"id":2789439,"name":"Overboelare","ascii":"Overboelare","lat":50.76382,"lon":3.86369,"population":4140},{"id":2797513,"name":"Gits","ascii":"Gits","lat":50.99687,"lon":3.09564,"population":4127},{"id":2802985,"name":"Aubel","ascii":"Aubel","lat":50.70189,"lon":5.85812,"population":4119},{"id":2803148,"name":"Anthisnes","ascii":"Anthisnes","lat":50.48323,"lon":5.519,"population":4116},{"id":2794488,"name":"Kettenis","ascii":"Kettenis","lat":50.64761,"lon":6.04686,"population":4116},{"id":2797341,"name":"Gozée","ascii":"Gozee","lat":50.33461,"lon":4.35273,"population":4107},{"id":2784328,"name":"Vrasene","ascii":"Vrasene","lat":51.22098,"lon":4.19094,"population":4097},{"id":2800269,"name":"Clavier","ascii":"Clavier","lat":50.40069,"lon":5.35154,"population":4092},{"id":2801013,"name":"Broechem","ascii":"Broechem","lat":51.18133,"lon":4.60181,"population":4090},{"id":2788151,"name":"Ressaix","ascii":"Ressaix","lat":50.42285,"lon":4.19442,"population":4079},{"id":2795108,"name":"Hyon","ascii":"Hyon","lat":50.43805,"lon":3.96031,"population":4071},{"id":2798556,"name":"Everberg","ascii":"Everberg","lat":50.87685,"lon":4.56983,"population":4064},{"id":2789551,"name":"Oudegem","ascii":"Oudegem","lat":51.01017,"lon":4.06195,"population":4061},{"id":2786705,"name":"Sint-Eloois-Winkel","ascii":"Sint-Eloois-Winkel","lat":50.87591,"lon":3.18144,"population":4057},{"id":2788724,"name":"Poppel","ascii":"Poppel","lat":51.44565,"lon":5.0433,"population":4024},{"id":2783854,"name":"Wenduine","ascii":"Wenduine","lat":51.2983,"lon":3.08213,"population":4003},{"id":2791329,"name":"Merbes-le-Château","ascii":"Merbes-le-Chateau","lat":50.32449,"lon":4.16489,"population":3999},{"id":2791901,"name":"Maisières","ascii":"Maisieres","lat":50.4882,"lon":3.96564,"population":3985},{"id":2794466,"name":"Kieldrecht","ascii":"Kieldrecht","lat":51.28914,"lon":4.17587,"population":3981},{"id":2785451,"name":"Tildonk","ascii":"Tildonk","lat":50.94383,"lon":4.64481,"population":3973},{"id":2785232,"name":"Trivières","ascii":"Trivieres","lat":50.44827,"lon":4.14511,"population":3960},{"id":2786707,"name":"Sint-Eloois-Vijve","ascii":"Sint-Eloois-Vijve","lat":50.90911,"lon":3.41545,"population":3953},{"id":2783380,"name":"Zaffelare","ascii":"Zaffelare","lat":51.13385,"lon":3.86357,"population":3949},{"id":2796005,"name":"Herenthout","ascii":"Herenthout","lat":51.1401,"lon":4.75572,"population":3942},{"id":2785482,"name":"Tielen","ascii":"Tielen","lat":51.24295,"lon":4.89956,"population":3939},{"id":2789867,"name":"Olsene","ascii":"Olsene","lat":50.93422,"lon":3.46389,"population":3936},{"id":2795963,"name":"Hermée","ascii":"Hermee","lat":50.70883,"lon":5.61831,"population":3930},{"id":2802787,"name":"Baelen","ascii":"Baelen","lat":50.63131,"lon":5.97433,"population":3928},{"id":2792437,"name":"Libramont","ascii":"Libramont","lat":49.91741,"lon":5.37318,"population":3926},{"id":2792871,"name":"Lens","ascii":"Lens","lat":50.55696,"lon":3.89946,"population":3902},{"id":2783924,"name":"Wechelderzande","ascii":"Wechelderzande","lat":51.26304,"lon":4.78652,"population":3897},{"id":2792692,"name":"Deux-Acren","ascii":"Deux-Acren","lat":50.73026,"lon":3.85315,"population":3896},{"id":2796722,"name":"Halanzy","ascii":"Halanzy","lat":49.56052,"lon":5.74433,"population":3890},{"id":2791854,"name":"Malderen","ascii":"Malderen","lat":51.02077,"lon":4.24639,"population":3878},{"id":2792985,"name":"Léglise","ascii":"Leglise","lat":49.79985,"lon":5.53652,"population":3865},{"id":2783307,"name":"Zeebrugge","ascii":"Zeebrugge","lat":51.32901,"lon":3.18188,"population":3865},{"id":2799642,"name":"Denderwindeke","ascii":"Denderwindeke","lat":50.79731,"lon":4.02512,"population":3861},{"id":2784924,"name":"Veldwezelt","ascii":"Veldwezelt","lat":50.86805,"lon":5.63101,"population":3859},{"id":2796798,"name":"Haccourt","ascii":"Haccourt","lat":50.73091,"lon":5.66963,"population":3847},{"id":2789869,"name":"Olne","ascii":"Olne","lat":50.58994,"lon":5.74662,"population":3836},{"id":2791132,"name":"Modave","ascii":"Modave","lat":50.44614,"lon":5.29532,"population":3825},{"id":2798539,"name":"Eynatten","ascii":"Eynatten","lat":50.69243,"lon":6.08351,"population":3817},{"id":2785480,"name":"Tielrode","ascii":"Tielrode","lat":51.11303,"lon":4.17707,"population":3804},{"id":2802334,"name":"Bellegem","ascii":"Bellegem","lat":50.77686,"lon":3.27933,"population":3798},{"id":2799728,"name":"De Klinge","ascii":"De Klinge","lat":51.25627,"lon":4.09041,"population":3796},{"id":2798787,"name":"Emblem","ascii":"Emblem","lat":51.16238,"lon":4.60485,"population":3796},{"id":2799908,"name":"Dadizele","ascii":"Dadizele","lat":50.85138,"lon":3.09468,"population":3794},{"id":2787077,"name":"Schellebelle","ascii":"Schellebelle","lat":51.01136,"lon":3.92843,"population":3782},{"id":2784345,"name":"Vossem","ascii":"Vossem","lat":50.8363,"lon":4.56036,"population":3782},{"id":2789873,"name":"Olmen","ascii":"Olmen","lat":51.14228,"lon":5.14999,"population":3778},{"id":2786537,"name":"Sirault","ascii":"Sirault","lat":50.50546,"lon":3.78908,"population":3747},{"id":2802532,"name":"Bavikhove","ascii":"Bavikhove","lat":50.87532,"lon":3.31062,"population":3742},{"id":2786015,"name":"Stokkem","ascii":"Stokkem","lat":51.02326,"lon":5.74499,"population":3722},{"id":2786046,"name":"Stevoort","ascii":"Stevoort","lat":50.91862,"lon":5.25327,"population":3713},{"id":2787666,"name":"Rotem","ascii":"Rotem","lat":51.05289,"lon":5.74096,"population":3710},{"id":2798826,"name":"Élouges","ascii":"Elouges","lat":50.40245,"lon":3.75175,"population":3704},{"id":2796886,"name":"Gruitrode","ascii":"Gruitrode","lat":51.08936,"lon":5.58824,"population":3694},{"id":2787084,"name":"Scheldewindeke","ascii":"Scheldewindeke","lat":50.93436,"lon":3.78663,"population":3685},{"id":2802273,"name":"Ben-Ahin","ascii":"Ben-Ahin","lat":50.50415,"lon":5.18683,"population":3680},{"id":2792893,"name":"Lembeke","ascii":"Lembeke","lat":51.19487,"lon":3.63333,"population":3679},{"id":2801218,"name":"Bousval","ascii":"Bousval","lat":50.61663,"lon":4.508,"population":3661},{"id":2783946,"name":"Wauthier-Braine","ascii":"Wauthier-Braine","lat":50.68183,"lon":4.29849,"population":3651},{"id":2798501,"name":"Falisolle","ascii":"Falisolle","lat":50.41814,"lon":4.62104,"population":3642},{"id":2791486,"name":"Meerle","ascii":"Meerle","lat":51.47235,"lon":4.80316,"population":3627},{"id":2785784,"name":"Templeuve","ascii":"Templeuve","lat":50.6441,"lon":3.28013,"population":3627},{"id":2802746,"name":"Balegem","ascii":"Balegem","lat":50.9257,"lon":3.79076,"population":3622},{"id":2784370,"name":"Vorselaar","ascii":"Vorselaar","lat":51.20243,"lon":4.77259,"population":3622},{"id":2794567,"name":"Kemzeke","ascii":"Kemzeke","lat":51.20981,"lon":4.07428,"population":3621},{"id":2784504,"name":"Vlamertinge","ascii":"Vlamertinge","lat":50.85485,"lon":2.82024,"population":3619},{"id":2783817,"name":"Wespelaar","ascii":"Wespelaar","lat":50.96081,"lon":4.63984,"population":3612},{"id":2784141,"name":"Walsbets","ascii":"Walsbets","lat":50.73762,"lon":5.08409,"population":3609},{"id":2794092,"name":"Korbeek-Lo","ascii":"Korbeek-Lo","lat":50.86028,"lon":4.76274,"population":3606},{"id":2797805,"name":"Gaurain-Ramecroix","ascii":"Gaurain-Ramecroix","lat":50.58923,"lon":3.48798,"population":3603},{"id":2784856,"name":"Verlaine","ascii":"Verlaine","lat":50.60743,"lon":5.3174,"population":3600},{"id":2789929,"name":"Oevel","ascii":"Oevel","lat":51.13789,"lon":4.90471,"population":3595},{"id":2783721,"name":"Wiekevorst","ascii":"Wiekevorst","lat":51.10796,"lon":4.7924,"population":3589},{"id":2797937,"name":"Froidchapelle","ascii":"Froidchapelle","lat":50.15106,"lon":4.32742,"population":3579},{"id":2783271,"name":"Zepperen","ascii":"Zepperen","lat":50.82139,"lon":5.24769,"population":3577},{"id":2803217,"name":"Ampsin","ascii":"Ampsin","lat":50.54153,"lon":5.2779,"population":3576},{"id":2791098,"name":"Moerkerke","ascii":"Moerkerke","lat":51.24547,"lon":3.34251,"population":3576},{"id":2789741,"name":"Oostnieuwkerke","ascii":"Oostnieuwkerke","lat":50.93959,"lon":3.05742,"population":3572},{"id":2783844,"name":"Werchter","ascii":"Werchter","lat":50.97308,"lon":4.7012,"population":3572},{"id":2789712,"name":"Opgrimbie","ascii":"Opgrimbie","lat":50.94188,"lon":5.67967,"population":3560},{"id":2791013,"name":"Molenbeersel","ascii":"Molenbeersel","lat":51.17041,"lon":5.73761,"population":3551},{"id":2802639,"name":"Basècles","ascii":"Basecles","lat":50.52549,"lon":3.64944,"population":3548},{"id":2785422,"name":"Tintigny","ascii":"Tintigny","lat":49.68326,"lon":5.51349,"population":3538},{"id":2789053,"name":"Petit-Rechain","ascii":"Petit-Rechain","lat":50.61489,"lon":5.83417,"population":3522},{"id":2786810,"name":"Serskamp","ascii":"Serskamp","lat":50.98849,"lon":3.92657,"population":3519},{"id":2790272,"name":"Neufvilles","ascii":"Neufvilles","lat":50.57107,"lon":4.00041,"population":3514},{"id":2791515,"name":"Meer","ascii":"Meer","lat":51.44641,"lon":4.73906,"population":3512},{"id":2784971,"name":"Velaine","ascii":"Velaine","lat":50.47805,"lon":4.61031,"population":3510},{"id":2796700,"name":"Hallaar","ascii":"Hallaar","lat":51.0842,"lon":4.72918,"population":3506},{"id":2796629,"name":"Hamoir","ascii":"Hamoir","lat":50.42675,"lon":5.53304,"population":3500},{"id":2790744,"name":"Montzen","ascii":"Montzen","lat":50.70793,"lon":5.96223,"population":3492},{"id":2786154,"name":"Steendorp","ascii":"Steendorp","lat":51.12681,"lon":4.27031,"population":3492},{"id":2791994,"name":"Luttre","ascii":"Luttre","lat":50.51006,"lon":4.39709,"population":3489},{"id":2783333,"name":"Zandvoorde","ascii":"Zandvoorde","lat":51.19942,"lon":2.9722,"population":3484},{"id":2799078,"name":"Duisburg","ascii":"Duisburg","lat":50.81584,"lon":4.55533,"population":3471},{"id":2785296,"name":"Trembleur","ascii":"Trembleur","lat":50.69544,"lon":5.72604,"population":3465},{"id":2802225,"name":"Berg","ascii":"Berg","lat":50.93063,"lon":4.54336,"population":3462},{"id":2789716,"name":"Opdorp","ascii":"Opdorp","lat":51.02806,"lon":4.21801,"population":3459},{"id":2795170,"name":"Hulshout","ascii":"Hulshout","lat":51.07451,"lon":4.79081,"population":3447},{"id":2798611,"name":"Essene","ascii":"Essene","lat":50.90163,"lon":4.13743,"population":3445},{"id":2796614,"name":"Ham-sur-Sambre","ascii":"Ham-sur-Sambre","lat":50.44368,"lon":4.67425,"population":3444},{"id":2789817,"name":"Ooigem","ascii":"Ooigem","lat":50.89334,"lon":3.3363,"population":3429},{"id":2785418,"name":"Tisselt","ascii":"Tisselt","lat":51.03398,"lon":4.35947,"population":3428},{"id":2793434,"name":"Landegem","ascii":"Landegem","lat":51.05518,"lon":3.57667,"population":3422},{"id":2793031,"name":"Leernes","ascii":"Leernes","lat":50.39812,"lon":4.33239,"population":3414},{"id":2784280,"name":"Vucht","ascii":"Vucht","lat":50.97832,"lon":5.711,"population":3410},{"id":2787322,"name":"Saint-Symphorien","ascii":"Saint-Symphorien","lat":50.43903,"lon":4.00726,"population":3402},{"id":2802865,"name":"Averbode","ascii":"Averbode","lat":51.02887,"lon":4.98067,"population":3396},{"id":2783901,"name":"Wegnez","ascii":"Wegnez","lat":50.57895,"lon":5.81705,"population":3393},{"id":2797542,"name":"Gijzegem","ascii":"Gijzegem","lat":50.98602,"lon":4.04938,"population":3383},{"id":2796066,"name":"Hennuyères","ascii":"Hennuyeres","lat":50.6386,"lon":4.16935,"population":3379},{"id":2797344,"name":"Gouy-lez-Piéton","ascii":"Gouy-lez-Pieton","lat":50.4907,"lon":4.3289,"population":3378},{"id":2784487,"name":"Vlezenbeek","ascii":"Vlezenbeek","lat":50.80778,"lon":4.23197,"population":3377},{"id":2790953,"name":"Molenstede","ascii":"Molenstede","lat":51.00401,"lon":5.01298,"population":3374},{"id":2789635,"name":"Oreye","ascii":"Oreye","lat":50.73187,"lon":5.35818,"population":3373},{"id":2784903,"name":"Velzeke-Ruddershove","ascii":"Velzeke-Ruddershove","lat":50.88288,"lon":3.78292,"population":3359},{"id":2800936,"name":"Brugelette","ascii":"Brugelette","lat":50.59577,"lon":3.85363,"population":3358},{"id":2797977,"name":"Frasnes-lez-Gosselies","ascii":"Frasnes-lez-Gosselies","lat":50.53838,"lon":4.45232,"population":3356},{"id":2786685,"name":"Sint-Huibrechts-Lille","ascii":"Sint-Huibrechts-Lille","lat":51.22266,"lon":5.49437,"population":3354},{"id":2798512,"name":"Faimes","ascii":"Faimes","lat":50.66252,"lon":5.26005,"population":3349},{"id":2796809,"name":"Habay-la-Neuve","ascii":"Habay-la-Neuve","lat":49.7282,"lon":5.6474,"population":3344},{"id":2795157,"name":"Hulste","ascii":"Hulste","lat":50.88217,"lon":3.29497,"population":3338},{"id":2792400,"name":"Lierneux","ascii":"Lierneux","lat":50.28477,"lon":5.79236,"population":3332},{"id":2788450,"name":"Quevaucamps","ascii":"Quevaucamps","lat":50.51888,"lon":3.68128,"population":3330},{"id":2791719,"name":"Mark","ascii":"Mark","lat":50.6914,"lon":4.01559,"population":3327},{"id":2801640,"name":"Bois-de-Villers","ascii":"Bois-de-Villers","lat":50.39033,"lon":4.82407,"population":3325},{"id":2798897,"name":"Eindhout","ascii":"Eindhout","lat":51.10385,"lon":4.9999,"population":3311},{"id":2802596,"name":"Bassevelde","ascii":"Bassevelde","lat":51.23103,"lon":3.67798,"population":3282},{"id":2799351,"name":"Dion-le-Mont","ascii":"Dion-le-Mont","lat":50.69653,"lon":4.66657,"population":3277},{"id":2794823,"name":"Kachtem","ascii":"Kachtem","lat":50.93341,"lon":3.19425,"population":3276},{"id":2784014,"name":"Wasmuel","ascii":"Wasmuel","lat":50.44493,"lon":3.84813,"population":3262},{"id":2785562,"name":"Thimister","ascii":"Thimister","lat":50.65539,"lon":5.86421,"population":3261},{"id":2795752,"name":"Hillegem","ascii":"Hillegem","lat":50.89567,"lon":3.8531,"population":3258},{"id":2783229,"name":"Zichen-Zussen-Bolder","ascii":"Zichen-Zussen-Bolder","lat":50.79422,"lon":5.62483,"population":3250},{"id":2794107,"name":"Koolkerke","ascii":"Koolkerke","lat":51.23931,"lon":3.24745,"population":3236},{"id":2795703,"name":"Hoegaarden","nameKo":"후하르던","ascii":"Hoegaarden","lat":50.7756,"lon":4.88952,"population":3226},{"id":2788471,"name":"Quenast","ascii":"Quenast","lat":50.66959,"lon":4.15661,"population":3226},{"id":2789459,"name":"Outer","ascii":"Outer","lat":50.84189,"lon":3.9987,"population":3221},{"id":2789886,"name":"Olen","ascii":"Olen","lat":51.14391,"lon":4.8598,"population":3209},{"id":2801949,"name":"Bièvre","ascii":"Bievre","lat":49.94085,"lon":5.01591,"population":3207},{"id":2793482,"name":"Lambermont","ascii":"Lambermont","lat":50.59038,"lon":5.83245,"population":3206},{"id":2802759,"name":"Baisy-Thy","ascii":"Baisy-Thy","lat":50.59708,"lon":4.47598,"population":3185},{"id":2791400,"name":"Melen","ascii":"Melen","lat":50.6462,"lon":5.73589,"population":3174},{"id":2795189,"name":"Huizingen","ascii":"Huizingen","lat":50.7465,"lon":4.27377,"population":3172},{"id":2790022,"name":"Nossegem","ascii":"Nossegem","lat":50.88181,"lon":4.50817,"population":3165},{"id":2784195,"name":"Wakken","ascii":"Wakken","lat":50.93304,"lon":3.39743,"population":3165},{"id":2798575,"name":"Eugies","ascii":"Eugies","lat":50.38893,"lon":3.88513,"population":3160},{"id":2798638,"name":"Esen","ascii":"Esen","lat":51.0294,"lon":2.90189,"population":3152},{"id":2785401,"name":"Tollembeek","ascii":"Tollembeek","lat":50.74096,"lon":4.00666,"population":3152},{"id":2787512,"name":"Rupelmonde","ascii":"Rupelmonde","lat":51.12931,"lon":4.29434,"population":3151},{"id":2796603,"name":"Handzame","ascii":"Handzame","lat":51.0254,"lon":3.0032,"population":3150},{"id":2803343,"name":"Adinkerke","ascii":"Adinkerke","lat":51.07409,"lon":2.59914,"population":3142},{"id":2798290,"name":"Flobecq","ascii":"Flobecq","lat":50.73733,"lon":3.73876,"population":3142},{"id":2785456,"name":"Tihange","ascii":"Tihange","lat":50.52974,"lon":5.26176,"population":3140},{"id":2785610,"name":"Testelt","ascii":"Testelt","lat":51.01084,"lon":4.95312,"population":3131},{"id":2803061,"name":"Arquennes","ascii":"Arquennes","lat":50.56765,"lon":4.27341,"population":3130},{"id":2791757,"name":"Marbais","ascii":"Marbais","lat":50.54652,"lon":4.53499,"population":3130},{"id":2791790,"name":"Manhay","ascii":"Manhay","lat":50.29219,"lon":5.67562,"population":3128},{"id":2792167,"name":"Loncin","ascii":"Loncin","lat":50.66655,"lon":5.50509,"population":3118},{"id":2789832,"name":"Onkerzele","ascii":"Onkerzele","lat":50.78212,"lon":3.91145,"population":3108},{"id":2789696,"name":"Ophoven","ascii":"Ophoven","lat":51.12571,"lon":5.80155,"population":3104},{"id":2798649,"name":"Erwetegem","ascii":"Erwetegem","lat":50.85547,"lon":3.81444,"population":3102},{"id":2789270,"name":"Passendale","ascii":"Passendale","lat":50.89979,"lon":3.02133,"population":3095},{"id":2787378,"name":"Saint-Léger","ascii":"Saint-Leger","lat":49.61196,"lon":5.65688,"population":3092},{"id":2797455,"name":"Goeferdinge","ascii":"Goeferdinge","lat":50.76605,"lon":3.83978,"population":3088},{"id":2798357,"name":"Fexhe-le-Haut-Clocher","ascii":"Fexhe-le-Haut-Clocher","lat":50.6654,"lon":5.39978,"population":3082},{"id":2784465,"name":"Vlimmeren","ascii":"Vlimmeren","lat":51.2952,"lon":4.78128,"population":3066},{"id":2797696,"name":"Gemmenich","ascii":"Gemmenich","lat":50.74608,"lon":5.99507,"population":3064},{"id":2793478,"name":"Lambusart","ascii":"Lambusart","lat":50.45433,"lon":4.55263,"population":3060},{"id":2801199,"name":"Bouwel","ascii":"Bouwel","lat":51.17289,"lon":4.7418,"population":3047},{"id":2783696,"name":"Wijchmaal","ascii":"Wijchmaal","lat":51.13515,"lon":5.41334,"population":3042},{"id":2784033,"name":"Warneton","ascii":"Warneton","lat":50.75158,"lon":2.94635,"population":3039},{"id":2801108,"name":"Bray","ascii":"Bray","lat":50.43242,"lon":4.10588,"population":3015},{"id":2787235,"name":"Sart-Dames-Avelines","ascii":"Sart-Dames-Avelines","lat":50.56863,"lon":4.49221,"population":3015},{"id":2789834,"name":"Onhaye","ascii":"Onhaye","lat":50.24148,"lon":4.84069,"population":3014},{"id":2789167,"name":"Perre","ascii":"Perre","lat":50.88914,"lon":3.86098,"population":3000},{"id":2789807,"name":"Oordegem","ascii":"Oordegem","lat":50.95727,"lon":3.90201,"population":2990},{"id":2800629,"name":"Casteau","ascii":"Casteau","lat":50.51233,"lon":4.01121,"population":2989},{"id":2800732,"name":"Burst","ascii":"Burst","lat":50.91497,"lon":3.91636,"population":2987},{"id":2803119,"name":"Appelterre-Eichem","ascii":"Appelterre-Eichem","lat":50.81597,"lon":3.97808,"population":2981},{"id":2791403,"name":"Meldert","ascii":"Meldert","lat":50.93449,"lon":4.13504,"population":2972},{"id":2796816,"name":"Haasrode","ascii":"Haasrode","lat":50.83169,"lon":4.72953,"population":2970},{"id":2785989,"name":"Stoumont","ascii":"Stoumont","lat":50.40667,"lon":5.80838,"population":2970},{"id":2803427,"name":"Aarsele","ascii":"Aarsele","lat":50.99663,"lon":3.41954,"population":2959},{"id":2796391,"name":"Hautrage","ascii":"Hautrage","lat":50.48192,"lon":3.76522,"population":2951},{"id":2797349,"name":"Goutroux","ascii":"Goutroux","lat":50.41333,"lon":4.36226,"population":2947},