[{"id":290332,"name":"Al Muharraq","ascii":"Al Muharraq","lat":26.25722,"lon":50.61194,"population":176583},{"id":290340,"name":"Manama","nameKo":"마나마","ascii":"Manama","lat":26.22787,"lon":50.58565,"population":147074},{"id":290247,"name":"Madīnat Ḩamad","nameKo":"하마드타운","ascii":"Madinat Hamad","lat":26.11528,"lon":50.50694,"population":133550},{"id":385038,"name":"Ar Rifā‘","nameKo":"리파","ascii":"Ar Rifa'","lat":26.13,"lon":50.555,"population":115495},{"id":290104,"name":"Sitrah","ascii":"Sitrah","lat":26.15472,"lon":50.62056,"population":72601},{"id":290215,"name":"Jidd Ḩafş","ascii":"Jidd Hafs","lat":26.21861,"lon":50.54778,"population":66588},{"id":290269,"name":"Dār Kulayb","ascii":"Dar Kulayb","lat":26.06861,"lon":50.50389,"population":65466},{"id":290187,"name":"Madīnat ‘Īsá","nameKo":"이사타운","ascii":"Madinat `Isa","lat":26.17361,"lon":50.54778,"population":38090},{"id":290363,"name":"Al Ḩadd","ascii":"Al Hadd","lat":26.24556,"lon":50.65417,"population":12797},{"id":290121,"name":"Sanābis","ascii":"Sanabis","lat":26.22722,"lon":50.55083,"population":6564}]