[{"id":2394819,"name":"Cotonou","nameKo":"코토누","ascii":"Cotonou","lat":6.36536,"lon":2.41833,"population":679012},{"id":2395914,"name":"Abomey-Calavi","ascii":"Abomey-Calavi","lat":6.44852,"lon":2.35566,"population":385755},{"id":2392087,"name":"Porto-Novo","nameKo":"포르토노보","ascii":"Porto-Novo","lat":6.49646,"lon":2.60359,"population":264320},{"id":2392204,"name":"Parakou","nameKo":"파라쿠","ascii":"Parakou","lat":9.33716,"lon":2.63031,"population":255478},{"id":2394092,"name":"Godomè","ascii":"Godome","lat":6.38948,"lon":2.34581,"population":253262},{"id":2395915,"name":"Abomey","ascii":"Abomey","lat":7.18286,"lon":1.99119,"population":117824},{"id":2394560,"name":"Djougou","ascii":"Djougou","lat":9.70853,"lon":1.66598,"population":94773},{"id":2395049,"name":"Bohicon","ascii":"Bohicon","lat":7.17826,"lon":2.0667,"population":93744},{"id":2394427,"name":"Ekpé","ascii":"Ekpe","lat":6.39209,"lon":2.53725,"population":75313},{"id":2392505,"name":"Nikki","ascii":"Nikki","lat":9.94009,"lon":3.21075,"population":66109},{"id":2392837,"name":"Malanville","ascii":"Malanville","lat":11.86819,"lon":3.38327,"population":64639},{"id":2393693,"name":"Kandi","nameKo":"칸디","ascii":"Kandi","lat":11.13417,"lon":2.93861,"population":56043},{"id":2393561,"name":"Kérou","ascii":"Kerou","lat":10.82578,"lon":2.10479,"population":54276},{"id":2392601,"name":"Natitingou","ascii":"Natitingou","lat":10.30416,"lon":1.37962,"population":53284},{"id":2392108,"name":"Pobé","ascii":"Pobe","lat":6.98008,"lon":2.6649,"population":49232},{"id":2392308,"name":"Ouidah","ascii":"Ouidah","lat":6.36307,"lon":2.08506,"population":47616},{"id":2392897,"name":"Lokossa","ascii":"Lokossa","lat":6.63869,"lon":1.71674,"population":47246},{"id":2395261,"name":"Bassila","ascii":"Bassila","lat":9.00814,"lon":1.6654,"population":46569},{"id":2391377,"name":"Tchaourou","ascii":"Tchaourou","lat":8.88649,"lon":2.59753,"population":43862},{"id":2394814,"name":"Cové","ascii":"Cove","lat":7.22097,"lon":2.34017,"population":43554},{"id":2392009,"name":"Sakété","ascii":"Sakete","lat":6.73618,"lon":2.65866,"population":43541},{"id":2394824,"name":"Comé","ascii":"Come","lat":6.40764,"lon":1.88198,"population":42586},{"id":2392746,"name":"Missérété","ascii":"Misserete","lat":6.55872,"lon":2.59063,"population":41657},{"id":2394545,"name":"Dogbo","ascii":"Dogbo","lat":6.79911,"lon":1.78073,"population":41341},{"id":2393551,"name":"Kétou","ascii":"Ketou","lat":7.36332,"lon":2.59978,"population":39626},{"id":2391895,"name":"Savalou","ascii":"Savalou","lat":7.92807,"lon":1.97558,"population":38162},{"id":2395317,"name":"Banikoara","ascii":"Banikoara","lat":11.29845,"lon":2.43856,"population":37571},{"id":2392164,"name":"Péhonko","ascii":"Pehonko","lat":10.22746,"lon":2.00192,"population":37217},{"id":2393722,"name":"Kalalé","ascii":"Kalale","lat":10.29275,"lon":3.38367,"population":35513},{"id":2391739,"name":"Sinendé","ascii":"Sinende","lat":10.34963,"lon":2.37906,"population":35267},{"id":2395325,"name":"Banigbé","ascii":"Banigbe","lat":6.64756,"lon":2.70695,"population":31984},{"id":2391893,"name":"Savé","ascii":"Save","lat":8.03424,"lon":2.4866,"population":31444},{"id":2395182,"name":"Bembèrèkè","ascii":"Bembereke","lat":10.22827,"lon":2.66335,"population":31176},{"id":2394711,"name":"Dassa-Zoumè","ascii":"Dassa-Zoume","lat":7.75,"lon":2.18333,"population":29461},{"id":2394822,"name":"Kopargo","ascii":"Kopargo","lat":9.84108,"lon":1.54231,"population":28605},{"id":2393287,"name":"Kouandé","ascii":"Kouande","lat":6.4,"lon":2.06667,"population":27197},{"id":2391455,"name":"Tanguiéta","ascii":"Tanguieta","lat":10.62118,"lon":1.26651,"population":27094},{"id":11427410,"name":"Kpozoun","ascii":"Kpozoun","lat":7.22868,"lon":2.21317,"population":26688},{"id":2391881,"name":"Sé","ascii":"Se","lat":6.51115,"lon":1.82831,"population":26627},{"id":2391871,"name":"Ségbana","ascii":"Segbana","lat":10.92821,"lon":3.69429,"population":26440},{"id":2395568,"name":"Aplahoué","ascii":"Aplahoue","lat":6.93333,"lon":1.68333,"population":26340},{"id":10339095,"name":"Cobly","ascii":"Cobly","lat":10.49222,"lon":0.99972,"population":24878},{"id":2392781,"name":"Matéri","ascii":"Materi","lat":10.69623,"lon":1.06307,"population":24490},{"id":2395870,"name":"Adjarra","ascii":"Adjarra","lat":6.53445,"lon":2.66833,"population":24132},{"id":2394576,"name":"Djidja","ascii":"Djidja","lat":7.34436,"lon":1.93447,"population":23781},{"id":10339148,"name":"Klouékanmè","ascii":"Klouekanme","lat":6.98028,"lon":1.84222,"population":23763},{"id":2391833,"name":"Semi","ascii":"Semi","lat":6.36667,"lon":2.61667,"population":23636},{"id":2395635,"name":"Allada","ascii":"Allada","lat":6.66547,"lon":2.15138,"population":23287},{"id":2392595,"name":"Ndali","ascii":"Ndali","lat":9.8636,"lon":2.72094,"population":23264},{"id":2394914,"name":"Boukoumbé","ascii":"Boukoumbe","lat":10.17711,"lon":1.10621,"population":22386},{"id":2395874,"name":"Adjaouèrè","ascii":"Adjaouere","lat":7.00228,"lon":2.60591,"population":21968},{"id":2391034,"name":"Toviklin","ascii":"Toviklin","lat":6.88935,"lon":1.83722,"population":21617},{"id":2395477,"name":"Avrankou","ascii":"Avrankou","lat":6.55591,"lon":2.65123,"population":20326},{"id":2394111,"name":"Glazoué","ascii":"Glazoue","lat":7.97252,"lon":2.22176,"population":20036},{"id":2394227,"name":"Ganvié","ascii":"Ganvie","lat":6.46441,"lon":2.39288,"population":20000},{"id":2394597,"name":"Djakotomé","ascii":"Djakotome","lat":6.8991,"lon":1.71618,"population":19498},{"id":2390731,"name":"Zinvié","ascii":"Zinvie","lat":6.61738,"lon":2.35776,"population":18157},{"id":2395301,"name":"Banté","ascii":"Bante","lat":8.41221,"lon":1.88969,"population":17682},{"id":2596746,"name":"Ouaké","ascii":"Ouake","lat":9.66167,"lon":1.38472,"population":17259},{"id":2392303,"name":"Ouinhi","ascii":"Ouinhi","lat":7.08411,"lon":2.48343,"population":17043},{"id":2391170,"name":"Tobré","ascii":"Tobre","lat":10.19499,"lon":2.12999,"population":16912},{"id":2390740,"name":"Zé","ascii":"Ze","lat":6.78333,"lon":2.3,"population":16903},{"id":2391067,"name":"Toukountouna","ascii":"Toukountouna","lat":10.50279,"lon":1.37437,"population":16330},{"id":2392134,"name":"Pèrèrè","ascii":"Perere","lat":9.79721,"lon":2.98403,"population":15927},{"id":2392319,"name":"Ouessé","ascii":"Ouesse","lat":8.48639,"lon":2.42872,"population":15658},{"id":2395510,"name":"Athiémé","ascii":"Athieme","lat":6.5808,"lon":1.6696,"population":15195},{"id":2391101,"name":"Tori-Bossito","ascii":"Tori-Bossito","lat":6.50302,"lon":2.1441,"population":14844},{"id":2394087,"name":"Gogounou","ascii":"Gogounou","lat":10.8399,"lon":2.83174,"population":14248},{"id":2392963,"name":"Lalo","ascii":"Lalo","lat":6.92869,"lon":1.88994,"population":13451},{"id":2393887,"name":"Hévié","ascii":"Hevie","lat":6.41667,"lon":2.25,"population":13450},{"id":2395127,"name":"Bétérou","ascii":"Beterou","lat":9.19916,"lon":2.25855,"population":13108},{"id":2391990,"name":"Sam","ascii":"Sam","lat":11.03287,"lon":2.73282,"population":12006},{"id":2393947,"name":"Grand-Popo","ascii":"Grand-Popo","lat":6.28036,"lon":1.82251,"population":9847},{"id":2390701,"name":"Zounké","ascii":"Zounke","lat":6.61621,"lon":2.52836,"population":8326},{"id":2393917,"name":"Guilmaro","ascii":"Guilmaro","lat":10.56583,"lon":1.72444,"population":6516},{"id":2395752,"name":"Agoué","ascii":"Agoue","lat":6.2463,"lon":1.67624,"population":5148},{"id":2393883,"name":"Hinvi","ascii":"Hinvi","lat":6.76667,"lon":2.16667,"population":3604},{"id":2395859,"name":"Adjohon","ascii":"Adjohon","lat":6.71853,"lon":2.47759,"population":0},{"id":2395591,"name":"Angara-Débou","ascii":"Angara-Debou","lat":11.32454,"lon":3.05886,"population":0},{"id":2395488,"name":"Avakpa","ascii":"Avakpa","lat":6.66239,"lon":2.04249,"population":0},{"id":2393994,"name":"Goumori","ascii":"Goumori","lat":11.18131,"lon":2.29295,"population":0},{"id":11258052,"name":"Houinvigue","ascii":"Houinvigue","lat":6.8862,"lon":2.4806,"population":0},{"id":11837635,"name":"Kpomassè","ascii":"Kpomasse","lat":6.46216,"lon":1.99362,"population":0},{"id":2392229,"name":"Pahou","ascii":"Pahou","lat":6.38774,"lon":2.21423,"population":0},{"id":2391880,"name":"Sé","ascii":"Se","lat":6.7539,"lon":2.10365,"population":0},{"id":2391699,"name":"So-Ava","ascii":"So-Ava","lat":6.49245,"lon":2.40193,"population":0},{"id":2390751,"name":"Zagnanado","ascii":"Zagnanado","lat":7.22097,"lon":2.38335,"population":0}]