[{"id":1820906,"name":"Bandar Seri Begawan","nameKo":"반다르스리브가완","ascii":"Bandar Seri Begawan","lat":4.89035,"lon":114.94006,"population":64409},{"id":1820575,"name":"Sengkurong","ascii":"Sengkurong","lat":4.88333,"lon":114.83333,"population":40972},{"id":1820635,"name":"Mentiri","ascii":"Mentiri","lat":4.97058,"lon":115.02078,"population":39324},{"id":1820491,"name":"Kuala Belait","nameKo":"쿠알라블라잇","ascii":"Kuala Belait","lat":4.58361,"lon":114.2312,"population":31178},{"id":1820187,"name":"Seria","ascii":"Seria","lat":4.60637,"lon":114.32476,"population":30097},{"id":1820071,"name":"Tutong","ascii":"Tutong","lat":4.80278,"lon":114.64917,"population":19151},{"id":1820574,"name":"Serasa","ascii":"Serasa","lat":5.01761,"lon":115.05798,"population":18569},{"id":1820557,"name":"Liang","ascii":"Liang","lat":4.67747,"lon":114.49587,"population":16813},{"id":1820622,"name":"Perumahan Negara Panchor","ascii":"Perumahan Negara Panchor","lat":4.96667,"lon":115.01667,"population":13358},{"id":1820546,"name":"Telamba","ascii":"Telamba","lat":4.72964,"lon":114.56675,"population":13253},{"id":1820545,"name":"Telisai","ascii":"Telisai","lat":4.73558,"lon":114.56324,"population":13253},{"id":1820659,"name":"Kota Batu","ascii":"Kota Batu","lat":4.88333,"lon":114.95,"population":12676},{"id":1820540,"name":"Kampong Tunah Jambu","ascii":"Kampong Tunah Jambu","lat":4.98333,"lon":114.98333,"population":11695},{"id":1820610,"name":"Pengkalan Batu","ascii":"Pengkalan Batu","lat":4.78333,"lon":114.83333,"population":11560},{"id":1820328,"name":"Panaga","ascii":"Panaga","lat":4.6,"lon":114.28333,"population":10301},{"id":13535832,"name":"Kampong Ayer","ascii":"Kampong Ayer","lat":4.88265,"lon":114.94487,"population":10250},{"id":1820593,"name":"Kampong Meragang","ascii":"Kampong Meragang","lat":4.93333,"lon":114.91667,"population":9190},{"id":1820665,"name":"Keriam","ascii":"Keriam","lat":4.81603,"lon":114.6941,"population":8589},{"id":1820641,"name":"Lumapas","ascii":"Lumapas","lat":4.85,"lon":114.91667,"population":8058},{"id":1820653,"name":"Kampong Lambak A","ascii":"Kampong Lambak A","lat":4.96611,"lon":114.94296,"population":7293},{"id":1820638,"name":"Kampong Mata Mata","ascii":"Kampong Mata Mata","lat":4.9,"lon":114.9,"population":7159},{"id":1820707,"name":"Kampong Beribi","ascii":"Kampong Beribi","lat":4.88333,"lon":114.88333,"population":6490},{"id":1820560,"name":"Sungai Hanching","ascii":"Sungai Hanching","lat":4.96806,"lon":114.97753,"population":6129},{"id":1820632,"name":"Kampong Mulaut","ascii":"Kampong Mulaut","lat":4.86667,"lon":114.83333,"population":5981},{"id":1820642,"name":"Kampong Lugu","ascii":"Kampong Lugu","lat":4.88333,"lon":114.8,"population":5795},{"id":1820586,"name":"Kampong Rimba","ascii":"Kampong Rimba","lat":4.91667,"lon":114.9,"population":5284},{"id":1820662,"name":"Kiudang","ascii":"Kiudang","lat":4.75,"lon":114.73333,"population":5063},{"id":1820664,"name":"Kampong Kiajong","ascii":"Kampong Kiajong","lat":4.88896,"lon":114.91912,"population":4735},{"id":1820604,"name":"Kampong Peninjau","ascii":"Kampong Peninjau","lat":4.93333,"lon":114.83333,"population":4240},{"id":1820903,"name":"Bangar","ascii":"Bangar","lat":4.70861,"lon":115.07167,"population":3970},{"id":1820549,"name":"Kampong Tanjong Nangka","ascii":"Kampong Tanjong Nangka","lat":4.88333,"lon":114.81667,"population":3838},{"id":1820680,"name":"Kampong Jerudong","ascii":"Kampong Jerudong","lat":4.95,"lon":114.85,"population":3650},{"id":1820652,"name":"Lamunin","ascii":"Lamunin","lat":4.6816,"lon":114.71537,"population":3641},{"id":1820684,"name":"Kampong Gadong","ascii":"Kampong Gadong","lat":4.91667,"lon":114.91667,"population":3356},{"id":1820577,"name":"Kampong Selayun","ascii":"Kampong Selayun","lat":4.9,"lon":114.85,"population":2956},{"id":1820676,"name":"Kapok","ascii":"Kapok","lat":5.02447,"lon":115.04664,"population":2791},{"id":1820566,"name":"Subok","ascii":"Subok","lat":4.89311,"lon":114.96588,"population":2681},{"id":1820673,"name":"Katok","ascii":"Katok","lat":4.91619,"lon":114.89353,"population":2427},{"id":1820569,"name":"Sinarubai","ascii":"Sinarubai","lat":4.83797,"lon":114.87473,"population":2319},{"id":11807073,"name":"Kulapis","ascii":"Kulapis","lat":4.85045,"lon":114.82322,"population":1986},{"id":1820606,"name":"Penanjong","ascii":"Penanjong","lat":4.83793,"lon":114.68014,"population":1856},{"id":1820580,"name":"Sengkarai","ascii":"Sengkarai","lat":4.80476,"lon":114.64558,"population":1694},{"id":1820582,"name":"Salambigar","ascii":"Salambigar","lat":4.97877,"lon":114.9878,"population":1184},{"id":12547935,"name":"Kampung Sungai Teraban","ascii":"Kampung Sungai Teraban","lat":4.58445,"lon":114.18117,"population":1082}]