[{"id":3513563,"name":"Kralendijk","nameKo":"크랄렌데이크","ascii":"Kralendijk","lat":12.15,"lon":-68.26667,"population":10620},{"id":3513768,"name":"Dorp Antriol","ascii":"Dorp Antriol","lat":12.16631,"lon":-68.27042,"population":3811},{"id":3513767,"name":"Dorp Nikiboko","ascii":"Dorp Nikiboko","lat":12.14444,"lon":-68.26121,"population":3475},{"id":3513146,"name":"Upper Hell's Gate","ascii":"Upper Hell's Gate","lat":17.643,"lon":-63.22649,"population":2810},{"id":3513765,"name":"Dorp Rincon","nameKo":"린콘","ascii":"Dorp Rincon","lat":12.23762,"lon":-68.33059,"population":1875},{"id":3513760,"name":"Dorp Tera Kora","ascii":"Dorp Tera Kora","lat":12.13728,"lon":-68.26039,"population":1186},{"id":3513426,"name":"Oranjestad","nameKo":"오라녜스타트","ascii":"Oranjestad","lat":17.48303,"lon":-62.9864,"population":1097},{"id":3513173,"name":"The Bottom","ascii":"The Bottom","lat":17.62652,"lon":-63.24971,"population":488}]