[{"id":3448439,"name":"São Paulo","nameKo":"상파울루","ascii":"Sao Paulo","lat":-23.5475,"lon":-46.63611,"population":12400232},{"id":3451190,"name":"Rio de Janeiro","nameKo":"리우데자네이루","ascii":"Rio de Janeiro","lat":-22.90642,"lon":-43.18223,"population":6747815},{"id":3470127,"name":"Belo Horizonte","nameKo":"벨루오리존치","ascii":"Belo Horizonte","lat":-19.92083,"lon":-43.93778,"population":2721564},{"id":3450554,"name":"Salvador","nameKo":"사우바도르","ascii":"Salvador","lat":-12.97563,"lon":-38.49096,"population":2711840},{"id":3399415,"name":"Fortaleza","nameKo":"포르탈레자","ascii":"Fortaleza","lat":-3.71722,"lon":-38.54306,"population":2400000},{"id":3663517,"name":"Manaus","ascii":"Manaus","lat":-3.10194,"lon":-60.025,"population":2219580},{"id":3469058,"name":"Brasília","nameKo":"브라질리아","ascii":"Brasilia","lat":-15.77972,"lon":-47.92972,"population":2207718},{"id":3464975,"name":"Curitiba","nameKo":"쿠리치바","ascii":"Curitiba","lat":-25.42778,"lon":-49.27306,"population":1948626},{"id":3390760,"name":"Recife","nameKo":"헤시피","ascii":"Recife","lat":-8.05389,"lon":-34.88111,"population":1653461},{"id":3462377,"name":"Goiânia","nameKo":"고이아니아","ascii":"Goiania","lat":-16.67861,"lon":-49.25389,"population":1536097},{"id":3405870,"name":"Belém","nameKo":"벨렝","ascii":"Belem","lat":-1.45583,"lon":-48.50444,"population":1499641},{"id":3452925,"name":"Porto Alegre","nameKo":"포르투알레그리","ascii":"Porto Alegre","lat":-30.03283,"lon":-51.23019,"population":1488252},{"id":3461786,"name":"Guarulhos","ascii":"Guarulhos","lat":-23.46278,"lon":-46.53333,"population":1169577},{"id":3395981,"name":"Maceió","nameKo":"마세이오","ascii":"Maceio","lat":-9.66583,"lon":-35.73528,"population":1031597},{"id":3467865,"name":"Campinas","nameKo":"캄피나스","ascii":"Campinas","lat":-22.90556,"lon":-47.06083,"population":1031554},{"id":3388368,"name":"São Luís","nameKo":"상루이스","ascii":"Sao Luis","lat":-2.52972,"lon":-44.30278,"population":917237},{"id":3467747,"name":"Campo Grande","nameKo":"캄푸그란지","ascii":"Campo Grande","lat":-20.44278,"lon":-54.64639,"population":906092},{"id":3394023,"name":"Natal","ascii":"Natal","lat":-5.795,"lon":-35.20944,"population":896708},{"id":3386496,"name":"Teresina","nameKo":"테레지나","ascii":"Teresina","lat":-5.08917,"lon":-42.80194,"population":871126},{"id":3456160,"name":"Nova Iguaçu","nameKo":"노바이구아수","ascii":"Nova Iguacu","lat":-22.75917,"lon":-43.45111,"population":823302},{"id":3464374,"name":"Duque de Caxias","nameKo":"두키지카시아스","ascii":"Duque de Caxias","lat":-22.78556,"lon":-43.31167,"population":818329},{"id":3397277,"name":"João Pessoa","nameKo":"주앙페소아","ascii":"Joao Pessoa","lat":-7.115,"lon":-34.86306,"population":817511},{"id":3449344,"name":"São Bernardo do Campo","ascii":"Sao Bernardo do Campo","lat":-23.69389,"lon":-46.565,"population":743372},{"id":3448636,"name":"São José dos Campos","nameKo":"상조제두스캄푸스","ascii":"Sao Jose dos Campos","lat":-23.17944,"lon":-45.88694,"population":729737},{"id":3455775,"name":"Osasco","ascii":"Osasco","lat":-23.5325,"lon":-46.79167,"population":728615},{"id":3451328,"name":"Ribeirão Preto","nameKo":"히베이랑프레투","ascii":"Ribeirao Preto","lat":-21.1775,"lon":-47.81028,"population":711825},{"id":3397838,"name":"Jaboatão","ascii":"Jaboatao","lat":-8.18028,"lon":-35.00139,"population":702621},{"id":3447399,"name":"Sorocaba","nameKo":"소로카바","ascii":"Sorocaba","lat":-23.50167,"lon":-47.45806,"population":687357},{"id":3471872,"name":"Aracaju","nameKo":"아라카주","ascii":"Aracaju","lat":-10.91111,"lon":-37.07167,"population":664908},{"id":3449701,"name":"Santo André","ascii":"Santo Andre","lat":-23.66389,"lon":-46.53833,"population":662373},{"id":6317344,"name":"Jaboatão dos Guararapes","nameKo":"자보아탕두스구아라라페스","ascii":"Jaboatao dos Guararapes","lat":-8.11278,"lon":-35.01472,"population":644037},{"id":3465624,"name":"Contagem","nameKo":"콘타젱","ascii":"Contagem","lat":-19.93167,"lon":-44.05361,"population":627123},{"id":3463478,"name":"Feira de Santana","nameKo":"페이라지산타나","ascii":"Feira de Santana","lat":-12.26667,"lon":-38.96667,"population":619609},{"id":3465038,"name":"Cuiabá","nameKo":"쿠이아바","ascii":"Cuiaba","lat":-15.59611,"lon":-56.09667,"population":618124},{"id":3458449,"name":"Londrina","nameKo":"론드리나","ascii":"Londrina","lat":-23.31028,"lon":-51.16278,"population":588125},{"id":3459505,"name":"Juiz de Fora","nameKo":"주이스지포라","ascii":"Juiz de Fora","lat":-21.76417,"lon":-43.35028,"population":573285},{"id":3445831,"name":"Uberlândia","nameKo":"우베를란지아","ascii":"Uberlandia","lat":-18.91861,"lon":-48.27722,"population":563536},{"id":3662762,"name":"Porto Velho","nameKo":"포르투벨류","ascii":"Porto Velho","lat":-8.76194,"lon":-63.90389,"population":548952},{"id":3447779,"name":"Serra","ascii":"Serra","lat":-20.12861,"lon":-40.30778,"population":520653},{"id":3396016,"name":"Macapá","nameKo":"마카파","ascii":"Macapa","lat":0.03889,"lon":-51.06639,"population":512902},{"id":3467693,"name":"Campos dos Goytacazes","ascii":"Campos dos Goytacazes","lat":-21.75227,"lon":-41.33044,"population":511168},{"id":6316406,"name":"Aparecida de Goiânia","ascii":"Aparecida de Goiania","lat":-16.82333,"lon":-49.24389,"population":510770},{"id":3463237,"name":"Florianópolis","nameKo":"플로리아노폴리스","ascii":"Florianopolis","lat":-27.59667,"lon":-48.54917,"population":508826},{"id":3448639,"name":"São José do Rio Preto","ascii":"Sao Jose do Rio Preto","lat":-20.81972,"lon":-49.37944,"population":480393},{"id":3457381,"name":"Mauá","ascii":"Maua","lat":-23.66778,"lon":-46.46139,"population":477552},{"id":3448877,"name":"São João de Meriti","ascii":"Sao Joao de Meriti","lat":-22.80389,"lon":-43.37222,"population":466536},{"id":3470142,"name":"Belford Roxo","ascii":"Belford Roxo","lat":-22.76417,"lon":-43.39944,"population":466096},{"id":3459712,"name":"Joinville","nameKo":"조인빌리","ascii":"Joinville","lat":-26.30444,"lon":-48.84556,"population":461304},{"id":3456283,"name":"Niterói","ascii":"Niteroi","lat":-22.88333,"lon":-43.10361,"population":456456},{"id":3459462,"name":"Jundiaí","ascii":"Jundiai","lat":-23.18639,"lon":-46.88417,"population":443221},{"id":3407669,"name":"Ananindeua","nameKo":"아나닌데우아","ascii":"Ananindeua","lat":-1.36556,"lon":-48.37222,"population":433956},{"id":3449433,"name":"Santos","nameKo":"산투스","ascii":"Santos","lat":-23.96083,"lon":-46.33361,"population":433656},{"id":3664980,"name":"Boa Vista","ascii":"Boa Vista","lat":2.81972,"lon":-60.67333,"population":419652},{"id":3662574,"name":"Rio Branco","nameKo":"히우브랑쿠","ascii":"Rio Branco","lat":-9.97472,"lon":-67.81,"population":419452},{"id":3456814,"name":"Montes Claros","ascii":"Montes Claros","lat":-16.735,"lon":-43.86167,"population":414240},{"id":3453643,"name":"Piracicaba","ascii":"Piracicaba","lat":-22.72528,"lon":-47.64917,"population":407252},{"id":3402655,"name":"Caruaru","ascii":"Caruaru","lat":-8.28333,"lon":-35.97611,"population":402290},{"id":3445026,"name":"Vila Velha","nameKo":"빌라벨랴","ascii":"Vila Velha","lat":-20.32972,"lon":-40.2925,"population":394930},{"id":3464739,"name":"Diadema","ascii":"Diadema","lat":-23.68611,"lon":-46.62278,"population":393237},{"id":3466998,"name":"Carapicuíba","ascii":"Carapicuiba","lat":-23.52272,"lon":-46.835,"population":386984},{"id":3392242,"name":"Petrolina","ascii":"Petrolina","lat":-9.39861,"lon":-40.50083,"population":386791},{"id":11962371,"name":"Grajaú","ascii":"Grajau","lat":-23.76979,"lon":-46.67112,"population":384873},{"id":3470044,"name":"Betim","ascii":"Betim","lat":-19.96778,"lon":-44.19833,"population":384000},{"id":3466537,"name":"Caxias do Sul","nameKo":"카시아스두술","ascii":"Caxias do Sul","lat":-29.16806,"lon":-51.17944,"population":381270},{"id":3470279,"name":"Bauru","ascii":"Bauru","lat":-22.31472,"lon":-49.06056,"population":379297},{"id":3460644,"name":"Itaquaquecetuba","ascii":"Itaquaquecetuba","lat":-23.48611,"lon":-46.34833,"population":369275},{"id":3393536,"name":"Olinda","nameKo":"올린다","ascii":"Olinda","lat":-8.00889,"lon":-34.85528,"population":366754},{"id":3469968,"name":"Blumenau","nameKo":"블루메나우","ascii":"Blumenau","lat":-26.91944,"lon":-49.06611,"population":361855},{"id":3463011,"name":"Franca","ascii":"Franca","lat":-20.53861,"lon":-47.40083,"population":358539},{"id":3402429,"name":"Caucaia","ascii":"Caucaia","lat":-3.73611,"lon":-38.65306,"population":355679},{"id":3466954,"name":"Cariacica","ascii":"Cariacica","lat":-20.26389,"lon":-40.42,"population":353491},{"id":3452465,"name":"Praia Grande","ascii":"Praia Grande","lat":-24.00583,"lon":-46.40278,"population":349935},{"id":3403642,"name":"Campina Grande","nameKo":"캄피나그란지","ascii":"Campina Grande","lat":-7.23056,"lon":-35.88111,"population":348936},{"id":3392740,"name":"Paulista","ascii":"Paulista","lat":-7.94083,"lon":-34.87306,"population":342167},{"id":3445839,"name":"Uberaba","ascii":"Uberaba","lat":-19.74833,"lon":-47.93194,"population":337836},{"id":3448136,"name":"São Vicente","nameKo":"상비센치","ascii":"Sao Vicente","lat":-23.96306,"lon":-46.39194,"population":329911},{"id":3451353,"name":"Ribeirão das Neves","ascii":"Ribeirao das Neves","lat":-19.76694,"lon":-44.08667,"population":329794},{"id":3448632,"name":"São José dos Pinhais","ascii":"Sao Jose dos Pinhais","lat":-25.5302,"lon":-49.20836,"population":329628},{"id":3467467,"name":"Canoas","ascii":"Canoas","lat":-29.91778,"lon":-51.18361,"population":328291},{"id":3457001,"name":"Mogi das Cruzes","ascii":"Mogi das Cruzes","lat":-23.52278,"lon":-46.18833,"population":325746},{"id":3461789,"name":"Guarujá","ascii":"Guaruja","lat":-23.99306,"lon":-46.25639,"population":322750},{"id":3454244,"name":"Pelotas","nameKo":"펠로타스","ascii":"Pelotas","lat":-31.76997,"lon":-52.34101,"population":320674},{"id":3472287,"name":"Anápolis","ascii":"Anapolis","lat":-16.32667,"lon":-48.95278,"population":319587},{"id":3446682,"name":"Taubaté","ascii":"Taubate","lat":-23.02639,"lon":-45.55528,"population":317915},{"id":3470353,"name":"Barueri","ascii":"Barueri","lat":-23.51056,"lon":-46.87611,"population":316473},{"id":3445451,"name":"Várzea Grande","ascii":"Varzea Grande","lat":-15.64667,"lon":-56.1325,"population":314627},{"id":3444924,"name":"Vitória","ascii":"Vitoria","lat":-20.31944,"lon":-40.33778,"population":312656},{"id":3457671,"name":"Maringá","nameKo":"마링가","ascii":"Maringa","lat":-23.42528,"lon":-51.93861,"population":311724},{"id":11962408,"name":"Jardim Angela","ascii":"Jardim Angela","lat":-23.71636,"lon":-46.76872,"population":311432},{"id":3447212,"name":"Suzano","ascii":"Suzano","lat":-23.5425,"lon":-46.31083,"population":307429},{"id":3474574,"name":"Palmas","ascii":"Palmas","lat":-10.16745,"lon":-48.32766,"population":306296},{"id":3453186,"name":"Ponta Grossa","ascii":"Ponta Grossa","lat":-25.095,"lon":-50.16194,"population":292177},{"id":3458575,"name":"Limeira","ascii":"Limeira","lat":-22.56472,"lon":-47.40167,"population":291869},{"id":3466489,"name":"Ceilândia","ascii":"Ceilandia","lat":-15.8091,"lon":-48.13096,"population":287023},{"id":3447259,"name":"Sumaré","ascii":"Sumare","lat":-22.82194,"lon":-47.26694,"population":286211},{"id":3445156,"name":"Viamão","ascii":"Viamao","lat":-30.08111,"lon":-51.02333,"population":285269},{"id":3450083,"name":"Santa Maria","nameKo":"산타마리아","ascii":"Santa Maria","lat":-29.68417,"lon":-53.80694,"population":283677},{"id":3444876,"name":"Volta Redonda","ascii":"Volta Redonda","lat":-22.52306,"lon":-44.10417,"population":279898},{"id":3447186,"name":"Taboão da Serra","ascii":"Taboao da Serra","lat":-23.62611,"lon":-46.79167,"population":273542},{"id":3454031,"name":"Petrópolis","nameKo":"페트로폴리스","ascii":"Petropolis","lat":-22.505,"lon":-43.17861,"population":272691},{"id":11962376,"name":"Capao Redondo","ascii":"Capao Redondo","lat":-23.66877,"lon":-46.78051,"population":270767},{"id":3448744,"name":"São José","ascii":"Sao Jose","lat":-27.61528,"lon":-48.6275,"population":270299},{"id":6317872,"name":"Parauapebas","ascii":"Parauapebas","lat":-6.0675,"lon":-49.90222,"population":267836},{"id":3392998,"name":"Parnamirim","ascii":"Parnamirim","lat":-5.91556,"lon":-35.26278,"population":267036},{"id":6318632,"name":"Sapopemba","ascii":"Sapopemba","lat":-23.59556,"lon":-46.52472,"population":266715},{"id":3462089,"name":"Gravataí","ascii":"Gravatai","lat":-29.94218,"lon":-50.99278,"population":265074},{"id":3394682,"name":"Mossoró","ascii":"Mossoro","lat":-5.1875,"lon":-37.34417,"population":264577},{"id":11962429,"name":"Sacomã","ascii":"Sacoma","lat":-23.63083,"lon":-46.59817,"population":261436},{"id":11962427,"name":"Jardim Sao Luis","ascii":"Jardim Sao Luis","lat":-23.68073,"lon":-46.7394,"population":259377},{"id":3450909,"name":"Rondonópolis","ascii":"Rondonopolis","lat":-16.47083,"lon":-54.63556,"population":259167},{"id":3463030,"name":"Foz do Iguaçu","nameKo":"포스두이구아수","ascii":"Foz do Iguacu","lat":-25.54778,"lon":-54.58806,"population":258248},{"id":3466779,"name":"Cascavel","nameKo":"방울뱀","ascii":"Cascavel","lat":-24.95583,"lon":-53.45528,"population":257172},{"id":3461311,"name":"Indaiatuba","ascii":"Indaiatuba","lat":-23.08842,"lon":-47.2119,"population":256223},{"id":3456068,"name":"Novo Hamburgo","nameKo":"노부암부르구","ascii":"Novo Hamburgo","lat":-29.67833,"lon":-51.13056,"population":253841},{"id":3465284,"name":"Cotia","ascii":"Cotia","lat":-23.60389,"lon":-46.91917,"population":253608},{"id":3444914,"name":"Vitória da Conquista","ascii":"Vitoria da Conquista","lat":-14.86611,"lon":-40.83944,"population":253137},{"id":3462315,"name":"Governador Valadares","nameKo":"고베르나도르발라다레스","ascii":"Governador Valadares","lat":-18.85111,"lon":-41.94944,"population":250878},{"id":3464305,"name":"Embu das Artes","ascii":"Embu das Artes","lat":-23.64889,"lon":-46.85222,"population":250691},{"id":11962392,"name":"Cidade Ademar","ascii":"Cidade Ademar","lat":-23.67379,"lon":-46.65681,"population":249218},{"id":3472343,"name":"Americana","ascii":"Americana","lat":-22.73917,"lon":-47.33139,"population":246655},{"id":3465927,"name":"Colombo","nameKo":"콜롬부","ascii":"Colombo","lat":-25.29167,"lon":-49.22417,"population":246540},{"id":3388441,"name":"São José de Ribamar","ascii":"Sao Jose de Ribamar","lat":-2.55572,"lon":-44.05992,"population":244579},{"id":3458142,"name":"Magé","ascii":"Mage","lat":-22.65278,"lon":-43.04056,"population":244092},{"id":3407327,"name":"Arapiraca","ascii":"Arapiraca","lat":-9.7525,"lon":-36.66111,"population":243661},{"id":11962395,"name":"Brasilandia","ascii":"Brasilandia","lat":-23.44859,"lon":-46.68839,"population":243273},{"id":3460718,"name":"Itapevi","ascii":"Itapevi","lat":-23.54889,"lon":-46.93417,"population":240961},{"id":3457692,"name":"Marília","ascii":"Marilia","lat":-22.21389,"lon":-49.94583,"population":240590},{"id":3460950,"name":"Itaboraí","ascii":"Itaborai","lat":-22.74444,"lon":-42.85944,"population":240040},{"id":3468615,"name":"Cabo Frio","ascii":"Cabo Frio","lat":-22.88717,"lon":-42.02622,"population":238166},{"id":3397154,"name":"Juazeiro","ascii":"Juazeiro","lat":-9.41167,"lon":-40.49861,"population":237821},{"id":3467722,"name":"Campo Limpo","ascii":"Campo Limpo","lat":-23.63634,"lon":-46.76565,"population":236162},{"id":3395473,"name":"Maracanaú","ascii":"Maracanau","lat":-3.87667,"lon":-38.62556,"population":234509},{"id":3461655,"name":"Hortolândia","ascii":"Hortolandia","lat":-22.85833,"lon":-47.22,"population":234259},{"id":3464688,"name":"Divinópolis","ascii":"Divinopolis","lat":-20.14355,"lon":-44.89065,"population":231091},{"id":3461144,"name":"Ipatinga","ascii":"Ipatinga","lat":-19.46833,"lon":-42.53667,"population":228746},{"id":3447624,"name":"Sete Lagoas","ascii":"Sete Lagoas","lat":-19.46583,"lon":-44.24667,"population":227397},{"id":3451055,"name":"Rio Verde","ascii":"Rio Verde","lat":-17.79806,"lon":-50.92806,"population":225696},{"id":6316328,"name":"Águas Lindas de Goiás","ascii":"Aguas Lindas de Goias","lat":-15.76194,"lon":-48.28167,"population":225693},{"id":3452324,"name":"Presidente Prudente","ascii":"Presidente Prudente","lat":-22.12556,"lon":-51.38889,"population":225668},{"id":3397147,"name":"Juazeiro do Norte","ascii":"Juazeiro do Norte","lat":-7.21306,"lon":-39.31528,"population":225230},{"id":3450144,"name":"Santa Luzia","ascii":"Santa Luzia","lat":-19.76972,"lon":-43.85139,"population":219132},{"id":12432979,"name":"Samambaia","ascii":"Samambaia","lat":-15.88231,"lon":-48.10428,"population":218840},{"id":3398269,"name":"Imperatriz","ascii":"Imperatriz","lat":-5.52639,"lon":-47.49167,"population":218106},{"id":3404545,"name":"Cabo de Santo Agostinho","ascii":"Cabo de Santo Agostinho","lat":-8.28773,"lon":-35.02925,"population":216969},{"id":6318696,"name":"Sinop","ascii":"Sinop","lat":-11.86417,"lon":-55.5025,"population":216029},{"id":11962390,"name":"Jabaquara","ascii":"Jabaquara","lat":-23.65055,"lon":-46.64591,"population":214958},{"id":3460370,"name":"Jacareí","ascii":"Jacarei","lat":-23.30528,"lon":-45.96583,"population":213110},{"id":3457708,"name":"Maricá","ascii":"Marica","lat":-22.91944,"lon":-42.81861,"population":211986},{"id":3460103,"name":"Jaraguá","ascii":"Jaragua","lat":-23.44077,"lon":-46.73774,"population":211610},{"id":3460634,"name":"Itaquera","ascii":"Itaquera","lat":-23.53194,"lon":-46.44417,"population":210960},{"id":3448622,"name":"São Leopoldo","nameKo":"상레오폴두","ascii":"Sao Leopoldo","lat":-29.76028,"lon":-51.14722,"population":209229},{"id":3458329,"name":"Luziânia","ascii":"Luziania","lat":-16.2525,"lon":-47.95028,"population":209129},{"id":3460949,"name":"Itabuna","ascii":"Itabuna","lat":-14.78556,"lon":-39.28028,"population":205660},{"id":6317317,"name":"Itaim Paulista","ascii":"Itaim Paulista","lat":-23.50308,"lon":-46.38566,"population":205295},{"id":3449319,"name":"São Carlos","nameKo":"상카를루스","ascii":"Sao Carlos","lat":-22.0175,"lon":-47.89083,"population":205035},{"id":6317464,"name":"Lauro de Freitas","ascii":"Lauro de Freitas","lat":-12.89444,"lon":-38.32722,"population":203331},{"id":3387296,"name":"Sobral","ascii":"Sobral","lat":-3.68611,"lon":-40.34972,"population":203023},{"id":3451234,"name":"Rio Claro","ascii":"Rio Claro","lat":-22.41139,"lon":-47.56139,"population":201418},{"id":3448742,"name":"São José","ascii":"Sao Jose","lat":-28.21344,"lon":-49.16383,"population":200000},{"id":6318856,"name":"Valparaíso de Goiás","ascii":"Valparaiso de Goias","lat":-16.06583,"lon":-47.97861,"population":198861},{"id":13512576,"name":"Plano Piloto","ascii":"Plano Piloto","lat":-15.79411,"lon":-47.8825,"population":198697},{"id":6698121,"name":"Taguatinga","ascii":"Taguatinga","lat":-15.83326,"lon":-48.05506,"population":193367},{"id":3456223,"name":"Nossa Senhora do Socorro","ascii":"Nossa Senhora do Socorro","lat":-10.855,"lon":-37.12611,"population":192330},{"id":3402591,"name":"Castanhal","ascii":"Castanhal","lat":-1.29389,"lon":-47.92639,"population":192256},{"id":11962424,"name":"Cidade Tiradentes","ascii":"Cidade Tiradentes","lat":-23.58481,"lon":-46.40084,"population":192177},{"id":3456166,"name":"Nova Friburgo","ascii":"Nova Friburgo","lat":-22.28194,"lon":-42.53111,"population":191158},{"id":11184422,"name":"Planaltina","ascii":"Planaltina","lat":-15.61791,"lon":-47.64874,"population":189412},{"id":3389353,"name":"Santarém","nameKo":"산타렝","ascii":"Santarem","lat":-2.44306,"lon":-54.70833,"population":189047},{"id":3468031,"name":"Camaçari","ascii":"Camacari","lat":-12.6975,"lon":-38.32417,"population":188758},{"id":3450404,"name":"Santa Bárbara d'Oeste","ascii":"Santa Barbara d'Oeste","lat":-22.75361,"lon":-47.41361,"population":188000},{"id":3451138,"name":"Rio Grande","ascii":"Rio Grande","lat":-32.035,"lon":-52.09861,"population":187838},{"id":3454865,"name":"Alvorada","ascii":"Alvorada","lat":-30.00018,"lon":-51.07632,"population":187315},{"id":3468376,"name":"Cachoeiro de Itapemirim","ascii":"Cachoeiro de Itapemirim","lat":-20.84889,"lon":-41.11278,"population":187019},{"id":3460102,"name":"Jaraguá do Sul","ascii":"Jaragua do Sul","lat":-26.48611,"lon":-49.06667,"population":182660},{"id":11962375,"name":"Cidade Dutra","ascii":"Cidade Dutra","lat":-23.72576,"lon":-46.7024,"population":182459},{"id":3461879,"name":"Guarapuava","ascii":"Guarapuava","lat":-25.39048,"lon":-51.46541,"population":182093},{"id":7614932,"name":"Pirituba","ascii":"Pirituba","lat":-23.48982,"lon":-46.7322,"population":179724},{"id":3454857,"name":"Passo Fundo","ascii":"Passo Fundo","lat":-28.26278,"lon":-52.40667,"population":179529},{"id":3463422,"name":"Ferraz de Vasconcelos","ascii":"Ferraz de Vasconcelos","lat":-23.54083,"lon":-46.36861,"population":179198},{"id":3472177,"name":"Angra dos Reis","ascii":"Angra dos Reis","lat":-23.00667,"lon":-44.31806,"population":179120},{"id":3469092,"name":"Bragança Paulista","ascii":"Braganca Paulista","lat":-22.9527,"lon":-46.54418,"population":176811},{"id":3446606,"name":"Teresópolis","ascii":"Teresopolis","lat":-22.4167,"lon":-42.97822,"population":176692},{"id":3455478,"name":"Palhoça","ascii":"Palhoca","lat":-27.64528,"lon":-48.66778,"population":175272},{"id":3386361,"name":"Timon","ascii":"Timon","lat":-5.09417,"lon":-42.83667,"population":174465},{"id":3461563,"name":"Ibirité","ascii":"Ibirite","lat":-20.02194,"lon":-44.05889,"population":170537},{"id":3471859,"name":"Araçatuba","ascii":"Aracatuba","lat":-21.20889,"lon":-50.43278,"population":170024},{"id":11962431,"name":"Vila Andrade","ascii":"Vila Andrade","lat":-23.62623,"lon":-46.72828,"population":168669},{"id":3453303,"name":"Poços de Caldas","ascii":"Pocos de Caldas","lat":-21.78778,"lon":-46.56139,"population":168641},{"id":3471766,"name":"Araraquara","ascii":"Araraquara","lat":-21.79444,"lon":-48.17556,"population":168468},{"id":3452640,"name":"Porto Seguro","ascii":"Porto Seguro","lat":-16.44972,"lon":-39.06472,"population":168326},{"id":3451205,"name":"Rio das Ostras","ascii":"Rio das Ostras","lat":-22.52694,"lon":-41.945,"population":168099},{"id":3458498,"name":"Linhares","ascii":"Linhares","lat":-19.39111,"lon":-40.07222,"population":166786},{"id":3449324,"name":"São Caetano do Sul","ascii":"Sao Caetano do Sul","lat":-23.62306,"lon":-46.55111,"population":165655},{"id":3453837,"name":"Pindamonhangaba","ascii":"Pindamonhangaba","lat":-22.92389,"lon":-45.46167,"population":165428},{"id":3462980,"name":"Francisco Morato","ascii":"Francisco Morato","lat":-23.28167,"lon":-46.74528,"population":165139},{"id":3458930,"name":"Lages","ascii":"Lages","lat":-27.81611,"lon":-50.32611,"population":164676},{"id":11962389,"name":"Lajeado","ascii":"Lajeado","lat":-23.53361,"lon":-46.40866,"population":164391},{"id":3470636,"name":"Barra Mansa","ascii":"Barra Mansa","lat":-22.54417,"lon":-44.17139,"population":164052},{"id":11962405,"name":"Pedreira","ascii":"Pedreira","lat":-23.70675,"lon":-46.64982,"population":163586},{"id":3464460,"name":"Dourados","ascii":"Dourados","lat":-22.22111,"lon":-54.80556,"population":162202},{"id":3465196,"name":"Criciúma","ascii":"Criciuma","lat":-28.6775,"lon":-49.36972,"population":161954},{"id":3466296,"name":"Chapecó","ascii":"Chapeco","lat":-27.09639,"lon":-52.61833,"population":160157},{"id":3470583,"name":"Barreiras","ascii":"Barreiras","lat":-12.15278,"lon":-44.99,"population":159734},{"id":3454783,"name":"Patos de Minas","ascii":"Patos de Minas","lat":-18.57889,"lon":-46.51806,"population":159235},{"id":3460748,"name":"Itapecerica da Serra","ascii":"Itapecerica da Serra","lat":-23.71694,"lon":-46.84917,"population":158522},{"id":3408424,"name":"Abaetetuba","ascii":"Abaetetuba","lat":-1.71806,"lon":-48.8825,"population":158188},{"id":3460728,"name":"Itapetininga","ascii":"Itapetininga","lat":-23.59167,"lon":-48.05306,"population":157790},{"id":3402383,"name":"Caxias","ascii":"Caxias","lat":-4.85889,"lon":-43.35611,"population":156973},{"id":3403741,"name":"Camaragibe","ascii":"Camaragibe","lat":-8.02167,"lon":-34.98111,"population":155771},{"id":3460845,"name":"Itajaí","ascii":"Itajai","lat":-26.90778,"lon":-48.66194,"population":155716},{"id":6318546,"name":"São Mateus","ascii":"Sao Mateus","lat":-23.60583,"lon":-46.47889,"population":155682},{"id":3461408,"name":"Ilhéus","ascii":"Ilheus","lat":-14.79909,"lon":-39.03228,"population":155499},{"id":3449948,"name":"Santana de Parnaíba","ascii":"Santana de Parnaiba","lat":-23.44417,"lon":-46.91778,"population":154105},{"id":3454982,"name":"Parelheiros","ascii":"Parelheiros","lat":-23.8275,"lon":-46.72694,"population":153695},{"id":3457000,"name":"Mogi Guaçu","ascii":"Mogi Guacu","lat":-22.3677,"lon":-46.94552,"population":153658},{"id":3452525,"name":"Pouso Alegre","ascii":"Pouso Alegre","lat":-22.23,"lon":-45.93639,"population":152217},{"id":3471697,"name":"Araucária","ascii":"Araucaria","lat":-25.59306,"lon":-49.41028,"population":151666},{"id":3399058,"name":"Garanhuns","ascii":"Garanhuns","lat":-8.88202,"lon":-36.50216,"population":151064},{"id":3389321,"name":"Santa Rita","ascii":"Santa Rita","lat":-7.11389,"lon":-34.97806,"population":149910},{"id":11962378,"name":"Iguatemi","ascii":"Iguatemi","lat":-23.61277,"lon":-46.42667,"population":149700},{"id":3452073,"name":"Queimados","ascii":"Queimados","lat":-22.71611,"lon":-43.55528,"population":149093},{"id":6317123,"name":"Fazenda Rio Grande","ascii":"Fazenda Rio Grande","lat":-25.6575,"lon":-49.30806,"population":148873},{"id":11962430,"name":"Sao Rafael","ascii":"Sao Rafael","lat":-23.62821,"lon":-46.45395,"population":148145},{"id":3469136,"name":"Botucatu","ascii":"Botucatu","lat":-22.88583,"lon":-48.445,"population":148130},{"id":3456290,"name":"Nilópolis","ascii":"Nilopolis","lat":-22.8075,"lon":-43.41389,"population":147281},{"id":3395503,"name":"Marabá","nameKo":"마라바","ascii":"Maraba","lat":-5.38146,"lon":-49.13232,"population":145860},{"id":6317837,"name":"Paço do Lumiar","ascii":"Paco do Lumiar","lat":-2.53222,"lon":-44.1075,"population":145643},{"id":3462964,"name":"Franco da Rocha","ascii":"Franco da Rocha","lat":-23.32167,"lon":-46.72694,"population":144849},{"id":3471335,"name":"Atibaia","ascii":"Atibaia","lat":-23.11694,"lon":-46.55028,"population":144088},{"id":11962407,"name":"Cachoeirinha","ascii":"Cachoeirinha","lat":-23.45442,"lon":-46.66209,"population":143366},{"id":3458266,"name":"Macaé","ascii":"Macae","lat":-22.38484,"lon":-41.78324,"population":143029},{"id":3446038,"name":"Trindade","ascii":"Trindade","lat":-16.64944,"lon":-49.48889,"population":142431},{"id":3468879,"name":"Brusque","ascii":"Brusque","lat":-27.09795,"lon":-48.91281,"population":141385},{"id":11962398,"name":"Cangaiba","ascii":"Cangaiba","lat":-23.49696,"lon":-46.52045,"population":141172},{"id":3455070,"name":"Paranaguá","ascii":"Paranagua","lat":-25.51626,"lon":-48.52537,"population":141013},{"id":11962432,"name":"Vila Curuca","ascii":"Vila Curuca","lat":-23.51,"lon":-46.41566,"population":140673},{"id":3462672,"name":"Gama","ascii":"Gama","lat":-16.02511,"lon":-48.07121,"population":139467},{"id":3471039,"name":"Balneário Camboriú","ascii":"Balneario Camboriu","lat":-26.99056,"lon":-48.63472,"population":139155},{"id":11962379,"name":"Sao Lucas","ascii":"Sao Lucas","lat":-23.59468,"lon":-46.54359,"population":138038},{"id":3393001,"name":"Parnaíba","ascii":"Parnaiba","lat":-2.90472,"lon":-41.77667,"population":138008},{"id":3471715,"name":"Araruama","ascii":"Araruama","lat":-22.87278,"lon":-42.34306,"population":137773},{"id":3460535,"name":"Itu","nameKo":"이투","ascii":"Itu","lat":-23.26417,"lon":-47.29917,"population":137586},{"id":3456225,"name":"Freguesia do Ó","ascii":"Freguesia do O","lat":-23.49877,"lon":-46.69983,"population":137240},{"id":11962385,"name":"Cidade Lider","ascii":"Cidade Lider","lat":-23.56202,"lon":-46.4913,"population":136660},{"id":3445487,"name":"Varginha","ascii":"Varginha","lat":-21.55139,"lon":-45.43028,"population":136467},{"id":3467736,"name":"Campo Largo","ascii":"Campo Largo","lat":-25.45955,"lon":-49.53014,"population":136327},{"id":3468403,"name":"Cachoeirinha","ascii":"Cachoeirinha","lat":-29.95111,"lon":-51.09389,"population":136258},{"id":3471758,"name":"Araras","ascii":"Araras","lat":-22.35694,"lon":-47.38417,"population":135331},{"id":11962412,"name":"Vila Jacui","ascii":"Vila Jacui","lat":-23.50262,"lon":-46.46156,"population":134189},{"id":3403697,"name":"Cametá","ascii":"Cameta","lat":-2.24444,"lon":-49.49583,"population":134184},{"id":3384987,"name":"Vitória de Santo Antão","ascii":"Vitoria de Santo Antao","lat":-8.11806,"lon":-35.29139,"population":134084},{"id":3460005,"name":"Jaú","ascii":"Jau","lat":-22.29639,"lon":-48.55778,"population":133497},{"id":3450269,"name":"Santa Cruz do Sul","ascii":"Santa Cruz do Sul","lat":-29.7175,"lon":-52.42583,"population":133230},{"id":3448031,"name":"Sapucaia do Sul","ascii":"Sapucaia do Sul","lat":-29.81782,"lon":-51.14551,"population":132107},{"id":11962381,"name":"Rio Pequeno","ascii":"Rio Pequeno","lat":-23.57139,"lon":-46.75887,"population":131631},{"id":3397909,"name":"Itapipoca","ascii":"Itapipoca","lat":-3.49444,"lon":-39.57861,"population":131123},{"id":3401545,"name":"Crato","ascii":"Crato","lat":-7.23417,"lon":-39.40944,"population":131050},{"id":3471910,"name":"Apucarana","ascii":"Apucarana","lat":-23.55083,"lon":-51.46083,"population":130134},{"id":11962426,"name":"Jardim Helena","ascii":"Jardim Helena","lat":-23.4837,"lon":-46.41309,"population":129409},{"id":3450817,"name":"Sabará","ascii":"Sabara","lat":-19.88639,"lon":-43.80667,"population":129380},{"id":3445162,"name":"Vespasiano","ascii":"Vespasiano","lat":-19.69194,"lon":-43.92333,"population":129246},{"id":12432982,"name":"Águas Claras","ascii":"Aguas Claras","lat":-15.83969,"lon":-48.02675,"population":128486},{"id":12377091,"name":"Bosque Saúde","ascii":"Bosque Saude","lat":-23.60926,"lon":-46.62304,"population":128469},{"id":11962391,"name":"Jose Bonifacio","ascii":"Jose Bonifacio","lat":-23.56742,"lon":-46.43264,"population":128243},{"id":3444866,"name":"Votorantim","ascii":"Votorantim","lat":-23.54667,"lon":-47.43778,"population":127923},{"id":3459943,"name":"Jequié","ascii":"Jequie","lat":-13.85875,"lon":-40.08512,"population":127475},{"id":3445061,"name":"Vila Mariana","ascii":"Vila Mariana","lat":-23.58833,"lon":-46.63464,"population":127286},{"id":3447651,"name":"Sertãozinho","ascii":"Sertaozinho","lat":-21.13778,"lon":-47.99028,"population":126887},{"id":3406429,"name":"Barcarena","ascii":"Barcarena","lat":-1.50583,"lon":-48.62583,"population":126650},{"id":3445578,"name":"Valinhos","ascii":"Valinhos","lat":-22.97056,"lon":-46.99583,"population":126373},{"id":3407882,"name":"Altamira","ascii":"Altamira","lat":-3.20333,"lon":-52.20639,"population":126279},{"id":3470858,"name":"Barbacena","ascii":"Barbacena","lat":-21.22583,"lon":-43.77361,"population":125317},{"id":3461888,"name":"Guarapari","ascii":"Guarapari","lat":-20.67182,"lon":-40.50196,"population":124656},{"id":3925033,"name":"Ji Paraná","ascii":"Ji Parana","lat":-10.88528,"lon":-61.95167,"population":124333},{"id":3460899,"name":"Itaguaí","ascii":"Itaguai","lat":-22.85222,"lon":-43.77528,"population":123980},{"id":3448519,"name":"São Mateus","ascii":"Sao Mateus","lat":-18.72011,"lon":-39.85891,"population":123752},{"id":11962396,"name":"Butanta","ascii":"Butanta","lat":-23.5702,"lon":-46.72628,"population":123748},{"id":3445679,"name":"Uruguaiana","ascii":"Uruguaiana","lat":-29.75472,"lon":-57.08833,"population":123480},{"id":3467081,"name":"Caraguatatuba","ascii":"Caraguatatuba","lat":-23.62028,"lon":-45.41306,"population":123389},{"id":3397967,"name":"Itaituba","ascii":"Itaituba","lat":-4.27611,"lon":-55.98361,"population":123314},{"id":3470073,"name":"Bento Gonçalves","ascii":"Bento Goncalves","lat":-29.17139,"lon":-51.51917,"population":123151},{"id":3405006,"name":"Bragança","ascii":"Braganca","lat":-1.05361,"lon":-46.76556,"population":123082},{"id":3446692,"name":"Tatuí","ascii":"Tatui","lat":-23.35556,"lon":-47.85694,"population":122967},{"id":3472766,"name":"Alagoinhas","ascii":"Alagoinhas","lat":-12.13556,"lon":-38.41917,"population":122688},{"id":3460598,"name":"Itatiba","ascii":"Itatiba","lat":-23.00583,"lon":-46.83889,"population":122581},{"id":3470451,"name":"Barretos","ascii":"Barretos","lat":-20.55722,"lon":-48.56778,"population":122485},{"id":3398352,"name":"Igarassu","ascii":"Igarassu","lat":-7.83417,"lon":-34.90639,"population":122312},{"id":6318714,"name":"Sorriso","ascii":"Sorriso","lat":-12.54528,"lon":-55.71139,"population":120985},{"id":3461936,"name":"Guará","ascii":"Guara","lat":-15.80976,"lon":-47.97202,"population":120641},{"id":3472518,"name":"Almirante Tamandaré","ascii":"Almirante Tamandare","lat":-25.32472,"lon":-49.31,"population":119825},{"id":3450594,"name":"Salto","ascii":"Salto","lat":-23.20083,"lon":-47.28694,"population":119736},{"id":3446370,"name":"Toledo","ascii":"Toledo","lat":-24.71361,"lon":-53.74306,"population":119313},{"id":3471798,"name":"Arapongas","ascii":"Arapongas","lat":-23.41944,"lon":-51.42444,"population":119138},{"id":3453535,"name":"Piraquara","ascii":"Piraquara","lat":-25.44227,"lon":-49.06795,"population":118730},{"id":3447998,"name":"Sarandi","ascii":"Sarandi","lat":-23.44361,"lon":-51.87389,"population":118455},{"id":3447854,"name":"Senador Canedo","ascii":"Senador Canedo","lat":-16.70806,"lon":-49.09306,"population":118451},{"id":3460170,"name":"Jandira","ascii":"Jandira","lat":-23.5275,"lon":-46.9025,"population":118045},{"id":3461859,"name":"Guaratinguetá","ascii":"Guaratingueta","lat":-22.81639,"lon":-45.1925,"population":118044},{"id":3471830,"name":"Araguari","ascii":"Araguari","lat":-18.64722,"lon":-48.18722,"population":117808},{"id":11962419,"name":"Raposo Tavares","ascii":"Raposo Tavares","lat":-23.59245,"lon":-46.78561,"population":117738},{"id":12426999,"name":"Bairro da Penha","ascii":"Bairro da Penha","lat":-23.3684,"lon":-46.31102,"population":117691},{"id":3445782,"name":"Umuarama","ascii":"Umuarama","lat":-23.76639,"lon":-53.325,"population":117095},{"id":6317953,"name":"Pinhais","ascii":"Pinhais","lat":-25.44472,"lon":-49.1925,"population":117000},{"id":12432973,"name":"Santa Maria","ascii":"Santa Maria","lat":-16.03095,"lon":-48.02929,"population":116622},{"id":3461109,"name":"Ipiranga","ascii":"Ipiranga","lat":-23.59957,"lon":-46.61599,"population":116271},{"id":11962397,"name":"Campo Grande","ascii":"Campo Grande","lat":-23.67463,"lon":-46.68751,"population":115925},{"id":3463140,"name":"Formosa","nameKo":"포르모자","ascii":"Formosa","lat":-15.53722,"lon":-47.33444,"population":115901},{"id":3388713,"name":"São Gonçalo do Amarante","ascii":"Sao Goncalo do Amarante","lat":-5.79333,"lon":-35.32944,"population":115838},{"id":3466692,"name":"Catanduva","ascii":"Catanduva","lat":-21.13778,"lon":-48.97278,"population":115791},{"id":3445446,"name":"Várzea Paulista","ascii":"Varzea Paulista","lat":-23.21139,"lon":-46.82833,"population":115771},{"id":8535094,"name":"Santana","ascii":"Santana","lat":-23.49032,"lon":-46.6387,"population":115689},{"id":3451329,"name":"Ribeirão Pires","ascii":"Ribeirao Pires","lat":-23.71056,"lon":-46.41333,"population":115559},{"id":13450916,"name":"Recanto das Emas","ascii":"Recanto das Emas","lat":-15.90864,"lon":-48.06447,"population":115550},{"id":11962414,"name":"Vila Medeiros","ascii":"Vila Medeiros","lat":-23.48874,"lon":-46.57762,"population":114839},{"id":6318694,"name":"Simões Filho","ascii":"Simoes Filho","lat":-12.78444,"lon":-38.40389,"population":114559},{"id":3466696,"name":"Catalão","ascii":"Catalao","lat":-18.16583,"lon":-47.94639,"population":114427},{"id":3402000,"name":"Codó","ascii":"Codo","lat":-4.45528,"lon":-43.88556,"population":114275},{"id":3463690,"name":"Eunápolis","ascii":"Eunapolis","lat":-16.3775,"lon":-39.58028,"population":113710},{"id":3460960,"name":"Itabira","ascii":"Itabira","lat":-19.61917,"lon":-43.22694,"population":113343},{"id":3392734,"name":"Paulo Afonso","ascii":"Paulo Afonso","lat":-9.40611,"lon":-38.21472,"population":112870},{"id":6318738,"name":"Tangará da Serra","ascii":"Tangara da Serra","lat":-14.61944,"lon":-57.48583,"population":112547},{"id":3397893,"name":"Itacoatiara","ascii":"Itacoatiara","lat":-3.14306,"lon":-58.44417,"population":112520},{"id":3465059,"name":"Cubatão","nameKo":"쿠바타오","ascii":"Cubatao","lat":-23.895,"lon":-46.42528,"population":112476},{"id":6317077,"name":"Ermelino Matarazzo","ascii":"Ermelino Matarazzo","lat":-23.49472,"lon":-46.47389,"population":112333},{"id":3454690,"name":"Paulínia","ascii":"Paulinia","lat":-22.76111,"lon":-47.15417,"population":112003},{"id":3454847,"name":"Passos","ascii":"Passos","lat":-20.71889,"lon":-46.60972,"population":111939},{"id":6317548,"name":"Marituba","ascii":"Marituba","lat":-1.35528,"lon":-48.34194,"population":111785},{"id":3456147,"name":"Nova Lima","ascii":"Nova Lima","lat":-19.98556,"lon":-43.84667,"population":111697},{"id":3471691,"name":"Araxá","ascii":"Araxa","lat":-19.59333,"lon":-46.94056,"population":111691},{"id":3465644,"name":"Conselheiro Lafaiete","ascii":"Conselheiro Lafaiete","lat":-20.66028,"lon":-43.78611,"population":111596},{"id":3451668,"name":"Resende","nameKo":"헤젠지","ascii":"Resende","lat":-22.46889,"lon":-44.44667,"population":111514},{"id":3388376,"name":"São Lourenço da Mata","ascii":"Sao Lourenco da Mata","lat":-8.00222,"lon":-35.01833,"population":111249},{"id":3663529,"name":"Manacapuru","ascii":"Manacapuru","lat":-3.29972,"lon":-60.62056,"population":110691},{"id":3448351,"name":"São Pedro da Aldeia","ascii":"Sao Pedro da Aldeia","lat":-22.83917,"lon":-42.10278,"population":110556},{"id":3445993,"name":"Tubarão","ascii":"Tubarao","lat":-28.46667,"lon":-49.00694,"population":110088},{"id":3462011,"name":"Guaianases","ascii":"Guaianases","lat":-23.54333,"lon":-46.41083,"population":109316},{"id":3445062,"name":"Vila Maria","ascii":"Vila Maria","lat":-23.51408,"lon":-46.58625,"population":108543},{"id":11427402,"name":"Luis Eduardo Magalhães","ascii":"Luis Eduardo Magalhaes","lat":-12.09086,"lon":-45.78501,"population":107909},{"id":3391360,"name":"Santana","ascii":"Santana","lat":-0.03816,"lon":-51.17476,"population":107618},{"id":3460733,"name":"Itaperuna","ascii":"Itaperuna","lat":-21.205,"lon":-41.88778,"population":107246},{"id":3467978,"name":"Cambé","ascii":"Cambe","lat":-23.27583,"lon":-51.27833,"population":107208},{"id":3404817,"name":"Breves","ascii":"Breves","lat":-1.68222,"lon":-50.48028,"population":106968},{"id":6316298,"name":"Açailândia","ascii":"Acailandia","lat":-4.94667,"lon":-47.50472,"population":106550},{"id":3460064,"name":"Jataí","ascii":"Jatai","lat":-17.87939,"lon":-51.72166,"population":105729},{"id":3398115,"name":"Ipojuca","ascii":"Ipojuca","lat":-8.39889,"lon":-35.06389,"population":105638},{"id":11962403,"name":"Vila Prudente","ascii":"Vila Prudente","lat":-23.59255,"lon":-46.57278,"population":105590},{"id":3456117,"name":"Nova Serrana","ascii":"Nova Serrana","lat":-19.87611,"lon":-44.98361,"population":105552},{"id":3393106,"name":"Paragominas","ascii":"Paragominas","lat":-2.99565,"lon":-47.35488,"population":105550},{"id":12432977,"name":"Riacho Fundo II","ascii":"Riacho Fundo II","lat":-15.8981,"lon":-48.04671,"population":105210},{"id":3395449,"name":"Maranguape","ascii":"Maranguape","lat":-3.89083,"lon":-38.68556,"population":105093},{"id":3471374,"name":"Assis","ascii":"Assis","lat":-22.66167,"lon":-50.41222,"population":105087},{"id":3453420,"name":"Planaltina","ascii":"Planaltina","lat":-15.45278,"lon":-47.61417,"population":105031},{"id":3407357,"name":"Araguaína","ascii":"Araguaina","lat":-7.19111,"lon":-48.20722,"population":105019},{"id":11962373,"name":"Artur Alvim","ascii":"Artur Alvim","lat":-23.54015,"lon":-46.48581,"population":104864},{"id":3458696,"name":"Lavras","ascii":"Lavras","lat":-21.24528,"lon":-44.99972,"population":104761},{"id":3465476,"name":"Coronel Fabriciano","ascii":"Coronel Fabriciano","lat":-19.51861,"lon":-42.62889,"population":104736},{"id":3456500,"name":"Muriaé","ascii":"Muriae","lat":-21.13056,"lon":-42.36639,"population":104108},{"id":3455729,"name":"Ourinhos","ascii":"Ourinhos","lat":-22.97889,"lon":-49.87056,"population":103970},{"id":3408404,"name":"Abreu e Lima","ascii":"Abreu e Lima","lat":-7.91167,"lon":-34.90278,"population":103945},{"id":6317781,"name":"Novo Gama","ascii":"Novo Gama","lat":-16.05917,"lon":-48.03944,"population":103804},{"id":3453406,"name":"Poá","ascii":"Poa","lat":-23.52806,"lon":-46.34472,"population":103765},{"id":3406910,"name":"Bacabal","ascii":"Bacabal","lat":-4.23246,"lon":-44.78164,"population":103711},{"id":11962406,"name":"Mandaqui","ascii":"Mandaqui","lat":-23.45947,"lon":-46.64086,"population":103665},{"id":11962413,"name":"Vila Matilde","ascii":"Vila Matilde","lat":-23.53936,"lon":-46.51788,"population":103558},{"id":3460974,"name":"Itabaiana","ascii":"Itabaiana","lat":-10.685,"lon":-37.42528,"population":103440},{"id":3445859,"name":"Ubá","ascii":"Uba","lat":-21.12,"lon":-42.94278,"population":103365},{"id":11962401,"name":"Cursino","ascii":"Cursino","lat":-23.63143,"lon":-46.62072,"population":103171},{"id":3460791,"name":"Itanhaém","ascii":"Itanhaem","lat":-24.18306,"lon":-46.78889,"population":103102},{"id":3449521,"name":"Santo Antônio de Jesus","ascii":"Santo Antonio de Jesus","lat":-12.96889,"lon":-39.26139,"population":103055},{"id":3468215,"name":"Caieiras","ascii":"Caieiras","lat":-23.36417,"lon":-46.74056,"population":102775},{"id":11962417,"name":"Perdizes","ascii":"Perdizes","lat":-23.53872,"lon":-46.68093,"population":102391},{"id":3469989,"name":"Birigui","ascii":"Birigui","lat":-21.28861,"lon":-50.34,"population":102277},{"id":3460523,"name":"Ituiutaba","ascii":"Ituiutaba","lat":-18.97428,"lon":-49.46212,"population":102217},{"id":3460132,"name":"Japeri","ascii":"Japeri","lat":-22.64306,"lon":-43.65333,"population":102149},{"id":3393008,"name":"Parintins","ascii":"Parintins","lat":-2.62833,"lon":-56.73583,"population":101956},{"id":3458131,"name":"Mairiporã","ascii":"Mairipora","lat":-23.31861,"lon":-46.58667,"population":101937},{"id":8603563,"name":"Pôr do Sol","ascii":"Por do Sol","lat":-15.85502,"lon":-48.12433,"population":101866},{"id":3406545,"name":"Balsas","ascii":"Balsas","lat":-7.5325,"lon":-46.03556,"population":101767},{"id":3459342,"name":"Lagarto","ascii":"Lagarto","lat":-10.91722,"lon":-37.65,"population":101579},{"id":10173001,"name":"Itaim Bibi","ascii":"Itaim Bibi","lat":-23.58581,"lon":-46.68241,"population":101452},{"id":3465944,"name":"Colatina","ascii":"Colatina","lat":-19.53944,"lon":-40.63056,"population":101190},{"id":3446621,"name":"Teófilo Otoni","ascii":"Teofilo Otoni","lat":-17.8575,"lon":-41.50528,"population":101170},{"id":3445968,"name":"Tucuruvi","ascii":"Tucuruvi","lat":-23.47544,"lon":-46.60609,"population":99559},{"id":3467717,"name":"Campo Mourão","ascii":"Campo Mourao","lat":-24.04309,"lon":-52.37929,"population":99432},{"id":3471196,"name":"Bagé","ascii":"Bage","lat":-31.33139,"lon":-54.10694,"population":98940},{"id":3468100,"name":"Caldas Novas","ascii":"Caldas Novas","lat":-17.74431,"lon":-48.62789,"population":98622},{"id":13450915,"name":"São Sebastião","ascii":"Sao Sebastiao","lat":-15.90287,"lon":-47.77613,"population":98612},{"id":7292560,"name":"Tatuapé","ascii":"Tatuape","lat":-23.53729,"lon":-46.5666,"population":98601},{"id":3470691,"name":"Barra do Piraí","ascii":"Barra do Pirai","lat":-22.47,"lon":-43.82556,"population":98501},{"id":3389652,"name":"Santa Cruz do Capibaribe","ascii":"Santa Cruz do Capibaribe","lat":-7.9575,"lon":-36.20472,"population":98254},{"id":3458662,"name":"Leme","ascii":"Leme","lat":-22.18556,"lon":-47.39028,"population":98161},{"id":3398331,"name":"Iguatu","ascii":"Iguatu","lat":-6.35944,"lon":-39.29861,"population":98064},{"id":3460584,"name":"Itaúna","ascii":"Itauna","lat":-20.07528,"lon":-44.57639,"population":97669},{"id":3390288,"name":"Rio Largo","ascii":"Rio Largo","lat":-9.47833,"lon":-35.85333,"population":97435},{"id":3455161,"name":"Pará de Minas","ascii":"Para de Minas","lat":-19.86028,"lon":-44.60833,"population":97139},{"id":10226875,"name":"Vicente Pires","ascii":"Vicente Pires","lat":-15.81009,"lon":-48.03077,"population":96871},{"id":3665199,"name":"Ariquemes","ascii":"Ariquemes","lat":-9.91333,"lon":-63.04083,"population":96833},{"id":3462996,"name":"Francisco Beltrão","ascii":"Francisco Beltrao","lat":-26.08111,"lon":-53.055,"population":96666},{"id":3465342,"name":"Corumbá","nameKo":"코룸바","ascii":"Corumba","lat":-19.00917,"lon":-57.65333,"population":96520},{"id":3468562,"name":"Caçapava","ascii":"Cacapava","lat":-23.10083,"lon":-45.70694,"population":96202},{"id":3471291,"name":"Avaré","ascii":"Avare","lat":-23.09861,"lon":-48.92583,"population":96098},{"id":3464073,"name":"Erechim","ascii":"Erechim","lat":-27.63461,"lon":-52.2754,"population":96087},{"id":3924679,"name":"Vilhena","ascii":"Vilhena","lat":-12.74056,"lon":-60.14583,"population":95832},{"id":3449310,"name":"São Cristóvão","nameKo":"상크리스토방","ascii":"Sao Cristovao","lat":-11.01472,"lon":-37.20639,"population":95612},{"id":3448011,"name":"Saquarema","ascii":"Saquarema","lat":-22.89889,"lon":-42.46985,"population":95201},{"id":3471848,"name":"Aracruz","ascii":"Aracruz","lat":-19.82028,"lon":-40.27333,"population":94765},{"id":11962387,"name":"Jaçanã","ascii":"Jacana","lat":-23.46013,"lon":-46.5749,"population":94609},{"id":3455168,"name":"Paracatu","ascii":"Paracatu","lat":-17.22222,"lon":-46.87472,"population":94023},{"id":3459035,"name":"Lajeado","ascii":"Lajeado","lat":-29.46694,"lon":-51.96139,"population":93646},{"id":3460834,"name":"Itajubá","ascii":"Itajuba","lat":-22.42556,"lon":-45.45278,"population":93073},{"id":3473964,"name":"Guaíba","ascii":"Guaiba","lat":-30.11389,"lon":-51.325,"population":92924},{"id":3468158,"name":"Cajamar","ascii":"Cajamar","lat":-23.35611,"lon":-46.87694,"population":92689},{"id":3392887,"name":"Patos","ascii":"Patos","lat":-7.02444,"lon":-37.28,"population":92575},{"id":3448902,"name":"São João da Boa Vista","ascii":"Sao Joao da Boa Vista","lat":-21.96917,"lon":-46.79806,"population":92547},{"id":3462986,"name":"Lucas do Rio Verde","ascii":"Lucas do Rio Verde","lat":-13.07127,"lon":-55.91479,"population":92256},{"id":11962410,"name":"Vila Formosa","ascii":"Vila Formosa","lat":-23.56786,"lon":-46.54599,"population":92186},{"id":3453150,"name":"Ponta Porã","ascii":"Ponta Pora","lat":-22.53611,"lon":-55.72556,"population":92017},{"id":3455051,"name":"Paranavaí","ascii":"Paranavai","lat":-23.07306,"lon":-52.46528,"population":92001},{"id":3664464,"name":"Cruzeiro do Sul","ascii":"Cruzeiro do Sul","lat":-7.62759,"lon":-72.67756,"population":91888},{"id":3398691,"name":"Gravatá","ascii":"Gravata","lat":-8.20111,"lon":-35.56472,"population":91887},{"id":3457952,"name":"Manhuaçu","ascii":"Manhuacu","lat":-20.25806,"lon":-42.03361,"population":91886},{"id":3454818,"name":"Pato Branco","ascii":"Pato Branco","lat":-26.22861,"lon":-52.67056,"population":91836},{"id":3445847,"name":"Ubatuba","ascii":"Ubatuba","lat":-23.43389,"lon":-45.07111,"population":91824},{"id":12991858,"name":"Cidade Ocidental","ascii":"Cidade Ocidental","lat":-16.10971,"lon":-47.93261,"population":91767},{"id":3468551,"name":"Cáceres","ascii":"Caceres","lat":-16.07056,"lon":-57.67889,"population":91626},{"id":3385935,"name":"Tucuruí","ascii":"Tucurui","lat":-3.76585,"lon":-49.67923,"population":91306},{"id":3471393,"name":"Arujá","ascii":"Aruja","lat":-23.39611,"lon":-46.32083,"population":91157},{"id":3407243,"name":"Araripina","ascii":"Araripina","lat":-7.57611,"lon":-40.49833,"population":90104},{"id":11962418,"name":"Ponte Rasa","ascii":"Ponte Rasa","lat":-23.51567,"lon":-46.49373,"population":89881},{"id":3454763,"name":"Patrocínio","ascii":"Patrocinio","lat":-18.94389,"lon":-46.9925,"population":89826},{"id":3460723,"name":"Itapeva","ascii":"Itapeva","lat":-23.98222,"lon":-48.87556,"population":89728},{"id":11962386,"name":"Aricanduva","ascii":"Aricanduva","lat":-23.57381,"lon":-46.51561,"population":89574},{"id":3461724,"name":"Gurupi","ascii":"Gurupi","lat":-11.72917,"lon":-49.06861,"population":89574},{"id":11962420,"name":"Sao Domingos","ascii":"Sao Domingos","lat":-23.49337,"lon":-46.74761,"population":88884},{"id":3454054,"name":"Perus","ascii":"Perus","lat":-23.40472,"lon":-46.75472,"population":87823},{"id":3461973,"name":"Guanambi","ascii":"Guanambi","lat":-14.22333,"lon":-42.78139,"population":87817},{"id":3466988,"name":"Caratinga","ascii":"Caratinga","lat":-19.78972,"lon":-42.13917,"population":87360},{"id":3387786,"name":"Serra Talhada","ascii":"Serra Talhada","lat":-7.99194,"lon":-38.29833,"population":86915},{"id":3925212,"name":"Cacoal","ascii":"Cacoal","lat":-11.43861,"lon":-61.44722,"population":86887},{"id":3406317,"name":"Barra do Corda","ascii":"Barra do Corda","lat":-5.50556,"lon":-45.24333,"population":86662},{"id":3445764,"name":"Unaí","ascii":"Unai","lat":-16.3575,"lon":-46.90611,"population":86619},{"id":3456370,"name":"Navegantes","ascii":"Navegantes","lat":-26.89889,"lon":-48.65417,"population":86401},{"id":11962383,"name":"Agua Rasa","ascii":"Agua Rasa","lat":-23.56684,"lon":-46.57188,"population":85788},{"id":3445597,"name":"Valença","ascii":"Valenca","lat":-13.37028,"lon":-39.07306,"population":85655},{"id":3464008,"name":"Esmeraldas","ascii":"Esmeraldas","lat":-19.7625,"lon":-44.31389,"population":85598},{"id":6318107,"name":"Redenção","ascii":"Redencao","lat":-8.02861,"lon":-50.03139,"population":85597},{"id":3449715,"name":"Santo Amaro","ascii":"Santo Amaro","lat":-23.64542,"lon":-46.70394,"population":85349},{"id":3398904,"name":"Goiana","ascii":"Goiana","lat":-7.56056,"lon":-35.0025,"population":85160},{"id":3467968,"name":"Camboriú","ascii":"Camboriu","lat":-27.02528,"lon":-48.65444,"population":85105},{"id":3389609,"name":"Santa Inês","ascii":"Santa Ines","lat":-3.66667,"lon":-45.38,"population":85014},{"id":3458425,"name":"Lorena","ascii":"Lorena","lat":-22.73083,"lon":-45.12472,"population":84855},{"id":3461444,"name":"Ijuí","ascii":"Ijui","lat":-28.38778,"lon":-53.91472,"population":84780},{"id":3447785,"name":"Seropédica","ascii":"Seropedica","lat":-22.74389,"lon":-43.7075,"population":84737},{"id":3392054,"name":"Pinheiro","ascii":"Pinheiro","lat":-2.52139,"lon":-45.0825,"population":84621},{"id":3449936,"name":"Sant'Ana do Livramento","ascii":"Sant'Ana do Livramento","lat":-30.89083,"lon":-55.53278,"population":84421},{"id":11962382,"name":"Carrao","ascii":"Carrao","lat":-23.55108,"lon":-46.53829,"population":84397},{"id":3390907,"name":"Quixadá","ascii":"Quixada","lat":-4.97139,"lon":-39.01528,"population":84168},{"id":3394661,"name":"Moju","ascii":"Moju","lat":-1.88389,"lon":-48.76889,"population":84094},{"id":3466174,"name":"Cianorte","ascii":"Cianorte","lat":-23.66333,"lon":-52.605,"population":83816},{"id":7615262,"name":"Jardim Paulista","ascii":"Jardim Paulista","lat":-23.56675,"lon":-46.66439,"population":83667},{"id":3405812,"name":"Belo Jardim","ascii":"Belo Jardim","lat":-8.33556,"lon":-36.42417,"population":83647},{"id":3449350,"name":"São Bento do Sul","ascii":"Sao Bento do Sul","lat":-26.25028,"lon":-49.37861,"population":83277},{"id":3402721,"name":"Carpina","ascii":"Carpina","lat":-7.85083,"lon":-35.25472,"population":83205},{"id":3392167,"name":"Picos","nameKo":"피쿠스","ascii":"Picos","lat":-7.07694,"lon":-41.46694,"population":83090},{"id":12432965,"name":"Sobradinho II","ascii":"Sobradinho II","lat":-15.63361,"lon":-47.83478,"population":82785},{"id":3405940,"name":"Bayeux","ascii":"Bayeux","lat":-7.125,"lon":-34.93222,"population":82742},{"id":3460344,"name":"Jacobina","ascii":"Jacobina","lat":-11.18143,"lon":-40.51372,"population":82590},{"id":7614952,"name":"Limão","ascii":"Limao","lat":-23.49283,"lon":-46.66916,"population":82373},{"id":3446065,"name":"Três Rios","ascii":"Tres Rios","lat":-22.11667,"lon":-43.20917,"population":82300},{"id":3396048,"name":"Macaíba","ascii":"Macaiba","lat":-5.85833,"lon":-35.35389,"population":82249},{"id":3390901,"name":"Quixeramobim","ascii":"Quixeramobim","lat":-5.19917,"lon":-39.29278,"population":82177},{"id":3407216,"name":"Arcoverde","ascii":"Arcoverde","lat":-8.41889,"lon":-37.05389,"population":82003},{"id":10227137,"name":"Moema","ascii":"Moema","lat":-23.59521,"lon":-46.66449,"population":81899},{"id":3465721,"name":"Concórdia","ascii":"Concordia","lat":-27.23417,"lon":-52.02778,"population":81646},{"id":3448257,"name":"São Sebastião","ascii":"Sao Sebastiao","lat":-23.76,"lon":-45.40972,"population":81595},{"id":3446445,"name":"Timóteo","ascii":"Timoteo","lat":-19.58106,"lon":-42.64953,"population":81579},{"id":3393400,"name":"Pacatuba","ascii":"Pacatuba","lat":-3.98417,"lon":-38.62028,"population":81524},{"id":3386449,"name":"Tianguá","ascii":"Tiangua","lat":-3.73222,"lon":-40.99167,"population":81506},{"id":3402229,"name":"Chapadinha","ascii":"Chapadinha","lat":-3.74167,"lon":-43.36028,"population":81386},{"id":3448452,"name":"São Miguel","ascii":"Sao Miguel","lat":-23.49417,"lon":-46.43222,"population":81011},{"id":11962415,"name":"Santa Cecilia","ascii":"Santa Cecilia","lat":-23.5318,"lon":-46.65288,"population":80972},{"id":11962402,"name":"Mooca","ascii":"Mooca","lat":-23.56135,"lon":-46.59641,"population":80880},{"id":3464891,"name":"Curvelo","ascii":"Curvelo","lat":-18.75639,"lon":-44.43083,"population":80665},{"id":11962377,"name":"Casa Verde","ascii":"Casa Verde","lat":-23.50099,"lon":-46.65744,"population":80536},{"id":3472898,"name":"Água Rasa","ascii":"Agua Rasa","lat":-20.43333,"lon":-45.16667,"population":80484},{"id":3447690,"name":"Serrinha","ascii":"Serrinha","lat":-11.66417,"lon":-39.0075,"population":80435},{"id":3459796,"name":"João Monlevade","ascii":"Joao Monlevade","lat":-19.81,"lon":-43.17361,"population":80187},{"id":3445014,"name":"Vinhedo","ascii":"Vinhedo","lat":-23.02972,"lon":-46.97528,"population":80111},{"id":3468436,"name":"Cachoeira do Sul","ascii":"Cachoeira do Sul","lat":-30.03917,"lon":-52.89389,"population":80070},{"id":3460522,"name":"Itumbiara","ascii":"Itumbiara","lat":-18.41917,"lon":-49.21528,"population":79582},{"id":3448300,"name":"São Roque","ascii":"Sao Roque","lat":-23.52917,"lon":-47.13528,"population":79484},{"id":3661944,"name":"Tefé","ascii":"Tefe","lat":-3.36841,"lon":-64.72054,"population":79278},{"id":3402360,"name":"Ceará-Mirim","ascii":"Ceara-Mirim","lat":-5.63444,"lon":-35.42556,"population":79115},{"id":3457509,"name":"Matão","ascii":"Matao","lat":-21.60333,"lon":-48.36583,"population":79033},{"id":3472603,"name":"Alfenas","ascii":"Alfenas","lat":-21.42917,"lon":-45.94722,"population":78970},{"id":3446098,"name":"Três Lagoas","ascii":"Tres Lagoas","lat":-20.78765,"lon":-51.70338,"population":78712},{"id":3448879,"name":"São João del Rei","nameKo":"상조앙지우레이","ascii":"Sao Joao del Rei","lat":-21.13556,"lon":-44.26167,"population":78592},{"id":3458494,"name":"Lins","nameKo":"링스","ascii":"Lins","lat":-21.67861,"lon":-49.7425,"population":78503},{"id":3456998,"name":"Mogi Mirim","ascii":"Mogi Mirim","lat":-22.43194,"lon":-46.95778,"population":78244},{"id":12432956,"name":"Jardim Botânico","ascii":"Jardim Botanico","lat":-15.86527,"lon":-47.81477,"population":77767},{"id":3467723,"name":"Campo Limpo Paulista","ascii":"Campo Limpo Paulista","lat":-23.20554,"lon":-46.7838,"population":77632},{"id":6316757,"name":"Canaã dos Carajás","ascii":"Canaa dos Carajas","lat":-6.52392,"lon":-49.85167,"population":77079},{"id":3449822,"name":"Santa Rosa","ascii":"Santa Rosa","lat":-27.87083,"lon":-54.48139,"population":76963},{"id":3449696,"name":"Santo Ângelo","ascii":"Santo Angelo","lat":-28.29917,"lon":-54.26306,"population":76917},{"id":3470003,"name":"Biguaçu","ascii":"Biguacu","lat":-27.49417,"lon":-48.65556,"population":76773},{"id":3445133,"name":"Viçosa","nameKo":"비소자","ascii":"Vicosa","lat":-20.75389,"lon":-42.88194,"population":76430},{"id":3401548,"name":"Crateús","ascii":"Crateus","lat":-5.17775,"lon":-40.66949,"population":76390},{"id":3470264,"name":"Bebedouro","ascii":"Bebedouro","lat":-20.94944,"lon":-48.47917,"population":76373},{"id":3463859,"name":"Esteio","ascii":"Esteio","lat":-29.86139,"lon":-51.17917,"population":76137},{"id":3460740,"name":"Itapema","ascii":"Itapema","lat":-27.09028,"lon":-48.61139,"population":75940},{"id":3448063,"name":"Sapiranga","ascii":"Sapiranga","lat":-29.63806,"lon":-51.00694,"population":75648},{"id":3461528,"name":"Ibiúna","ascii":"Ibiuna","lat":-23.65639,"lon":-47.2225,"population":75605},{"id":3458825,"name":"Lapa","ascii":"Lapa","lat":-23.52355,"lon":-46.70726,"population":75533},{"id":3446138,"name":"Três Corações","ascii":"Tres Coracoes","lat":-21.69694,"lon":-45.25333,"population":75485},{"id":11962374,"name":"Anhanguera","ascii":"Anhanguera","lat":-23.43088,"lon":-46.79295,"population":75360},{"id":3459138,"name":"Lagoa Santa","ascii":"Lagoa Santa","lat":-19.63006,"lon":-43.9009,"population":75145},{"id":3446652,"name":"Telêmaco Borba","ascii":"Telemaco Borba","lat":-24.32389,"lon":-50.61556,"population":75042},{"id":3406442,"name":"Barbalha","ascii":"Barbalha","lat":-7.31111,"lon":-39.30417,"population":75033},{"id":3465090,"name":"Cruzeiro","ascii":"Cruzeiro","lat":-22.57316,"lon":-44.97108,"population":74961},{"id":3455671,"name":"Ouro Preto","nameKo":"오루프레투","ascii":"Ouro Preto","lat":-20.39484,"lon":-43.50517,"population":74821},{"id":11962416,"name":"Parque Do Carmo","ascii":"Parque Do Carmo","lat":-23.57595,"lon":-46.46298,"population":74677},{"id":3447839,"name":"Senhor do Bonfim","ascii":"Senhor do Bonfim","lat":-10.46139,"lon":-40.18944,"population":74523},{"id":3461013,"name":"Irecê","ascii":"Irece","lat":-11.30417,"lon":-41.85583,"population":74507},{"id":3403353,"name":"Canindé","ascii":"Caninde","lat":-4.35889,"lon":-39.31167,"population":74174},{"id":3400558,"name":"Eusébio","ascii":"Eusebio","lat":-3.89,"lon":-38.45056,"population":74170},{"id":3398856,"name":"Grajaú","ascii":"Grajau","lat":-5.81944,"lon":-46.13861,"population":73872},{"id":3664539,"name":"Coari","ascii":"Coari","lat":-4.085,"lon":-63.14139,"population":73820},{"id":3468570,"name":"Caçador","ascii":"Cacador","lat":-26.77528,"lon":-51.015,"population":73720},{"id":3462378,"name":"Goianésia","ascii":"Goianesia","lat":-15.3175,"lon":-49.1175,"population":73707},{"id":3453639,"name":"Pirassununga","ascii":"Pirassununga","lat":-21.99611,"lon":-47.42583,"population":73545},{"id":3445153,"name":"Viana","ascii":"Viana","lat":-20.39028,"lon":-40.49611,"population":73423},{"id":3466704,"name":"Castro","ascii":"Castro","lat":-24.78927,"lon":-50.01225,"population":73075},{"id":3389590,"name":"Santa Isabel do Pará","ascii":"Santa Isabel do Para","lat":-1.29861,"lon":-48.16056,"population":73019},{"id":3390160,"name":"Russas","ascii":"Russas","lat":-4.94028,"lon":-37.97583,"population":72928},{"id":3402613,"name":"Cascavel","ascii":"Cascavel","lat":-4.13306,"lon":-38.24194,"population":72720},{"id":3470709,"name":"Barra do Garças","ascii":"Barra do Garcas","lat":-15.89,"lon":-52.25667,"population":72694},{"id":3472311,"name":"Amparo","ascii":"Amparo","lat":-22.70111,"lon":-46.76444,"population":72677},{"id":3451152,"name":"Rio do Sul","ascii":"Rio do Sul","lat":-27.21417,"lon":-49.64306,"population":72587},{"id":3462535,"name":"Gaspar","ascii":"Gaspar","lat":-26.93139,"lon":-48.95889,"population":72570},{"id":6318732,"name":"Tailândia","ascii":"Tailandia","lat":-2.94722,"lon":-48.95306,"population":72493},{"id":3472638,"name":"Alegrete","ascii":"Alegrete","lat":-29.78306,"lon":-55.79194,"population":72409},{"id":3467555,"name":"Candeias","ascii":"Candeias","lat":-12.66778,"lon":-38.55056,"population":72382},{"id":3662075,"name":"Tabatinga","ascii":"Tabatinga","lat":-4.23116,"lon":-69.93858,"population":72283},{"id":3447472,"name":"Sobradinho","ascii":"Sobradinho","lat":-15.64713,"lon":-47.79315,"population":72273},{"id":6318357,"name":"Santo Antônio do Descoberto","ascii":"Santo Antonio do Descoberto","lat":-15.93972,"lon":-48.255,"population":72127},{"id":3402621,"name":"Casa Nova","ascii":"Casa Nova","lat":-9.17419,"lon":-40.97514,"population":72086},{"id":3460699,"name":"Itapira","ascii":"Itapira","lat":-22.43611,"lon":-46.82167,"population":72022},{"id":3471772,"name":"Araranguá","ascii":"Ararangua","lat":-28.93575,"lon":-49.49538,"population":71922},{"id":3462376,"name":"Goianira","ascii":"Goianira","lat":-16.49611,"lon":-49.42639,"population":71916},{"id":3460441,"name":"Jaboticabal","ascii":"Jaboticabal","lat":-21.25472,"lon":-48.32222,"population":71821},{"id":3448221,"name":"São Sebastião do Paraíso","ascii":"Sao Sebastiao do Paraiso","lat":-20.91694,"lon":-46.99139,"population":71796},{"id":3450964,"name":"Rolândia","ascii":"Rolandia","lat":-23.30972,"lon":-51.36917,"population":71670},{"id":3461316,"name":"Indaial","ascii":"Indaial","lat":-26.89778,"lon":-49.23167,"population":71549},{"id":3464713,"name":"Dias d'Ávila","ascii":"Dias d'Avila","lat":-12.6125,"lon":-38.29694,"population":71485},{"id":3445596,"name":"Valença","nameKo":"발렌사","ascii":"Valenca","lat":-22.24556,"lon":-43.70028,"population":71462},{"id":3467760,"name":"Campo Formoso","ascii":"Campo Formoso","lat":-10.5075,"lon":-40.32139,"population":71377},{"id":3463432,"name":"Fernandópolis","ascii":"Fernandopolis","lat":-20.28389,"lon":-50.24639,"population":71186},{"id":11962400,"name":"Campo Belo","ascii":"Campo Belo","lat":-23.62808,"lon":-46.66791,"population":71058},{"id":3398450,"name":"Horizonte","ascii":"Horizonte","lat":-4.09802,"lon":-38.486,"population":70983},{"id":3393409,"name":"Pacajus","ascii":"Pacajus","lat":-4.1725,"lon":-38.46056,"population":70983},{"id":3460174,"name":"Janaúba","ascii":"Janauba","lat":-15.8025,"lon":-43.30889,"population":70699},{"id":3468893,"name":"Brumado","ascii":"Brumado","lat":-14.20361,"lon":-41.66528,"population":70510},{"id":3403208,"name":"Capanema","ascii":"Capanema","lat":-1.19583,"lon":-47.18083,"population":70394},{"id":3463605,"name":"Farroupilha","ascii":"Farroupilha","lat":-29.225,"lon":-51.34778,"population":70286},{"id":3457147,"name":"Mineiros","ascii":"Mineiros","lat":-17.56944,"lon":-52.55111,"population":70081},{"id":3444864,"name":"Votuporanga","ascii":"Votuporanga","lat":-20.42278,"lon":-49.97278,"population":69863},{"id":12427005,"name":"Bairro Parque Nossa Senhora do Carmo","ascii":"Bairro Parque Nossa Senhora do Carmo","lat":-23.40598,"lon":-46.31611,"population":69630},{"id":3407980,"name":"Alenquer","ascii":"Alenquer","lat":-1.94167,"lon":-54.73833,"population":69377},{"id":3445350,"name":"Venâncio Aires","ascii":"Venancio Aires","lat":-29.60639,"lon":-52.19194,"population":68763},{"id":3452711,"name":"Porto Nacional","ascii":"Porto Nacional","lat":-10.70806,"lon":-48.41722,"population":68555},{"id":3454061,"name":"Peruíbe","ascii":"Peruibe","lat":-24.32,"lon":-46.99833,"population":68352},{"id":3393471,"name":"Oriximiná","ascii":"Oriximina","lat":-1.76556,"lon":-55.86611,"population":68294},{"id":3463174,"name":"Formiga","ascii":"Formiga","lat":-20.46444,"lon":-45.42639,"population":68248},{"id":3465748,"name":"Conceição do Coité","ascii":"Conceicao do Coite","lat":-11.56389,"lon":-39.28278,"population":67825},{"id":3457025,"name":"Mococa","ascii":"Mococa","lat":-21.46778,"lon":-47.00472,"population":67681},{"id":3386279,"name":"Tomé-Açu","ascii":"Tome-Acu","lat":-2.41889,"lon":-48.15222,"population":67585},{"id":3387202,"name":"Sousa","ascii":"Sousa","lat":-6.75917,"lon":-38.22806,"population":67259},{"id":3736808,"name":"Iranduba","ascii":"Iranduba","lat":-3.28472,"lon":-60.18611,"population":67114},{"id":3464304,"name":"Embu-Guaçu","ascii":"Embu-Guacu","lat":-23.83222,"lon":-46.81139,"population":66970},{"id":3404558,"name":"Cabedelo","ascii":"Cabedelo","lat":-6.98111,"lon":-34.83389,"population":66519},{"id":3458645,"name":"Lençóis Paulista","ascii":"Lencois Paulista","lat":-22.59861,"lon":-48.80028,"population":66505},{"id":3466698,"name":"Cataguases","ascii":"Cataguases","lat":-21.38917,"lon":-42.69667,"population":66261},{"id":3458611,"name":"Liberdade","nameKo":"리베르다데","ascii":"Liberdade","lat":-23.56338,"lon":-46.63228,"population":66056},{"id":3460730,"name":"Itapetinga","ascii":"Itapetinga","lat":-15.24889,"lon":-40.24778,"population":65897},{"id":3456826,"name":"Montenegro","ascii":"Montenegro","lat":-29.68861,"lon":-51.46111,"population":65721},{"id":3395062,"name":"Maués","ascii":"Maues","lat":-3.38361,"lon":-57.71861,"population":65714},{"id":3406196,"name":"Barreirinhas","ascii":"Barreirinhas","lat":-2.75556,"lon":-42.82591,"population":65589},{"id":3469437,"name":"Bom Jesus da Lapa","ascii":"Bom Jesus da Lapa","lat":-13.255,"lon":-43.41806,"population":65550},{"id":3391908,"name":"Piripiri","ascii":"Piripiri","lat":-4.27333,"lon":-41.77694,"population":65538},{"id":3388847,"name":"São Félix do Xingu","ascii":"Sao Felix do Xingu","lat":-6.64472,"lon":-51.995,"population":65418},{"id":12432866,"name":"Itapoã","ascii":"Itapoa","lat":-15.74937,"lon":-47.7686,"population":65408},{"id":3408368,"name":"Acaraú","ascii":"Acarau","lat":-2.88556,"lon":-40.12,"population":65264},{"id":3393452,"name":"Ouricuri","ascii":"Ouricuri","lat":-7.8825,"lon":-40.08167,"population":65245},{"id":3460148,"name":"Januária","ascii":"Januaria","lat":-15.47949,"lon":-44.3652,"population":65150},{"id":3453732,"name":"Pinheiros","ascii":"Pinheiros","lat":-23.56729,"lon":-46.69232,"population":65145},{"id":3407407,"name":"Aquiraz","ascii":"Aquiraz","lat":-3.90139,"lon":-38.39111,"population":65116},{"id":3463900,"name":"Estância","ascii":"Estancia","lat":-11.26833,"lon":-37.43833,"population":65078},{"id":3460966,"name":"Itaberaba","ascii":"Itaberaba","lat":-12.5275,"lon":-40.30694,"population":65073},{"id":3398343,"name":"Igarapé Miri","ascii":"Igarape Miri","lat":-1.975,"lon":-48.95972,"population":64831},{"id":3405738,"name":"Bezerros","ascii":"Bezerros","lat":-8.23333,"lon":-35.79694,"population":64809},{"id":3470052,"name":"Bertioga","ascii":"Bertioga","lat":-23.85444,"lon":-46.13861,"population":64723},{"id":3456827,"name":"Monte Mor","ascii":"Monte Mor","lat":-22.94667,"lon":-47.31583,"population":64662},{"id":3397969,"name":"Itaitinga","ascii":"Itaitinga","lat":-3.96944,"lon":-38.52806,"population":64650},{"id":3445630,"name":"Vacaria","ascii":"Vacaria","lat":-28.51222,"lon":-50.93389,"population":64197},{"id":3387115,"name":"Surubim","ascii":"Surubim","lat":-7.83306,"lon":-35.75472,"population":64120},{"id":3445942,"name":"Tupã","ascii":"Tupa","lat":-21.93472,"lon":-50.51361,"population":63928},{"id":3455047,"name":"Paranoá","ascii":"Paranoa","lat":-15.77553,"lon":-47.78117,"population":63923},{"id":3467362,"name":"Capão da Canoa","ascii":"Capao da Canoa","lat":-29.74556,"lon":-50.00972,"population":63594},{"id":3405792,"name":"Benevides","ascii":"Benevides","lat":-1.36139,"lon":-48.24472,"population":63567},{"id":3457095,"name":"Mirassol","ascii":"Mirassol","lat":-20.81917,"lon":-49.52111,"population":63337},{"id":3404020,"name":"Cajazeiras","ascii":"Cajazeiras","lat":-6.89028,"lon":-38.55528,"population":63239},{"id":3467791,"name":"Campo Bom","ascii":"Campo Bom","lat":-29.67889,"lon":-51.05333,"population":62886},{"id":3392251,"name":"Pesqueira","ascii":"Pesqueira","lat":-8.35778,"lon":-36.69639,"population":62722},{"id":3398379,"name":"Icó","ascii":"Ico","lat":-6.40111,"lon":-38.86222,"population":62642},{"id":3454358,"name":"Pedro Leopoldo","ascii":"Pedro Leopoldo","lat":-19.61806,"lon":-44.04306,"population":62580},{"id":3391412,"name":"Portel","ascii":"Portel","lat":-1.93556,"lon":-50.82111,"population":62503},{"id":3389860,"name":"Salgueiro","ascii":"Salgueiro","lat":-8.07417,"lon":-39.11917,"population":62372},{"id":3395395,"name":"Marechal Deodoro","ascii":"Marechal Deodoro","lat":-9.71028,"lon":-35.895,"population":62341},{"id":3403687,"name":"Camocim","ascii":"Camocim","lat":-2.90222,"lon":-40.84111,"population":62326},{"id":3664078,"name":"Humaitá","ascii":"Humaita","lat":-7.51651,"lon":-63.03105,"population":62312},{"id":3400804,"name":"Escada","ascii":"Escada","lat":-8.35917,"lon":-35.22361,"population":62252},{"id":3468014,"name":"Camaquã","ascii":"Camaqua","lat":-30.85111,"lon":-51.81222,"population":62200},{"id":3469540,"name":"Boituva","ascii":"Boituva","lat":-23.28333,"lon":-47.67222,"population":62170},{"id":3399506,"name":"Floriano","ascii":"Floriano","lat":-6.76694,"lon":-43.0225,"population":62036},{"id":3456138,"name":"Nova Odessa","ascii":"Nova Odessa","lat":-22.7775,"lon":-47.29583,"population":62019},{"id":3466978,"name":"Carazinho","ascii":"Carazinho","lat":-28.28389,"lon":-52.78639,"population":61804},{"id":3454235,"name":"Penápolis","ascii":"Penapolis","lat":-21.41972,"lon":-50.0775,"population":61679},{"id":3400567,"name":"Extremoz","ascii":"Extremoz","lat":-5.70556,"lon":-35.30722,"population":61635},{"id":3472248,"name":"Andradina","ascii":"Andradina","lat":-20.89611,"lon":-51.37944,"population":61473},{"id":3463698,"name":"Euclides da Cunha","ascii":"Euclides da Cunha","lat":-10.5075,"lon":-39.01583,"population":61456},{"id":3394500,"name":"Morada Nova","ascii":"Morada Nova","lat":-5.10667,"lon":-38.3725,"population":61443},{"id":3457736,"name":"Mariana","ascii":"Mariana","lat":-20.37778,"lon":-43.41611,"population":61387},{"id":3401703,"name":"Coroatá","ascii":"Coroata","lat":-4.13,"lon":-44.12417,"population":61351},{"id":3386551,"name":"Tauá","ascii":"Taua","lat":-6.00306,"lon":-40.29278,"population":61227},{"id":6317755,"name":"Nova Mutum","ascii":"Nova Mutum","lat":-13.82889,"lon":-56.08222,"population":61223},{"id":3404117,"name":"Caicó","ascii":"Caico","lat":-6.45833,"lon":-37.09778,"population":61146},{"id":3385742,"name":"União dos Palmares","ascii":"Uniao dos Palmares","lat":-9.16278,"lon":-36.03194,"population":60874},{"id":6317801,"name":"Novo Repartimento","ascii":"Novo Repartimento","lat":-4.33056,"lon":-49.79639,"population":60732},{"id":11962428,"name":"Republica","ascii":"Republica","lat":-23.54476,"lon":-46.64105,"population":60720},{"id":3397936,"name":"Itapecuru Mirim","ascii":"Itapecuru Mirim","lat":-3.3925,"lon":-44.35861,"population":60440},{"id":3465105,"name":"Cruz das Almas","ascii":"Cruz das Almas","lat":-12.67,"lon":-39.10194,"population":60348},{"id":3465164,"name":"Cristalina","ascii":"Cristalina","lat":-16.76769,"lon":-47.6153,"population":60210},{"id":3454231,"name":"Penedo","ascii":"Penedo","lat":-10.29028,"lon":-36.58639,"population":60189},{"id":3461550,"name":"Ibitinga","ascii":"Ibitinga","lat":-21.75778,"lon":-48.82889,"population":60033},{"id":11962425,"name":"Bela Vista","ascii":"Bela Vista","lat":-23.56086,"lon":-46.64758,"population":60024},{"id":3449340,"name":"São Borja","ascii":"Sao Borja","lat":-28.66056,"lon":-56.00444,"population":60019},{"id":3394605,"name":"Monte Alegre","ascii":"Monte Alegre","lat":-2.00082,"lon":-54.08102,"population":60012},{"id":3451704,"name":"Registro","ascii":"Registro","lat":-24.4875,"lon":-47.84361,"population":59947},{"id":3397702,"name":"Jacundá","ascii":"Jacunda","lat":-4.44696,"lon":-49.11556,"population":59842},{"id":3468425,"name":"Cachoeiras de Macacu","ascii":"Cachoeiras de Macacu","lat":-22.4625,"lon":-42.65306,"population":59837},{"id":3465320,"name":"Cosmópolis","ascii":"Cosmopolis","lat":-22.64583,"lon":-47.19611,"population":59773},{"id":3385106,"name":"Viçosa do Ceará","ascii":"Vicosa do Ceara","lat":-3.56222,"lon":-41.09222,"population":59712},{"id":3460826,"name":"Itamaraju","ascii":"Itamaraju","lat":-17.03917,"lon":-39.53111,"population":59605},{"id":3396266,"name":"Limoeiro do Norte","ascii":"Limoeiro do Norte","lat":-5.14556,"lon":-38.09806,"population":59560},{"id":3461017,"name":"Irati","ascii":"Irati","lat":-25.46722,"lon":-50.65111,"population":59250},{"id":3451261,"name":"Rio Bonito","ascii":"Rio Bonito","lat":-22.70861,"lon":-42.60972,"population":59113},{"id":3461519,"name":"Içara","ascii":"Icara","lat":-28.71333,"lon":-49.3,"population":59035},{"id":3408386,"name":"Acará","ascii":"Acara","lat":-1.96083,"lon":-48.19667,"population":59023},{"id":3465108,"name":"Cruz Alta","ascii":"Cruz Alta","lat":-28.64397,"lon":-53.60633,"population":58913},{"id":3460200,"name":"Jaguariúna","ascii":"Jaguariuna","lat":-22.70556,"lon":-46.98583,"population":58722},{"id":3385022,"name":"Viseu","ascii":"Viseu","lat":-1.19667,"lon":-46.14,"population":58692},{"id":3462916,"name":"Frutal","ascii":"Frutal","lat":-20.02472,"lon":-48.94056,"population":58588},{"id":3449099,"name":"São Gabriel","ascii":"Sao Gabriel","lat":-30.33639,"lon":-54.32,"population":58487},{"id":6317029,"name":"Dom Eliseu","ascii":"Dom Eliseu","lat":-4.285,"lon":-47.505,"population":58484},{"id":3386177,"name":"Trairi","ascii":"Trairi","lat":-3.27778,"lon":-39.26889,"population":58415},{"id":3470324,"name":"Batatais","ascii":"Batatais","lat":-20.89111,"lon":-47.585,"population":58402},{"id":3453078,"name":"Ponte Nova","ascii":"Ponte Nova","lat":-20.41639,"lon":-42.90861,"population":57776},{"id":3663503,"name":"Manicoré","ascii":"Manicore","lat":-5.80917,"lon":-61.30028,"population":57758},{"id":3456944,"name":"Mongaguá","ascii":"Mongagua","lat":-24.09306,"lon":-46.62083,"population":57648},{"id":6318263,"name":"Santa Luzia","ascii":"Santa Luzia","lat":-3.96333,"lon":-45.65833,"population":57635},{"id":3398570,"name":"Guarabira","ascii":"Guarabira","lat":-6.85472,"lon":-35.49,"population":57484},{"id":3461124,"name":"Ipirá","ascii":"Ipira","lat":-12.15833,"lon":-39.73722,"population":56876},{"id":3392829,"name":"Paudalho","ascii":"Paudalho","lat":-7.89667,"lon":-35.17972,"population":56665},{"id":3396277,"name":"Limoeiro","ascii":"Limoeiro","lat":-7.87472,"lon":-35.45028,"population":56510},{"id":3403127,"name":"Capitão Poço","ascii":"Capitao Poco","lat":-1.74639,"lon":-47.05944,"population":56506},{"id":3408337,"name":"Açu","ascii":"Acu","lat":-5.57667,"lon":-36.90861,"population":56496},{"id":6318182,"name":"Rolim de Moura","ascii":"Rolim de Moura","lat":-11.80361,"lon":-61.80333,"population":56406},{"id":3662342,"name":"São Gabriel da Cachoeira","ascii":"Sao Gabriel da Cachoeira","lat":-0.1181,"lon":-67.08527,"population":56406},{"id":3449720,"name":"Santo Amaro","ascii":"Santo Amaro","lat":-12.54667,"lon":-38.71194,"population":56012},{"id":3457772,"name":"Marechal Cândido Rondon","ascii":"Marechal Candido Rondon","lat":-24.55611,"lon":-54.05667,"population":55836},{"id":11962394,"name":"Belem","ascii":"Belem","lat":-23.5376,"lon":-46.59482,"population":55785},{"id":3453546,"name":"Pirapora","ascii":"Pirapora","lat":-17.345,"lon":-44.94194,"population":55606},{"id":3469049,"name":"Brazlândia","ascii":"Brazlandia","lat":-15.67941,"lon":-48.19667,"population":55561},{"id":12959044,"name":"Buriticupu","ascii":"Buriticupu","lat":-4.32124,"lon":-46.45468,"population":55499},{"id":3445126,"name":"Videira","ascii":"Videira","lat":-27.00833,"lon":-51.15167,"population":55466},{"id":11962423,"name":"Jaguare","ascii":"Jaguare","lat":-23.54382,"lon":-46.74871,"population":55382},{"id":3394453,"name":"Moreno","ascii":"Moreno","lat":-8.11861,"lon":-35.09222,"population":55292},{"id":3458147,"name":"Mafra","ascii":"Mafra","lat":-26.11139,"lon":-49.80528,"population":55286},{"id":3446077,"name":"Três Pontas","ascii":"Tres Pontas","lat":-21.36667,"lon":-45.5125,"population":55255},{"id":3479329,"name":"Paraíso do Tocantins","ascii":"Paraiso do Tocantins","lat":-10.17611,"lon":-48.86667,"population":55164},{"id":3455923,"name":"Olímpia","ascii":"Olimpia","lat":-20.73722,"lon":-48.91472,"population":55074},{"id":3445746,"name":"União da Vitória","ascii":"Uniao da Vitoria","lat":-26.23,"lon":-51.08639,"population":55033},{"id":3467452,"name":"Canoinhas","ascii":"Canoinhas","lat":-26.17722,"lon":-50.39,"population":55016},{"id":3453060,"name":"Pontes e Lacerda","ascii":"Pontes e Lacerda","lat":-15.22611,"lon":-59.33528,"population":54795},{"id":3393264,"name":"Palmares","ascii":"Palmares","lat":-8.68333,"lon":-35.59167,"population":54584},{"id":3404766,"name":"Buíque","ascii":"Buique","lat":-8.62306,"lon":-37.15583,"population":54425},{"id":3446232,"name":"Tramandaí","ascii":"Tramandai","lat":-29.98472,"lon":-50.13361,"population":54387},{"id":3457359,"name":"Medianeira","ascii":"Medianeira","lat":-25.29528,"lon":-54.09389,"population":54369},{"id":3461949,"name":"Guapimirim","ascii":"Guapimirim","lat":-22.53722,"lon":-42.98194,"population":54300},{"id":3388714,"name":"São Gonçalo do Amarante","ascii":"Sao Goncalo do Amarante","lat":-3.60722,"lon":-38.96833,"population":54143},{"id":3451383,"name":"Ribeira do Pombal","ascii":"Ribeira do Pombal","lat":-10.83444,"lon":-38.53583,"population":54010},{"id":3463668,"name":"Extrema","ascii":"Extrema","lat":-22.85472,"lon":-46.31833,"population":53482},{"id":3452779,"name":"Porto Feliz","ascii":"Porto Feliz","lat":-23.21472,"lon":-47.52389,"population":53402},{"id":3388269,"name":"São Miguel dos Campos","ascii":"Sao Miguel dos Campos","lat":-9.78111,"lon":-36.09361,"population":53391},{"id":3460954,"name":"Itabirito","ascii":"Itabirito","lat":-20.25333,"lon":-43.80139,"population":53365},{"id":3385899,"name":"Tutóia","ascii":"Tutoia","lat":-2.76194,"lon":-42.27444,"population":53356},{"id":3398706,"name":"Granja","ascii":"Granja","lat":-3.12028,"lon":-40.82611,"population":53344},{"id":7521912,"name":"Consolação","ascii":"Consolacao","lat":-23.55242,"lon":-46.65735,"population":53249},{"id":3446847,"name":"Taquara","ascii":"Taquara","lat":-29.65056,"lon":-50.78056,"population":53242},{"id":3450188,"name":"Santa Isabel","ascii":"Santa Isabel","lat":-23.31556,"lon":-46.22139,"population":53174},{"id":3471395,"name":"Artur Nogueira","ascii":"Artur Nogueira","lat":-22.57306,"lon":-47.1725,"population":53157},{"id":6318184,"name":"Rondon do Pará","ascii":"Rondon do Para","lat":-4.77611,"lon":-48.06722,"population":53143},{"id":3405924,"name":"Beberibe","ascii":"Beberibe","lat":-4.17972,"lon":-38.13056,"population":53114},{"id":3453926,"name":"Piedade","ascii":"Piedade","lat":-23.71194,"lon":-47.42778,"population":52970},{"id":3388270,"name":"São Miguel do Guamá","ascii":"Sao Miguel do Guama","lat":-1.62667,"lon":-47.48333,"population":52894},{"id":6318968,"name":"Xinguara","ascii":"Xinguara","lat":-7.09829,"lon":-49.9435,"population":52893},{"id":3465671,"name":"Congonhas","ascii":"Congonhas","lat":-20.50525,"lon":-43.8588,"population":52890},{"id":3401109,"name":"Delmiro Gouveia","ascii":"Delmiro Gouveia","lat":-9.38861,"lon":-37.99917,"population":52809},{"id":3449176,"name":"São Francisco","ascii":"Sao Francisco","lat":-15.94861,"lon":-44.86444,"population":52762},{"id":3449112,"name":"São Francisco do Sul","ascii":"Sao Francisco do Sul","lat":-26.24333,"lon":-48.63806,"population":52674},{"id":3452775,"name":"Porto Ferreira","ascii":"Porto Ferreira","lat":-21.85389,"lon":-47.47917,"population":52649},{"id":11962411,"name":"Vila Guilherme","ascii":"Vila Guilherme","lat":-23.50918,"lon":-46.60577,"population":52587},{"id":3461370,"name":"Imbituba","ascii":"Imbituba","lat":-28.24,"lon":-48.67028,"population":52579},{"id":3467684,"name":"Campos do Jordão","ascii":"Campos do Jordao","lat":-22.73944,"lon":-45.59139,"population":52405},{"id":3393768,"name":"Óbidos","ascii":"Obidos","lat":-1.9175,"lon":-55.51806,"population":52306},{"id":3467796,"name":"Campo Belo","ascii":"Campo Belo","lat":-20.89722,"lon":-45.27722,"population":52277},{"id":3449467,"name":"Santo Estêvão","ascii":"Santo Estevao","lat":-12.43028,"lon":-39.25139,"population":52276},{"id":3446753,"name":"Taquaritinga","ascii":"Taquaritinga","lat":-21.40611,"lon":-48.50472,"population":52260},{"id":3448640,"name":"São José do Rio Pardo","ascii":"Sao Jose do Rio Pardo","lat":-21.59556,"lon":-46.88861,"population":52205},{"id":3461194,"name":"Inhumas","ascii":"Inhumas","lat":-16.35778,"lon":-49.49611,"population":52204},{"id":3454954,"name":"Parobé","ascii":"Parobe","lat":-29.62861,"lon":-50.83472,"population":52058},{"id":3468317,"name":"Caetité","ascii":"Caetite","lat":-14.06944,"lon":-42.475,"population":52012},{"id":3458406,"name":"Louveira","ascii":"Louveira","lat":-23.08639,"lon":-46.95056,"population":51847},{"id":3465329,"name":"Coruripe","ascii":"Coruripe","lat":-10.12556,"lon":-36.17556,"population":51788},{"id":3469516,"name":"Bom Despacho","ascii":"Bom Despacho","lat":-19.73639,"lon":-45.25222,"population":51737},{"id":11962404,"name":"Morumbi","ascii":"Morumbi","lat":-23.59632,"lon":-46.70802,"population":51715},{"id":3406844,"name":"Baião","ascii":"Baiao","lat":-2.79056,"lon":-49.67167,"population":51641},{"id":3444848,"name":"Xanxerê","ascii":"Xanxere","lat":-26.87694,"lon":-52.40417,"population":51607},{"id":3461588,"name":"Ibiporã","ascii":"Ibipora","lat":-23.26917,"lon":-51.04806,"population":51603},{"id":3446500,"name":"Tijucas","ascii":"Tijucas","lat":-27.24139,"lon":-48.63361,"population":51592},{"id":3385122,"name":"Viana","ascii":"Viana","lat":-3.22028,"lon":-45.00361,"population":51442},{"id":3459251,"name":"Lagoa da Prata","ascii":"Lagoa da Prata","lat":-20.0225,"lon":-45.54361,"population":51412},{"id":3456735,"name":"Morrinhos","ascii":"Morrinhos","lat":-17.73111,"lon":-49.09944,"population":51351},{"id":3388046,"name":"Sapé","ascii":"Sape","lat":-7.09639,"lon":-35.23278,"population":51306},{"id":3446194,"name":"Tremembé","ascii":"Tremembe","lat":-22.95833,"lon":-45.54944,"population":51173},{"id":3458632,"name":"Leopoldina","ascii":"Leopoldina","lat":-21.53194,"lon":-42.64306,"population":51145},{"id":3404862,"name":"Brejo da Madre de Deus","ascii":"Brejo da Madre de Deus","lat":-8.14583,"lon":-36.37111,"population":51107},{"id":3470821,"name":"Barra","ascii":"Barra","lat":-11.08944,"lon":-43.14167,"population":51092},{"id":3404833,"name":"Brejo Santo","ascii":"Brejo Santo","lat":-7.49333,"lon":-38.98722,"population":51090},{"id":3461763,"name":"Guaxupé","ascii":"Guaxupe","lat":-21.30528,"lon":-46.71278,"population":50911},{"id":3446400,"name":"Tobias Barreto","ascii":"Tobias Barreto","lat":-11.18389,"lon":-37.99833,"population":50905},{"id":3396979,"name":"Juruti","ascii":"Juruti","lat":-2.15222,"lon":-56.09222,"population":50881},{"id":3385088,"name":"Vigia","ascii":"Vigia","lat":-0.85833,"lon":-48.14167,"population":50832},{"id":3925040,"name":"Jaru","ascii":"Jaru","lat":-10.43889,"lon":-62.46639,"population":50591},{"id":3456368,"name":"Naviraí","ascii":"Navirai","lat":-23.065,"lon":-54.19056,"population":50457},{"id":6318864,"name":"Vargem Grande Paulista","ascii":"Vargem Grande Paulista","lat":-23.60333,"lon":-47.02639,"population":50415},{"id":3405616,"name":"Boa Viagem","ascii":"Boa Viagem","lat":-5.1275,"lon":-39.73222,"population":50411},{"id":3467197,"name":"Capivari","ascii":"Capivari","lat":-22.995,"lon":-47.50778,"population":50068},{"id":6316745,"name":"Campo Novo do Parecis","ascii":"Campo Novo do Parecis","lat":-13.67528,"lon":-57.89194,"population":50033},{"id":3458132,"name":"Mairinque","ascii":"Mairinque","lat":-23.54583,"lon":-47.18333,"population":50027},{"id":3397851,"name":"Itupiranga","ascii":"Itupiranga","lat":-5.13472,"lon":-49.32667,"population":49754},{"id":3467512,"name":"Canguçu","ascii":"Cangucu","lat":-31.395,"lon":-52.67556,"population":49680},{"id":3388955,"name":"São Bento do Una","ascii":"Sao Bento do Una","lat":-8.52278,"lon":-36.44444,"population":49449},{"id":3452216,"name":"Prudentópolis","ascii":"Prudentopolis","lat":-25.21306,"lon":-50.97778,"population":49393},{"id":3456110,"name":"Nova Venécia","ascii":"Nova Venecia","lat":-18.71056,"lon":-40.40056,"population":49065},{"id":3467530,"name":"Canela","ascii":"Canela","lat":-29.35622,"lon":-50.81357,"population":48946},{"id":3449741,"name":"Santiago","ascii":"Santiago","lat":-29.19167,"lon":-54.86722,"population":48938},{"id":3663684,"name":"Lábrea","ascii":"Labrea","lat":-7.26435,"lon":-64.79638,"population":48927},{"id":3460186,"name":"Jales","ascii":"Jales","lat":-20.26889,"lon":-50.54583,"population":48776},{"id":3445983,"name":"Tucano","ascii":"Tucano","lat":-10.95817,"lon":-38.79084,"population":48736},{"id":3466763,"name":"Casimiro de Abreu","ascii":"Casimiro de Abreu","lat":-22.48056,"lon":-42.20417,"population":48563},{"id":6317707,"name":"Nova Andradina","ascii":"Nova Andradina","lat":-22.23333,"lon":-53.34306,"population":48563},{"id":3471896,"name":"Aquidauana","ascii":"Aquidauana","lat":-20.47111,"lon":-55.78722,"population":48561},{"id":3448825,"name":"São Joaquim da Barra","ascii":"Sao Joaquim da Barra","lat":-20.58139,"lon":-47.85472,"population":48558},{"id":3451931,"name":"Quirinópolis","ascii":"Quirinopolis","lat":-18.44833,"lon":-50.45167,"population":48447},{"id":3471854,"name":"Araci","ascii":"Araci","lat":-11.33333,"lon":-38.96667,"population":48294},{"id":3453337,"name":"Poções","ascii":"Pocoes","lat":-14.52972,"lon":-40.36528,"population":48293},{"id":3455459,"name":"Palmas","nameKo":"파우마스","ascii":"Palmas","lat":-26.48417,"lon":-51.99056,"population":48247},{"id":3466641,"name":"Catu","ascii":"Catu","lat":-12.35306,"lon":-38.37889,"population":48148},{"id":3389006,"name":"São Bento","ascii":"Sao Bento","lat":-2.69583,"lon":-44.82139,"population":48036},{"id":3469601,"name":"Bocaiúva","ascii":"Bocaiuva","lat":-17.10778,"lon":-43.815,"population":48032},{"id":3406263,"name":"Barras","ascii":"Barras","lat":-4.24444,"lon":-42.29444,"population":47938},{"id":3463865,"name":"Estância Velha","ascii":"Estancia Velha","lat":-29.64833,"lon":-51.17389,"population":47924},{"id":6316748,"name":"Campo Verde","ascii":"Campo Verde","lat":-15.54667,"lon":-55.16889,"population":47831},{"id":3467877,"name":"Campina Grande do Sul","ascii":"Campina Grande do Sul","lat":-25.30556,"lon":-49.05528,"population":47825},{"id":6317400,"name":"Juína","ascii":"Juina","lat":-11.42047,"lon":-58.75488,"population":47800},{"id":3456820,"name":"Monte Santo","ascii":"Monte Santo","lat":-10.43778,"lon":-39.33278,"population":47780},{"id":3464728,"name":"Diamantina","ascii":"Diamantina","lat":-18.24692,"lon":-43.60345,"population":47702},{"id":3456848,"name":"Monte Carmelo","ascii":"Monte Carmelo","lat":-18.72472,"lon":-47.49861,"population":47692},{"id":3391040,"name":"Queimadas","ascii":"Queimadas","lat":-7.35833,"lon":-35.89833,"population":47658},{"id":3389023,"name":"São Benedito","ascii":"Sao Benedito","lat":-4.04861,"lon":-40.865,"population":47640},{"id":3456873,"name":"Monte Alto","ascii":"Monte Alto","lat":-21.26111,"lon":-48.49639,"population":47574},{"id":3407797,"name":"Altos","ascii":"Altos","lat":-5.03806,"lon":-42.46,"population":47453},{"id":3389384,"name":"Santana do Ipanema","ascii":"Santana do Ipanema","lat":-9.37833,"lon":-37.24528,"population":47397},{"id":3455769,"name":"Osório","ascii":"Osorio","lat":-29.88667,"lon":-50.26972,"population":47396},{"id":6318423,"name":"São Francisco de Itabapoana","ascii":"Sao Francisco de Itabapoana","lat":-21.30194,"lon":-40.96139,"population":47368},{"id":3388443,"name":"São José de Mipibu","ascii":"Sao Jose de Mipibu","lat":-6.07472,"lon":-35.23778,"population":47286},{"id":3447597,"name":"Sidrolândia","ascii":"Sidrolandia","lat":-20.93194,"lon":-54.96139,"population":47118},{"id":3468592,"name":"Cabreúva","ascii":"Cabreuva","lat":-23.3075,"lon":-47.13278,"population":47011},{"id":11962422,"name":"Vila Leopoldina","ascii":"Vila Leopoldina","lat":-23.52927,"lon":-46.73437,"population":46875},{"id":3459785,"name":"João Pinheiro","ascii":"Joao Pinheiro","lat":-17.7425,"lon":-46.1725,"population":46801},{"id":3461914,"name":"Guaramirim","ascii":"Guaramirim","lat":-26.47306,"lon":-49.00278,"population":46711},{"id":3450272,"name":"Santa Cruz do Rio Pardo","ascii":"Santa Cruz do Rio Pardo","lat":-22.89889,"lon":-49.6325,"population":46442},{"id":3397941,"name":"Itapagé","ascii":"Itapage","lat":-3.68667,"lon":-39.58611,"population":46426},{"id":3467371,"name":"Capão Bonito","ascii":"Capao Bonito","lat":-24.00583,"lon":-48.34944,"population":46337},{"id":3405380,"name":"Bom Conselho","ascii":"Bom Conselho","lat":-9.16972,"lon":-36.67972,"population":46192},{"id":3447928,"name":"Seabra","ascii":"Seabra","lat":-12.41713,"lon":-41.77049,"population":46160},{"id":3386396,"name":"Timbaúba","ascii":"Timbauba","lat":-7.50528,"lon":-35.31833,"population":46147},{"id":3385745,"name":"União","ascii":"Uniao","lat":-4.58583,"lon":-42.86417,"population":46119},{"id":3446465,"name":"Timbó","ascii":"Timbo","lat":-26.82333,"lon":-49.27167,"population":46099},{"id":3460242,"name":"Jaguaquara","ascii":"Jaguaquara","lat":-13.53056,"lon":-39.97083,"population":45964},{"id":3455553,"name":"Paiçandu","ascii":"Paicandu","lat":-23.4575,"lon":-52.04861,"population":45962},{"id":3461498,"name":"Igarapé","ascii":"Igarape","lat":-20.07028,"lon":-44.30167,"population":45847},{"id":3403566,"name":"Campo Maior","ascii":"Campo Maior","lat":-4.82778,"lon":-42.16861,"population":45793},{"id":6316653,"name":"Breu Branco","ascii":"Breu Branco","lat":-4.00092,"lon":-49.5068,"population":45712},{"id":3395058,"name":"Mauriti","ascii":"Mauriti","lat":-7.38917,"lon":-38.77444,"population":45561},{"id":3464426,"name":"Dracena","ascii":"Dracena","lat":-21.4825,"lon":-51.53278,"population":45474},{"id":3470597,"name":"Barra Velha","ascii":"Barra Velha","lat":-26.63222,"lon":-48.68472,"population":45369},{"id":3394326,"name":"Muaná","ascii":"Muana","lat":-1.52833,"lon":-49.21667,"population":45368},{"id":3406948,"name":"Autazes","ascii":"Autazes","lat":-3.57972,"lon":-59.13056,"population":45328},{"id":3471783,"name":"Araquari","ascii":"Araquari","lat":-26.37,"lon":-48.72222,"population":45283},{"id":3460071,"name":"Jardinópolis","ascii":"Jardinopolis","lat":-21.01778,"lon":-47.76389,"population":45282},{"id":3460107,"name":"Jaraguá","ascii":"Jaragua","lat":-15.75694,"lon":-49.33444,"population":45223},{"id":3465508,"name":"Cornélio Procópio","ascii":"Cornelio Procopio","lat":-23.18111,"lon":-50.64667,"population":45206},{"id":11962399,"name":"Cambuci","ascii":"Cambuci","lat":-23.56439,"lon":-46.61695,"population":45163},{"id":3391220,"name":"Presidente Dutra","ascii":"Presidente Dutra","lat":-5.29,"lon":-44.49,"population":45155},{"id":3457817,"name":"Marau","ascii":"Marau","lat":-28.44917,"lon":-52.2,"population":45124},{"id":3457859,"name":"Maracaju","ascii":"Maracaju","lat":-21.61444,"lon":-55.16833,"population":45047},{"id":3458826,"name":"Lapa","ascii":"Lapa","lat":-25.76972,"lon":-49.71583,"population":45003},{"id":3408343,"name":"Acopiara","ascii":"Acopiara","lat":-6.09528,"lon":-39.4525,"population":44962},{"id":3464579,"name":"Dois Vizinhos","ascii":"Dois Vizinhos","lat":-25.73361,"lon":-53.05722,"population":44869},{"id":3454620,"name":"Pederneiras","ascii":"Pederneiras","lat":-22.35167,"lon":-48.775,"population":44827},{"id":3449933,"name":"Santana do Paraíso","ascii":"Santana do Paraiso","lat":-19.36361,"lon":-42.56861,"population":44800},{"id":3448616,"name":"São Lourenço","ascii":"Sao Lourenco","lat":-22.11639,"lon":-45.05444,"population":44798},{"id":3389822,"name":"Salinópolis","ascii":"Salinopolis","lat":-0.62099,"lon":-47.35422,"population":44772},{"id":3444823,"name":"Xique-Xique","ascii":"Xique-Xique","lat":-10.82294,"lon":-42.72815,"population":44757},{"id":3460963,"name":"Itaberaí","ascii":"Itaberai","lat":-16.02028,"lon":-49.81028,"population":44734},{"id":3466429,"name":"Cerquilho","ascii":"Cerquilho","lat":-23.165,"lon":-47.74361,"population":44695},{"id":3401845,"name":"Conceição do Araguaia","ascii":"Conceicao do Araguaia","lat":-8.26441,"lon":-49.26982,"population":44617},{"id":3395717,"name":"Mamanguape","ascii":"Mamanguape","lat":-6.83861,"lon":-35.12611,"population":44599},{"id":3406961,"name":"Augusto Corrêa","ascii":"Augusto Correa","lat":-1.02167,"lon":-46.635,"population":44573},{"id":3455141,"name":"Paraíba do Sul","ascii":"Paraiba do Sul","lat":-22.15847,"lon":-43.29321,"population":44467},{"id":3460620,"name":"Itararé","ascii":"Itarare","lat":-24.1125,"lon":-49.33167,"population":44438},{"id":3396601,"name":"Lago da Pedra","ascii":"Lago da Pedra","lat":-4.56033,"lon":-45.13155,"population":44403},{"id":3449529,"name":"Santo Antônio da Platina","ascii":"Santo Antonio da Platina","lat":-23.295,"lon":-50.07722,"population":44369},{"id":12432229,"name":"Sudoeste/Octagonal","ascii":"Sudoeste/Octagonal","lat":-15.80152,"lon":-47.92706,"population":44354},{"id":3448454,"name":"São Miguel d'Oeste","ascii":"Sao Miguel d'Oeste","lat":-26.72528,"lon":-53.51806,"population":44330},{"id":3453014,"name":"Porangatu","ascii":"Porangatu","lat":-13.44083,"lon":-49.14861,"population":44317},{"id":3407378,"name":"Aracati","ascii":"Aracati","lat":-4.56167,"lon":-37.76972,"population":44293},{"id":3451134,"name":"Rio Grande da Serra","ascii":"Rio Grande da Serra","lat":-23.74417,"lon":-46.39833,"population":44170},{"id":3447720,"name":"Serrana","ascii":"Serrana","lat":-21.21139,"lon":-47.59556,"population":43909},{"id":10341207,"name":"Livramento de Nossa Senhora","ascii":"Livramento de Nossa Senhora","lat":-13.64136,"lon":-41.84319,"population":43903},{"id":3450563,"name":"Salto de Pirapora","ascii":"Salto de Pirapora","lat":-23.64889,"lon":-47.57333,"population":43748},{"id":3408166,"name":"Águas Belas","ascii":"Aguas Belas","lat":-9.11139,"lon":-37.12306,"population":43713},{"id":3449519,"name":"Santo Antônio de Pádua","ascii":"Santo Antonio de Padua","lat":-21.53944,"lon":-42.18028,"population":43686},{"id":3455170,"name":"Paracambi","ascii":"Paracambi","lat":-22.6083,"lon":-43.70948,"population":43656},{"id":3457991,"name":"Mangaratiba","ascii":"Mangaratiba","lat":-22.95972,"lon":-44.04056,"population":43624},{"id":6318838,"name":"Uruará","ascii":"Uruara","lat":-3.7175,"lon":-53.73667,"population":43558},{"id":3455281,"name":"Panambi","ascii":"Panambi","lat":-28.2925,"lon":-53.50167,"population":43515},{"id":3661980,"name":"Tarauacá","ascii":"Tarauaca","lat":-8.16139,"lon":-70.76556,"population":43467},{"id":3385538,"name":"Vargem Grande","ascii":"Vargem Grande","lat":-3.54306,"lon":-43.91583,"population":43261},{"id":3454407,"name":"Pedreira","ascii":"Pedreira","lat":-22.74194,"lon":-46.90139,"population":43112},{"id":3397883,"name":"Itarema","ascii":"Itarema","lat":-2.92028,"lon":-39.915,"population":42957},{"id":3449614,"name":"Santo Antônio da Patrulha","ascii":"Santo Antonio da Patrulha","lat":-29.8175,"lon":-50.51972,"population":42947},{"id":3459094,"name":"Laguna","ascii":"Laguna","lat":-28.4825,"lon":-48.78083,"population":42785},{"id":3447562,"name":"Simão Dias","ascii":"Simao Dias","lat":-10.73833,"lon":-37.81111,"population":42578},{"id":3457528,"name":"Mata de São João","ascii":"Mata de Sao Joao","lat":-12.53028,"lon":-38.29917,"population":42566},{"id":3397230,"name":"José de Freitas","ascii":"Jose de Freitas","lat":-4.75639,"lon":-42.57556,"population":42559},{"id":3445713,"name":"Uruaçu","ascii":"Uruacu","lat":-14.52472,"lon":-49.14083,"population":42546},{"id":3465813,"name":"Vera Cruz","ascii":"Vera Cruz","lat":-12.96028,"lon":-38.60861,"population":42529},{"id":3470730,"name":"Barra de São Francisco","ascii":"Barra de Sao Francisco","lat":-18.755,"lon":-40.89083,"population":42498},{"id":3471487,"name":"Armação dos Búzios","ascii":"Armacao dos Buzios","lat":-22.74694,"lon":-41.88167,"population":42442},{"id":3408274,"name":"Afogados da Ingazeira","ascii":"Afogados da Ingazeira","lat":-7.75083,"lon":-37.63917,"population":42407},{"id":3449427,"name":"Santos Dumont","ascii":"Santos Dumont","lat":-21.45667,"lon":-43.5525,"population":42406},{"id":3448502,"name":"São Mateus do Sul","ascii":"Sao Mateus do Sul","lat":-25.87417,"lon":-50.38278,"population":42366},{"id":3407703,"name":"Amontada","ascii":"Amontada","lat":-3.36167,"lon":-39.83167,"population":42156},{"id":3462580,"name":"Garça","ascii":"Garca","lat":-22.21056,"lon":-49.65611,"population":42110},{"id":3461857,"name":"Guaratuba","ascii":"Guaratuba","lat":-25.88278,"lon":-48.57472,"population":42062},{"id":3406160,"name":"Barreiros","ascii":"Barreiros","lat":-8.81833,"lon":-35.18639,"population":42056},{"id":3398569,"name":"Guaraciaba do Norte","ascii":"Guaraciaba do Norte","lat":-4.16694,"lon":-40.7475,"population":42053},{"id":3448596,"name":"São Lourenço do Sul","ascii":"Sao Lourenco do Sul","lat":-31.36528,"lon":-51.97833,"population":41989},{"id":3457819,"name":"Marataizes","ascii":"Marataizes","lat":-21.04333,"lon":-40.82444,"population":41929},{"id":3458237,"name":"Macaúbas","ascii":"Macaubas","lat":-13.01944,"lon":-42.69861,"population":41859},{"id":3457741,"name":"Marialva","ascii":"Marialva","lat":-23.485,"lon":-51.79167,"population":41851},{"id":12432908,"name":"Lago Norte","ascii":"Lago Norte","lat":-15.73948,"lon":-47.85686,"population":41778},{"id":3446295,"name":"Torres","ascii":"Torres","lat":-29.33528,"lon":-49.72694,"population":41751},{"id":3401992,"name":"Coelho Neto","ascii":"Coelho Neto","lat":-4.25667,"lon":-43.01278,"population":41658},{"id":6318278,"name":"Santa Maria de Jetibá","ascii":"Santa Maria de Jetiba","lat":-20.02745,"lon":-40.74336,"population":41636},{"id":3389622,"name":"Santa Helena","ascii":"Santa Helena","lat":-2.23111,"lon":-45.3,"population":41561},{"id":3470674,"name":"Barra dos Coqueiros","ascii":"Barra dos Coqueiros","lat":-10.90889,"lon":-37.03861,"population":41511},{"id":3471683,"name":"Arcos","ascii":"Arcos","lat":-20.28194,"lon":-45.53944,"population":41416},{"id":3447437,"name":"Socorro","ascii":"Socorro","lat":-22.59139,"lon":-46.52889,"population":41352},{"id":3662155,"name":"Sena Madureira","ascii":"Sena Madureira","lat":-9.06341,"lon":-68.67245,"population":41343},{"id":3401283,"name":"Currais Novos","ascii":"Currais Novos","lat":-6.26083,"lon":-36.51778,"population":41313},{"id":3401188,"name":"Curuçá","ascii":"Curuca","lat":-0.72889,"lon":-47.84806,"population":41262},{"id":3456240,"name":"Nossa Senhora da Glória","ascii":"Nossa Senhora da Gloria","lat":-10.21833,"lon":-37.42028,"population":41212},{"id":3449195,"name":"São Fidélis","ascii":"Sao Fidelis","lat":-21.64611,"lon":-41.74694,"population":41197},{"id":3386264,"name":"Toritama","ascii":"Toritama","lat":-8.00667,"lon":-36.05667,"population":41137},{"id":3455152,"name":"Paraguaçu Paulista","ascii":"Paraguacu Paulista","lat":-22.41278,"lon":-50.57583,"population":41120},{"id":6317834,"name":"Pacajá","ascii":"Pacaja","lat":-3.83778,"lon":-50.6375,"population":41097},{"id":3398112,"name":"Ipu","ascii":"Ipu","lat":-4.32222,"lon":-40.71083,"population":41081},{"id":3400740,"name":"Esperantina","ascii":"Esperantina","lat":-3.90167,"lon":-42.23361,"population":40970},{"id":3448219,"name":"São Sebastião do Passé","ascii":"Sao Sebastiao do Passe","lat":-12.5125,"lon":-38.49528,"population":40958},{"id":3455065,"name":"Paranaíba","ascii":"Paranaiba","lat":-19.67722,"lon":-51.19083,"population":40957},{"id":3449053,"name":"São Gotardo","ascii":"Sao Gotardo","lat":-19.31111,"lon":-46.04889,"population":40910},{"id":3387604,"name":"Sirinhaém","ascii":"Sirinhaem","lat":-8.59083,"lon":-35.11611,"population":40852},{"id":6318970,"name":"Zé Doca","ascii":"Ze Doca","lat":-3.27472,"lon":-45.65833,"population":40801},{"id":3461129,"name":"Ipiaú","ascii":"Ipiau","lat":-14.13449,"lon":-39.73948,"population":40706},{"id":3460971,"name":"Itabaianinha","ascii":"Itabaianinha","lat":-11.27389,"lon":-37.79,"population":40678},{"id":3449847,"name":"Santa Rita do Sapucaí","ascii":"Santa Rita do Sapucai","lat":-22.25222,"lon":-45.70333,"population":40635},{"id":3391387,"name":"Porto de Moz","ascii":"Porto de Moz","lat":-1.74833,"lon":-52.23833,"population":40597},{"id":3390682,"name":"Remanso","ascii":"Remanso","lat":-9.62167,"lon":-42.08139,"population":40586},{"id":3389462,"name":"Santa Maria da Boa Vista","ascii":"Santa Maria da Boa Vista","lat":-8.80778,"lon":-39.82556,"population":40578},{"id":3472254,"name":"Andradas","ascii":"Andradas","lat":-22.06806,"lon":-46.56917,"population":40553},{"id":3665016,"name":"Benjamin Constant","ascii":"Benjamin Constant","lat":-4.37555,"lon":-70.03179,"population":40509},{"id":3460362,"name":"Jacarezinho","ascii":"Jacarezinho","lat":-23.16056,"lon":-49.96944,"population":40375},{"id":3472520,"name":"Almenara","ascii":"Almenara","lat":-16.18361,"lon":-40.69444,"population":40364},{"id":3401963,"name":"Colinas","ascii":"Colinas","lat":-6.02583,"lon":-44.24917,"population":40316},{"id":3392629,"name":"Pedra Branca","ascii":"Pedra Branca","lat":-5.45417,"lon":-39.71722,"population":40187},{"id":3389361,"name":"Santa Quitéria","ascii":"Santa Quiteria","lat":-4.33194,"lon":-40.15667,"population":40183},