[{"id":625144,"name":"Minsk","nameKo":"민스크","ascii":"Minsk","lat":53.90019,"lon":27.56653,"population":1742124},{"id":627907,"name":"Homyel'","nameKo":"호멜","ascii":"Homyel'","lat":52.4345,"lon":30.9754,"population":501102},{"id":627904,"name":"Hrodna","nameKo":"흐로드나","ascii":"Hrodna","lat":53.6758,"lon":23.82887,"population":361115},{"id":620127,"name":"Vitebsk","nameKo":"비쳅스크","ascii":"Vitebsk","lat":55.1904,"lon":30.2049,"population":358395},{"id":625665,"name":"Mahilyow","ascii":"Mahilyow","lat":53.90876,"lon":30.34044,"population":353110},{"id":629634,"name":"Brest","nameKo":"브레스트","ascii":"Brest","lat":52.10894,"lon":23.71749,"population":344470},{"id":630468,"name":"Bobruysk","ascii":"Bobruysk","lat":53.14636,"lon":29.20552,"population":207351},{"id":630429,"name":"Baranovichi","ascii":"Baranovichi","lat":53.13253,"lon":26.00774,"population":171361},{"id":630376,"name":"Barysaw","ascii":"Barysaw","lat":54.2279,"lon":28.505,"population":135696},{"id":623549,"name":"Pinsk","nameKo":"핀스크","ascii":"Pinsk","lat":52.12153,"lon":26.06726,"population":124295},{"id":625324,"name":"Mazyr","nameKo":"마지르","ascii":"Mazyr","lat":52.04162,"lon":29.21631,"population":105152},{"id":626081,"name":"Lida","nameKo":"리다","ascii":"Lida","lat":53.88333,"lon":25.29972,"population":103916},{"id":624079,"name":"Orsha","nameKo":"보르샤","ascii":"Orsha","lat":54.51362,"lon":30.40365,"population":102759},{"id":622428,"name":"Soligorsk","nameKo":"살리호르스크","ascii":"Soligorsk","lat":52.78981,"lon":27.53583,"population":97818},{"id":624784,"name":"Novopolotsk","nameKo":"나바폴라츠크","ascii":"Novopolotsk","lat":55.52618,"lon":28.59308,"population":95717},{"id":625625,"name":"Maladziečna","ascii":"Maladziecna","lat":54.3167,"lon":26.854,"population":89068},{"id":623317,"name":"Polotsk","nameKo":"폴라츠크","ascii":"Polotsk","lat":55.4879,"lon":28.7856,"population":79579},{"id":618806,"name":"Zhlobin","ascii":"Zhlobin","lat":52.8926,"lon":30.024,"population":76844},{"id":622794,"name":"Rechytsa","ascii":"Rechytsa","lat":52.3617,"lon":30.3916,"population":65213},{"id":618800,"name":"Horad Zhodzina","ascii":"Horad Zhodzina","lat":54.0985,"lon":28.3331,"population":63744},{"id":621074,"name":"Svetlogorsk","ascii":"Svetlogorsk","lat":52.6329,"lon":29.7389,"population":62602},{"id":621741,"name":"Slutsk","nameKo":"슬루츠크","ascii":"Slutsk","lat":53.01522,"lon":27.54159,"population":60056},{"id":627145,"name":"Kobryn","ascii":"Kobryn","lat":52.21173,"lon":24.3563,"population":52635},{"id":621754,"name":"Slonim","nameKo":"슬로님","ascii":"Slonim","lat":53.08751,"lon":25.31707,"population":48907},{"id":620391,"name":"Volkovysk","ascii":"Volkovysk","lat":53.1561,"lon":24.4513,"population":47300},{"id":627751,"name":"Kalinkovichi","ascii":"Kalinkovichi","lat":52.1323,"lon":29.3257,"population":36941},{"id":621713,"name":"Smarhoń","ascii":"Smarhon","lat":54.4798,"lon":26.3957,"population":35422},{"id":622739,"name":"Rahachow","ascii":"Rahachow","lat":53.09255,"lon":30.04862,"population":31821},{"id":628634,"name":"Dzyarzhynsk","ascii":"Dzyarzhynsk","lat":53.68477,"lon":27.13171,"population":29796},{"id":624034,"name":"Osipovichi","ascii":"Osipovichi","lat":53.30588,"lon":28.62872,"population":29103},{"id":627905,"name":"Horki","ascii":"Horki","lat":54.28606,"lon":30.98604,"population":28961},{"id":629454,"name":"Byaroza","ascii":"Byaroza","lat":52.53129,"lon":24.9782,"population":28376},{"id":624785,"name":"Novogrudok","nameKo":"나바흐루다크","ascii":"Novogrudok","lat":53.5942,"lon":25.8191,"population":27936},{"id":620181,"name":"Vileyka","ascii":"Vileyka","lat":54.4914,"lon":26.9111,"population":26625},{"id":625818,"name":"Luninyets","ascii":"Luninyets","lat":52.24864,"lon":26.80061,"population":23592},{"id":626450,"name":"Krychaw","ascii":"Krychaw","lat":53.71924,"lon":31.71356,"population":23264},{"id":621729,"name":"Smaliavičy","ascii":"Smaliavicy","lat":54.0249,"lon":28.0894,"population":22679},{"id":627800,"name":"Ivatsevichi","ascii":"Ivatsevichi","lat":52.70793,"lon":25.33509,"population":22377},{"id":625409,"name":"Mar’ina Gorka","ascii":"Mar'ina Gorka","lat":53.509,"lon":28.147,"population":20096},{"id":622997,"name":"Pruzhany","ascii":"Pruzhany","lat":52.55464,"lon":24.45483,"population":18994},{"id":623760,"name":"Pastavy","ascii":"Pastavy","lat":55.11676,"lon":26.83263,"population":18618},{"id":6846555,"name":"Fanipol","ascii":"Fanipol","lat":53.74998,"lon":27.33338,"population":18252},{"id":629018,"name":"Dobrush","ascii":"Dobrush","lat":52.41471,"lon":31.31429,"population":18083},{"id":627908,"name":"Hlybokaye","ascii":"Hlybokaye","lat":55.13933,"lon":27.69143,"population":17746},{"id":621266,"name":"Stowbtsy","ascii":"Stowbtsy","lat":53.47994,"lon":26.7351,"population":17737},{"id":619066,"name":"Zaslawye","ascii":"Zaslawye","lat":54.0114,"lon":27.2695,"population":17404},{"id":625743,"name":"Lyepyel’","ascii":"Lyepyel'","lat":54.8814,"lon":28.699,"population":17400},{"id":627083,"name":"Kalodzishchy","ascii":"Kalodzishchy","lat":53.944,"lon":27.7823,"population":17000},{"id":630515,"name":"Oshmyany","ascii":"Oshmyany","lat":54.41815,"lon":25.93734,"population":16787},{"id":629447,"name":"Bykhov","nameKo":"비하프","ascii":"Bykhov","lat":53.52131,"lon":30.23078,"population":16349},{"id":627811,"name":"Ivanovo","ascii":"Ivanovo","lat":52.14724,"lon":25.53198,"population":16172},{"id":624700,"name":"Nesvizh","ascii":"Nesvizh","lat":53.22186,"lon":26.67679,"population":15968},{"id":618815,"name":"Žytkavičy","ascii":"Zytkavicy","lat":52.2168,"lon":27.8561,"population":15950},{"id":625972,"name":"Logoysk","ascii":"Logoysk","lat":54.2064,"lon":27.8512,"population":15565},{"id":622113,"name":"Shchuchyn","ascii":"Shchuchyn","lat":53.6014,"lon":24.7465,"population":15371},{"id":623941,"name":"Astraviec","ascii":"Astraviec","lat":54.61378,"lon":25.95537,"population":15116},{"id":627202,"name":"Klimovichi","ascii":"Klimovichi","lat":53.60492,"lon":31.95632,"population":15020},{"id":8247407,"name":"Lyasny","ascii":"Lyasny","lat":54.0072,"lon":27.6963,"population":15000},{"id":626808,"name":"Kostyukovichi","ascii":"Kostyukovichi","lat":53.35488,"lon":32.05128,"population":14870},{"id":622034,"name":"Shklov","ascii":"Shklov","lat":54.21298,"lon":30.28724,"population":14870},{"id":628884,"name":"Drogichin","ascii":"Drogichin","lat":52.1874,"lon":25.1597,"population":14804},{"id":625367,"name":"Mosty","ascii":"Mosty","lat":53.4122,"lon":24.5387,"population":14447},{"id":618913,"name":"Zhabinka","ascii":"Zhabinka","lat":52.19857,"lon":24.01064,"population":14418},{"id":621277,"name":"Stolin","ascii":"Stolin","lat":51.89115,"lon":26.84597,"population":13785},{"id":627909,"name":"Hantsavichy","ascii":"Hantsavichy","lat":52.75786,"lon":26.4309,"population":13355},{"id":627362,"name":"Khoyniki","ascii":"Khoyniki","lat":51.90773,"lon":29.98258,"population":13167},{"id":625539,"name":"Malorita","ascii":"Malorita","lat":51.79467,"lon":24.07461,"population":12735},{"id":625228,"name":"Mikashevichy","ascii":"Mikashevichy","lat":52.2173,"lon":27.476,"population":12395},{"id":624494,"name":"Novolukoml’","ascii":"Novolukoml'","lat":54.66192,"lon":29.15016,"population":11841},{"id":630166,"name":"Byarozawka","ascii":"Byarozawka","lat":53.72406,"lon":25.49709,"population":11800},{"id":628155,"name":"Gorodok","ascii":"Gorodok","lat":55.4624,"lon":29.98451,"population":11533},{"id":630197,"name":"Bierazino","ascii":"Bierazino","lat":53.8391,"lon":28.9879,"population":11366},{"id":625721,"name":"Lyuban’","ascii":"Lyuban'","lat":52.7985,"lon":28.0048,"population":11339},{"id":627214,"name":"Kletsk","ascii":"Kletsk","lat":53.0635,"lon":26.6321,"population":11248},{"id":630279,"name":"Byelaazyorsk","ascii":"Byelaazyorsk","lat":52.4731,"lon":25.1784,"population":10984},{"id":621396,"name":"Staryye Dorogi","ascii":"Staryye Dorogi","lat":53.0402,"lon":28.267,"population":10898},{"id":620483,"name":"Uzda","ascii":"Uzda","lat":53.4627,"lon":27.2137,"population":10619},{"id":625772,"name":"Lyakhovichi","ascii":"Lyakhovichi","lat":53.03931,"lon":26.26314,"population":10605},{"id":625671,"name":"Machulishchy","ascii":"Machulishchy","lat":53.7788,"lon":27.5948,"population":10583},{"id":626806,"name":"Kastsyukowka","ascii":"Kastsyukowka","lat":52.5387,"lon":30.9173,"population":10552},{"id":629273,"name":"Červień","ascii":"Cervien","lat":53.7059,"lon":28.4313,"population":10545},{"id":623581,"name":"Petrikov","ascii":"Petrikov","lat":52.1299,"lon":28.49625,"population":10401},{"id":630431,"name":"Baran’","ascii":"Baran'","lat":54.47737,"lon":30.30936,"population":10245},{"id":624889,"name":"Mscislau","ascii":"Mscislau","lat":54.0185,"lon":31.7217,"population":10019},{"id":620445,"name":"Volozhin","ascii":"Volozhin","lat":54.08911,"lon":26.52731,"population":10015},{"id":626956,"name":"Kopyl’","ascii":"Kopyl'","lat":53.1516,"lon":27.0913,"population":9985},{"id":629395,"name":"Chausy","nameKo":"차우시","ascii":"Chausy","lat":53.80737,"lon":30.96584,"population":9817},{"id":611866,"name":"Skidel’","ascii":"Skidel'","lat":53.5904,"lon":24.2478,"population":9707},{"id":630245,"name":"Belynichi","ascii":"Belynichi","lat":53.9952,"lon":29.7091,"population":9670},{"id":620833,"name":"Tolochin","ascii":"Tolochin","lat":54.40988,"lon":29.69348,"population":9666},{"id":629640,"name":"Braslav","ascii":"Braslav","lat":55.64387,"lon":27.05715,"population":9419},{"id":8020004,"name":"Druzhny","ascii":"Druzhny","lat":53.6238,"lon":27.8977,"population":8978},{"id":629390,"name":"Chachersk","ascii":"Chachersk","lat":52.9164,"lon":30.9179,"population":8927},{"id":619598,"name":"Yel’sk","ascii":"Yel'sk","lat":51.81363,"lon":29.1544,"population":8724},{"id":620214,"name":"Vyetka","ascii":"Vyetka","lat":52.55428,"lon":31.18067,"population":8599},{"id":629564,"name":"Buda-Kashalyova","ascii":"Buda-Kashalyova","lat":52.71725,"lon":30.5679,"population":8581},{"id":626471,"name":"Krupki","ascii":"Krupki","lat":54.3178,"lon":29.1374,"population":8410},{"id":624799,"name":"Narovlya","ascii":"Narovlya","lat":51.79724,"lon":29.49784,"population":8371},{"id":627711,"name":"Kamenets","ascii":"Kamenets","lat":52.40013,"lon":23.81,"population":8287},{"id":628511,"name":"Hatava","ascii":"Hatava","lat":53.7829,"lon":27.6407,"population":8000},{"id":627272,"name":"Kirovsk","ascii":"Kirovsk","lat":53.27003,"lon":29.47064,"population":7911},{"id":625130,"name":"Miory","ascii":"Miory","lat":55.6222,"lon":27.6281,"population":7835},{"id":629347,"name":"Cherikov","ascii":"Cherikov","lat":53.56855,"lon":31.38467,"population":7800},{"id":628387,"name":"Glusk","ascii":"Glusk","lat":52.90197,"lon":28.68308,"population":7800},{"id":623512,"name":"Plyeshchanitsy","ascii":"Plyeshchanitsy","lat":54.4235,"lon":27.8301,"population":7800},{"id":621838,"name":"Slawharad","ascii":"Slawharad","lat":53.44312,"lon":31.00025,"population":7788},{"id":628658,"name":"Dyatlovo","ascii":"Dyatlovo","lat":53.46215,"lon":25.40757,"population":7767},{"id":629400,"name":"Chashniki","ascii":"Chashniki","lat":54.85096,"lon":29.16645,"population":7736},{"id":620255,"name":"Verkhnedvinsk","ascii":"Verkhnedvinsk","lat":55.77655,"lon":27.93657,"population":7700},{"id":627205,"name":"Kličaŭ","ascii":"Klicau","lat":53.4923,"lon":29.3356,"population":7319},{"id":626621,"name":"Krasnosel’skiy","ascii":"Krasnosel'skiy","lat":53.26494,"lon":24.42398,"population":7300},{"id":626491,"name":"Krugloye","ascii":"Krugloye","lat":54.2531,"lon":29.79567,"population":7300},{"id":621986,"name":"Shumilino","ascii":"Shumilino","lat":55.29841,"lon":29.61279,"population":7223},{"id":624199,"name":"Aktsyabrski","ascii":"Aktsyabrski","lat":52.64844,"lon":28.87993,"population":7173},{"id":622258,"name":"Senno","ascii":"Senno","lat":54.81175,"lon":29.70061,"population":7090},{"id":627793,"name":"Iwye","ascii":"Iwye","lat":53.93173,"lon":25.7763,"population":7089},{"id":620146,"name":"Vishnyeva","ascii":"Vishnyeva","lat":54.7102,"lon":26.5228,"population":7000},{"id":618932,"name":"Zel’va","ascii":"Zel'va","lat":53.14931,"lon":24.81201,"population":7000},{"id":624861,"name":"Myadzyel","ascii":"Myadzyel","lat":54.87894,"lon":26.93619,"population":6949},{"id":628758,"name":"Dubrowna","ascii":"Dubrowna","lat":54.57187,"lon":30.69117,"population":6929},{"id":630136,"name":"Beshenkovichi","ascii":"Beshenkovichi","lat":55.04335,"lon":29.45738,"population":6904},{"id":629002,"name":"Dokshytsy","ascii":"Dokshytsy","lat":54.89097,"lon":27.76654,"population":6696},{"id":626064,"name":"Liozno","ascii":"Liozno","lat":55.0199,"lon":30.7969,"population":6605},{"id":625931,"name":"Loshnitsa","ascii":"Loshnitsa","lat":54.2796,"lon":28.7649,"population":6524},{"id":622849,"name":"Rakaw","ascii":"Rakaw","lat":53.9674,"lon":27.0562,"population":6300},{"id":622877,"name":"Radaškovičy","ascii":"Radaskovicy","lat":54.1554,"lon":27.2412,"population":6214},{"id":622700,"name":"Ross’","ascii":"Ross'","lat":53.28411,"lon":24.40721,"population":6200},{"id":626625,"name":"Krasnapollye","ascii":"Krasnapollye","lat":53.33578,"lon":31.40065,"population":6100},{"id":625907,"name":"Loyev","ascii":"Loyev","lat":51.94115,"lon":30.79343,"population":6075},{"id":621048,"name":"Svislach","ascii":"Svislach","lat":53.03431,"lon":24.09717,"population":6008},{"id":622179,"name":"Sharkovshchina","ascii":"Sharkovshchina","lat":55.36807,"lon":27.46971,"population":6005},{"id":621462,"name":"Starobin","ascii":"Starobin","lat":52.7267,"lon":27.4606,"population":6000},{"id":620540,"name":"Ushachi","ascii":"Ushachi","lat":55.17611,"lon":28.61949,"population":5773},{"id":629986,"name":"Vyalikaya Byerastavitsa","ascii":"Vyalikaya Byerastavitsa","lat":53.19563,"lon":24.01992,"population":5728},{"id":626939,"name":"Korelichi","ascii":"Korelichi","lat":53.5648,"lon":26.1406,"population":5723},{"id":629159,"name":"Davyd-Haradok","ascii":"Davyd-Haradok","lat":52.0566,"lon":27.2161,"population":5715},{"id":619979,"name":"Voronovo","ascii":"Voronovo","lat":54.15387,"lon":25.31226,"population":5624},{"id":622690,"name":"Rossony","ascii":"Rossony","lat":55.90603,"lon":28.81332,"population":5400},{"id":8247399,"name":"Chyst’","ascii":"Chyst'","lat":54.2698,"lon":27.1067,"population":5300},{"id":621732,"name":"Smilavičy","ascii":"Smilavicy","lat":53.7496,"lon":28.0115,"population":5200},{"id":8247183,"name":"Borovlyany","ascii":"Borovlyany","lat":54.0022,"lon":27.6754,"population":5000},{"id":628317,"name":"Hal’shany","ascii":"Hal'shany","lat":54.2585,"lon":26.0144,"population":5000},{"id":622274,"name":"Syenitsa","ascii":"Syenitsa","lat":53.8313,"lon":27.5343,"population":5000},{"id":618883,"name":"Zhdanovichy","ascii":"Zhdanovichy","lat":53.9432,"lon":27.425,"population":5000},{"id":8285492,"name":"Michanovichi","ascii":"Michanovichi","lat":53.73937,"lon":27.69276,"population":4800},{"id":626660,"name":"Chyrvonaya Slabada","ascii":"Chyrvonaya Slabada","lat":52.8522,"lon":27.1698,"population":4700},{"id":629646,"name":"Bragin","ascii":"Bragin","lat":51.79067,"lon":30.26709,"population":4570},{"id":619818,"name":"Vysokaye","ascii":"Vysokaye","lat":52.37091,"lon":23.37083,"population":4496},{"id":627123,"name":"Kokhanovo","ascii":"Kokhanovo","lat":54.46061,"lon":29.99935,"population":4300},{"id":627798,"name":"Ivyanyets","ascii":"Ivyanyets","lat":53.8864,"lon":26.7432,"population":4206},{"id":8020001,"name":"Svislach","ascii":"Svislach","lat":53.6404,"lon":27.9199,"population":4200},{"id":624908,"name":"Motal’","ascii":"Motal'","lat":52.3138,"lon":25.6072,"population":4079},{"id":629471,"name":"Buynichy","ascii":"Buynichy","lat":53.8536,"lon":30.2671,"population":4000},{"id":626992,"name":"Konstantinovo","ascii":"Konstantinovo","lat":54.66036,"lon":29.2676,"population":3800},{"id":620945,"name":"Tsyelyakhany","ascii":"Tsyelyakhany","lat":52.5175,"lon":25.8429,"population":3701},{"id":628182,"name":"Haradzyeya","ascii":"Haradzyeya","lat":53.3121,"lon":26.538,"population":3601},{"id":793279,"name":"Bolbasovo","ascii":"Bolbasovo","lat":54.4168,"lon":30.28839,"population":3600},{"id":8247409,"name":"Bal’shavik","ascii":"Bal'shavik","lat":54.0036,"lon":27.5669,"population":3470},{"id":624804,"name":"Narach","ascii":"Narach","lat":54.9102,"lon":26.708,"population":3400},{"id":624805,"name":"Narach","ascii":"Narach","lat":54.5652,"lon":26.7314,"population":3400},{"id":620558,"name":"Urechcha","ascii":"Urechcha","lat":52.9479,"lon":27.893,"population":3300},{"id":620425,"name":"Vasilyevichy","ascii":"Vasilyevichy","lat":52.2512,"lon":29.8288,"population":3220},{"id":626548,"name":"Kreva","ascii":"Kreva","lat":54.3118,"lon":26.2916,"population":3100},{"id":620676,"name":"Turaŭ","ascii":"Turau","lat":52.0683,"lon":27.735,"population":3100},{"id":8019803,"name":"Yubilyeyny","ascii":"Yubilyeyny","lat":53.8191,"lon":27.5215,"population":3000},{"id":628865,"name":"Drybin","ascii":"Drybin","lat":54.12063,"lon":31.09037,"population":2900},{"id":626610,"name":"Krasnaye","ascii":"Krasnaye","lat":54.2438,"lon":27.0758,"population":2900},{"id":623129,"name":"Prawdzinski","ascii":"Prawdzinski","lat":53.5248,"lon":27.8303,"population":2900},{"id":622614,"name":"Rudzyensk","ascii":"Rudzyensk","lat":53.5983,"lon":27.8621,"population":2900},{"id":626266,"name":"Lahishyn","ascii":"Lahishyn","lat":52.339,"lon":25.9867,"population":2800},{"id":622971,"name":"Puchavičy","ascii":"Puchavicy","lat":53.5297,"lon":28.2467,"population":2800},{"id":622500,"name":"Ruzhany","ascii":"Ruzhany","lat":52.86322,"lon":24.89357,"population":2777},{"id":628175,"name":"Haradzishcha","ascii":"Haradzishcha","lat":53.3247,"lon":26.0107,"population":2600},{"id":621700,"name":"Snow","ascii":"Snow","lat":53.2201,"lon":26.401,"population":2600},{"id":619616,"name":"Yalizava","ascii":"Yalizava","lat":53.3994,"lon":29.0048,"population":2600},{"id":629697,"name":"Baruny","ascii":"Baruny","lat":54.3171,"lon":26.1376,"population":2500},{"id":622420,"name":"Samakhvalavichy","ascii":"Samakhvalavichy","lat":53.7396,"lon":27.5037,"population":2500},{"id":621605,"name":"Sasnovy Bor","ascii":"Sasnovy Bor","lat":52.5194,"lon":29.5988,"population":2500},{"id":619217,"name":"Zamostochye","ascii":"Zamostochye","lat":53.8198,"lon":27.8685,"population":2500},{"id":630343,"name":"Byahoml’","ascii":"Byahoml'","lat":54.7316,"lon":28.0577,"population":2457},{"id":8019924,"name":"Enyerhyetykaw","ascii":"Enyerhyetykaw","lat":53.5871,"lon":27.0535,"population":2445},{"id":623956,"name":"Astrashytski Haradok","ascii":"Astrashytski Haradok","lat":54.0651,"lon":27.695,"population":2390},{"id":629338,"name":"Charnawchytsy","ascii":"Charnawchytsy","lat":52.21948,"lon":23.74043,"population":2372},{"id":626598,"name":"Krasnyy Bereg","ascii":"Krasnyy Bereg","lat":53.3291,"lon":30.1929,"population":2359},{"id":623788,"name":"Parychy","ascii":"Parychy","lat":52.8042,"lon":29.4176,"population":2300},{"id":8256270,"name":"Октябрьский","ascii":"Oktjabr'skij","lat":54.04059,"lon":28.19813,"population":2300},{"id":625128,"name":"Mir","ascii":"Mir","lat":53.4544,"lon":26.467,"population":2238},{"id":624297,"name":"Novy Svyerzhan’","ascii":"Novy Svyerzhan'","lat":53.4542,"lon":26.7301,"population":2200},{"id":624584,"name":"Novaya Huta","ascii":"Novaya Huta","lat":52.1032,"lon":30.9837,"population":2159},{"id":629829,"name":"Vyaliki Trastsyanets","ascii":"Vyaliki Trastsyanets","lat":53.851,"lon":27.7139,"population":2100},{"id":624842,"name":"Myshkavichy","ascii":"Myshkavichy","lat":53.2172,"lon":29.512,"population":2000},{"id":8331420,"name":"Posëlok Voskhod","ascii":"Poselok Voskhod","lat":53.7766,"lon":30.3497,"population":2000},{"id":8019860,"name":"Pryvol’ny","ascii":"Pryvol'ny","lat":53.7969,"lon":27.7967,"population":2000},{"id":627451,"name":"Khodosy","ascii":"Khodosy","lat":53.92681,"lon":31.47882,"population":1990},{"id":623577,"name":"Pyatryshki","ascii":"Pyatryshki","lat":54.0686,"lon":27.2179,"population":1946},{"id":626829,"name":"Kosava","nameKo":"코사바","ascii":"Kosava","lat":52.7583,"lon":25.1554,"population":1862},{"id":621543,"name":"Stan’kava","ascii":"Stan'kava","lat":53.6292,"lon":27.229,"population":1850},{"id":628923,"name":"Dowsk","ascii":"Dowsk","lat":53.1571,"lon":30.4601,"population":1840},{"id":621641,"name":"Soly","ascii":"Soly","lat":54.51301,"lon":26.19381,"population":1840},{"id":8019799,"name":"Schomyslitsa","ascii":"Schomyslitsa","lat":53.8211,"lon":27.4522,"population":1822},{"id":621817,"name":"Slabada","ascii":"Slabada","lat":54.0087,"lon":27.8866,"population":1819},{"id":625245,"name":"Myazhysyatki","ascii":"Myazhysyatki","lat":53.7776,"lon":30.1765,"population":1807},{"id":627878,"name":"Iĺja","ascii":"Ilja","lat":54.4167,"lon":27.2958,"population":1800},{"id":618818,"name":"Zhirovichi","ascii":"Zhirovichi","lat":53.0131,"lon":25.3443,"population":1800},{"id":630089,"name":"Blon’","ascii":"Blon'","lat":53.5269,"lon":28.1732,"population":1780},{"id":624318,"name":"Kadino","ascii":"Kadino","lat":53.88389,"lon":30.52028,"population":1753},{"id":620205,"name":"Veyno","ascii":"Veyno","lat":53.83333,"lon":30.38333,"population":1717},{"id":626738,"name":"Kazhan-Haradok","ascii":"Kazhan-Haradok","lat":52.2073,"lon":27.0094,"population":1700},{"id":629663,"name":"Turets-Bayary","ascii":"Turets-Bayary","lat":54.3785,"lon":26.6581,"population":1602},{"id":625737,"name":"Lyntupy","ascii":"Lyntupy","lat":55.0516,"lon":26.3103,"population":1600},{"id":816218,"name":"Palykavichy Pyershyya","ascii":"Palykavichy Pyershyya","lat":53.9854,"lon":30.36,"population":1572},{"id":620191,"name":"Vidzy","ascii":"Vidzy","lat":55.3945,"lon":26.6305,"population":1563},{"id":623904,"name":"Ostryna","ascii":"Ostryna","lat":53.7322,"lon":24.5305,"population":1533},{"id":629163,"name":"Dashkawka","ascii":"Dashkawka","lat":53.7352,"lon":30.2625,"population":1528},{"id":622279,"name":"Syomkava","ascii":"Syomkava","lat":54.0101,"lon":27.441,"population":1522},{"id":628871,"name":"Druja","ascii":"Druja","lat":55.7906,"lon":27.4505,"population":1500},{"id":629055,"name":"Dzisna","ascii":"Dzisna","lat":55.5676,"lon":28.2076,"population":1500},{"id":628478,"name":"Hyeranyony","ascii":"Hyeranyony","lat":54.1159,"lon":25.5773,"population":1500},{"id":556386,"name":"Indura","ascii":"Indura","lat":53.4605,"lon":23.8823,"population":1500},{"id":627664,"name":"Kamyennyya Lavy","ascii":"Kamyennyya Lavy","lat":54.0898,"lon":30.2962,"population":1500},{"id":624965,"name":"Mosar","ascii":"Mosar","lat":55.22652,"lon":27.46476,"population":1500},{"id":8256205,"name":"Usiazh","ascii":"Usiazh","lat":54.07598,"lon":28.00698,"population":1500},{"id":630543,"name":"Antopal’","ascii":"Antopal'","lat":52.2038,"lon":24.7863,"population":1428},{"id":8178450,"name":"Peramoga","ascii":"Peramoga","lat":52.3973,"lon":31.071,"population":1423},{"id":628397,"name":"Hlusha","ascii":"Hlusha","lat":53.0868,"lon":28.8567,"population":1400},{"id":8247406,"name":"Lyeskawka","ascii":"Lyeskawka","lat":54.0024,"lon":27.7108,"population":1400},{"id":627424,"name":"Kholopenichi","ascii":"Kholopenichi","lat":54.51746,"lon":28.95645,"population":1385},{"id":622406,"name":"Sarachy","ascii":"Sarachy","lat":52.7867,"lon":28.0186,"population":1350},{"id":815847,"name":"Ramanavichy","ascii":"Ramanavichy","lat":53.8653,"lon":30.5597,"population":1341},{"id":618723,"name":"Znamenka","ascii":"Znamenka","lat":51.88168,"lon":23.65545,"population":1324},{"id":625853,"name":"Luhavaya Slabada","ascii":"Luhavaya Slabada","lat":53.7823,"lon":27.8434,"population":1306},{"id":623902,"name":"Asvieja","ascii":"Asvieja","lat":56.0147,"lon":28.11049,"population":1300},{"id":628727,"name":"Dukora","ascii":"Dukora","lat":53.6786,"lon":27.94,"population":1300},{"id":621058,"name":"Svir","ascii":"Svir","lat":54.8517,"lon":26.395,"population":1300},{"id":620869,"name":"Tsimkavichy","ascii":"Tsimkavichy","lat":53.0672,"lon":26.9902,"population":1299},{"id":626523,"name":"Kryvichy","ascii":"Kryvichy","lat":54.7132,"lon":27.2886,"population":1298},{"id":624418,"name":"Novosel’ye","ascii":"Novosel'ye","lat":53.9162,"lon":27.2009,"population":1269},{"id":624612,"name":"Nasilava","ascii":"Nasilava","lat":54.30441,"lon":26.78209,"population":1259},{"id":8019846,"name":"Atolina","ascii":"Atolina","lat":53.7817,"lon":27.4346,"population":1253},{"id":627524,"name":"Khal’ch","ascii":"Khal'ch","lat":52.5643,"lon":31.1364,"population":1249},{"id":623855,"name":"Azyartso","ascii":"Azyartso","lat":53.8397,"lon":27.3917,"population":1247},{"id":620141,"name":"Vishow","ascii":"Vishow","lat":53.9805,"lon":29.9925,"population":1224},{"id":627659,"name":"Kamyanyuki","ascii":"Kamyanyuki","lat":52.55757,"lon":23.80525,"population":1200},{"id":624753,"name":"Nyakhachava","ascii":"Nyakhachava","lat":52.644,"lon":25.2027,"population":1200},{"id":624012,"name":"Asnyezhytsy","ascii":"Asnyezhytsy","lat":52.1891,"lon":26.1299,"population":1185},{"id":8019679,"name":"Khatsyezhyna","ascii":"Khatsyezhyna","lat":53.9094,"lon":27.3069,"population":1145},{"id":628968,"name":"Damachava","ascii":"Damachava","lat":51.75,"lon":23.6,"population":1142},{"id":626933,"name":"Karanyowka","ascii":"Karanyowka","lat":52.3506,"lon":31.1121,"population":1141},{"id":630070,"name":"Bobr","ascii":"Bobr","lat":54.33992,"lon":29.27288,"population":1100},{"id":628112,"name":"Hotsk","ascii":"Hotsk","lat":52.5215,"lon":27.1385,"population":1100},{"id":626895,"name":"Korolëv Stan","ascii":"Korolev Stan","lat":53.9865,"lon":27.7982,"population":1033},{"id":618863,"name":"Zhaludok","ascii":"Zhaludok","lat":53.5974,"lon":24.9828,"population":1017},{"id":629468,"name":"Buynovichi","ascii":"Buynovichi","lat":51.8682,"lon":28.54247,"population":0},{"id":828920,"name":"Horad Krychaw","ascii":"Horad Krychaw","lat":53.69889,"lon":31.71417,"population":0},{"id":627381,"name":"Khotimsk","ascii":"Khotimsk","lat":53.40843,"lon":32.57949,"population":0},{"id":626917,"name":"Korma","ascii":"Korma","lat":53.1301,"lon":30.8016,"population":0},{"id":626188,"name":"Lel’chitsy","ascii":"Lel'chitsy","lat":51.78613,"lon":28.32824,"population":0},{"id":13192474,"name":"Rahozna","ascii":"Rahozna","lat":52.15732,"lon":24.08434,"population":0},{"id":621286,"name":"Stodolichi","ascii":"Stodolichi","lat":51.73114,"lon":28.49106,"population":0}]