[{"id":3582677,"name":"Belize City","nameKo":"벨리즈시티","ascii":"Belize City","lat":17.49952,"lon":-88.19756,"population":65222},{"id":3581164,"name":"San Pedro","ascii":"San Pedro","lat":17.91598,"lon":-87.9659,"population":17429},{"id":3581514,"name":"Orange Walk","ascii":"Orange Walk","lat":18.08124,"lon":-88.56328,"population":15298},{"id":3582672,"name":"Belmopan","nameKo":"벨모판","ascii":"Belmopan","lat":17.25376,"lon":-88.76401,"population":13381},{"id":3581194,"name":"San Ignacio","nameKo":"샌이그나시오","ascii":"San Ignacio","lat":17.1588,"lon":-89.0696,"population":12621},{"id":3582228,"name":"Dangriga","ascii":"Dangriga","lat":16.9697,"lon":-88.23313,"population":9927},{"id":3582305,"name":"Corozal","ascii":"Corozal","lat":18.39375,"lon":-88.38849,"population":9815},{"id":3581143,"name":"Santa Elena","ascii":"Santa Elena","lat":17.16142,"lon":-89.05462,"population":8587},{"id":3581851,"name":"Ladyville","ascii":"Ladyville","lat":17.55427,"lon":-88.29,"population":7655},{"id":3582662,"name":"Benque Viejo el Carmen","ascii":"Benque Viejo el Carmen","lat":17.075,"lon":-89.13917,"population":7160},{"id":13286766,"name":"Bella Vista","ascii":"Bella Vista","lat":16.50948,"lon":-88.53169,"population":6259},{"id":3580895,"name":"Trial Farm","ascii":"Trial Farm","lat":18.10124,"lon":-88.56584,"population":5850},{"id":3581398,"name":"Punta Gorda","ascii":"Punta Gorda","lat":16.09835,"lon":-88.8097,"population":5406},{"id":3581905,"name":"Independence and Mango Creek","ascii":"Independence and Mango Creek","lat":16.5344,"lon":-88.41878,"population":4878},{"id":3581782,"name":"Lord’s Bank","ascii":"Lord's Bank","lat":17.54462,"lon":-88.33328,"population":4876},{"id":3581447,"name":"Placencia","ascii":"Placencia","lat":16.51419,"lon":-88.36647,"population":4300},{"id":3581066,"name":"Shipyard","ascii":"Shipyard","lat":17.89382,"lon":-88.65452,"population":4070},{"id":3582524,"name":"Bullet Tree Falls","ascii":"Bullet Tree Falls","lat":17.168,"lon":-89.111,"population":3932},{"id":3581984,"name":"Guinea Grass","ascii":"Guinea Grass","lat":17.96704,"lon":-88.59837,"population":3821},{"id":3581112,"name":"Sarteneja","ascii":"Sarteneja","lat":18.35334,"lon":-88.14541,"population":3550},{"id":3581187,"name":"San Jose","ascii":"San Jose","lat":18.1958,"lon":-88.57121,"population":3499},{"id":3830322,"name":"Valley of Peace","ascii":"Valley of Peace","lat":17.33472,"lon":-88.83472,"population":3246},{"id":3582482,"name":"Camelote","ascii":"Camelote","lat":17.23882,"lon":-88.82738,"population":3132},{"id":3580986,"name":"Spanish Lookout","ascii":"Spanish Lookout","lat":17.26278,"lon":-89.00917,"population":3108},{"id":13286761,"name":"Santa Cruz","ascii":"Santa Cruz","lat":16.6975,"lon":-88.42548,"population":3008},{"id":3581813,"name":"Little Belize","ascii":"Little Belize","lat":18.198,"lon":-88.40792,"population":2888},{"id":3581169,"name":"San Narciso","ascii":"San Narciso","lat":18.30396,"lon":-88.52085,"population":2784},{"id":3581221,"name":"San Antonio","ascii":"San Antonio","lat":17.07861,"lon":-89.02361,"population":2738},{"id":3582431,"name":"Caye Caulker","ascii":"Caye Caulker","lat":17.73659,"lon":-88.02761,"population":2729},{"id":3581050,"name":"Silk Grass","ascii":"Silk Grass","lat":16.88333,"lon":-88.33333,"population":2627},{"id":3582514,"name":"Burrell Boom","ascii":"Burrell Boom","lat":17.56933,"lon":-88.40527,"population":2615},{"id":3581142,"name":"Santa Familia","ascii":"Santa Familia","lat":17.18594,"lon":-89.07435,"population":2600},{"id":3581304,"name":"Roaring Creek","ascii":"Roaring Creek","lat":17.25947,"lon":-88.79617,"population":2430},{"id":3581184,"name":"San Jose Soccoths","ascii":"San Jose Soccoths","lat":17.08454,"lon":-89.13007,"population":2424},{"id":13118144,"name":"Armenia","ascii":"Armenia","lat":17.1553,"lon":-88.7464,"population":2421},{"id":3582294,"name":"Cotton Tree","ascii":"Cotton Tree","lat":17.27357,"lon":-88.71397,"population":2338},{"id":3581351,"name":"Red Bank Village","ascii":"Red Bank Village","lat":16.61645,"lon":-88.55911,"population":2323},{"id":8695375,"name":"San Roman Village","ascii":"San Roman Village","lat":16.65281,"lon":-88.47416,"population":2195},{"id":3581968,"name":"Hattieville","ascii":"Hattieville","lat":17.44779,"lon":-88.39355,"population":2184},{"id":3581208,"name":"Sand Hill","ascii":"Sand Hill","lat":17.64038,"lon":-88.36828,"population":2168},{"id":3582733,"name":"August Pine Ridge","ascii":"August Pine Ridge","lat":17.9725,"lon":-88.72489,"population":2160},{"id":3581185,"name":"San Jose Palmar","ascii":"San Jose Palmar","lat":18.06204,"lon":-88.5635,"population":2146},{"id":3581436,"name":"Pomona","ascii":"Pomona","lat":16.99514,"lon":-88.37424,"population":2122},{"id":3581203,"name":"San Estevan","ascii":"San Estevan","lat":18.15413,"lon":-88.51129,"population":2115},{"id":3580937,"name":"Teakettle Village","ascii":"Teakettle Village","lat":17.2295,"lon":-88.85499,"population":1999},{"id":8695374,"name":"Santa Rosa Village","ascii":"Santa Rosa Village","lat":16.6662,"lon":-88.45437,"population":1958},{"id":3582454,"name":"Carmelita","ascii":"Carmelita","lat":18.01306,"lon":-88.5429,"population":1936},{"id":3581199,"name":"San Felipe","ascii":"San Felipe","lat":17.873,"lon":-88.77334,"population":1898},{"id":3581089,"name":"Seine Bight Village","ascii":"Seine Bight Village","lat":16.56943,"lon":-88.36493,"population":1895},{"id":3580772,"name":"Yo Creek","ascii":"Yo Creek","lat":18.09098,"lon":-88.64607,"population":1885},{"id":3582373,"name":"Chunox","ascii":"Chunox","lat":18.29785,"lon":-88.35746,"population":1821},{"id":3580799,"name":"Xaibe","ascii":"Xaibe","lat":18.38654,"lon":-88.43393,"population":1783},{"id":3581922,"name":"Hopkins","ascii":"Hopkins","lat":16.86308,"lon":-88.28437,"population":1767},{"id":8695455,"name":"Trio Village","ascii":"Trio Village","lat":16.51529,"lon":-88.63577,"population":1726},{"id":3581367,"name":"Ranchito","ascii":"Ranchito","lat":18.37753,"lon":-88.41031,"population":1649},{"id":3582287,"name":"Cowpen","ascii":"Cowpen","lat":16.56667,"lon":-88.53333,"population":1582},{"id":3581193,"name":"San Joaquin","ascii":"San Joaquin","lat":18.35271,"lon":-88.44199,"population":1528},{"id":3581490,"name":"Patchchacan","ascii":"Patchchacan","lat":18.40056,"lon":-88.4715,"population":1517},{"id":3581821,"name":"Libertad","ascii":"Libertad","lat":18.30791,"lon":-88.45444,"population":1489},{"id":3582329,"name":"Concepcion","ascii":"Concepcion","lat":18.32308,"lon":-88.47419,"population":1481},{"id":3581166,"name":"San Pedro","ascii":"San Pedro","lat":16.27153,"lon":-88.95437,"population":1454},{"id":3581222,"name":"San Antonio","ascii":"San Antonio","lat":16.24361,"lon":-89.02417,"population":1447},{"id":13286683,"name":"Western Paradise","ascii":"Western Paradise","lat":17.47088,"lon":-88.29546,"population":1414},{"id":11049077,"name":"St. Margaret","ascii":"St. Margaret","lat":17.09047,"lon":-88.61096,"population":1405},{"id":3581416,"name":"Progresso","ascii":"Progresso","lat":18.23085,"lon":-88.41073,"population":1403},{"id":13286695,"name":"St. Matthew's","ascii":"St. Matthew's","lat":17.27431,"lon":-88.64432,"population":1398},{"id":3582487,"name":"Caledonia","ascii":"Caledonia","lat":18.22735,"lon":-88.47745,"population":1373},{"id":3581498,"name":"Paraiso","ascii":"Paraiso","lat":18.40783,"lon":-88.39422,"population":1267},{"id":3581723,"name":"Maskall","ascii":"Maskall","lat":17.87788,"lon":-88.31174,"population":1260},{"id":3582262,"name":"Cristo Rey","ascii":"Cristo Rey","lat":17.13139,"lon":-89.055,"population":1254},{"id":13286724,"name":"Hope Creek","ascii":"Hope Creek","lat":17.00265,"lon":-88.31251,"population":1244},{"id":3581226,"name":"San Andres","ascii":"San Andres","lat":18.38922,"lon":-88.40939,"population":1243},{"id":3581168,"name":"San Pablo","ascii":"San Pablo","lat":18.21061,"lon":-88.56605,"population":1238},{"id":3580873,"name":"Unitedville","ascii":"Unitedville","lat":17.21031,"lon":-88.93385,"population":1232},{"id":3581178,"name":"San Lazaro","ascii":"San Lazaro","lat":18.03849,"lon":-88.66316,"population":1210},{"id":3582137,"name":"Esperanza","ascii":"Esperanza","lat":17.17453,"lon":-89.04415,"population":1162},{"id":3581129,"name":"San Victor","ascii":"San Victor","lat":18.25864,"lon":-88.57601,"population":1094},{"id":13286649,"name":"Indian Creek","ascii":"Indian Creek","lat":17.75224,"lon":-88.71922,"population":1080},{"id":13286640,"name":"Neuland","ascii":"Neuland","lat":18.0519,"lon":-88.24824,"population":1080},{"id":13286684,"name":"Billy White","ascii":"Billy White","lat":17.21124,"lon":-89.0503,"population":1057},{"id":8695460,"name":"San Juan","ascii":"San Juan","lat":16.56232,"lon":-88.51528,"population":1039}]