[{"id":2314302,"name":"Kinshasa","nameKo":"킨샤사","ascii":"Kinshasa","lat":-4.32758,"lon":15.31357,"population":16000000},{"id":922704,"name":"Lubumbashi","nameKo":"루붐바시","ascii":"Lubumbashi","lat":-11.66089,"lon":27.47938,"population":2221925},{"id":209228,"name":"Mbuji-Mayi","ascii":"Mbuji-Mayi","lat":-6.13603,"lon":23.58979,"population":2101332},{"id":214481,"name":"Kananga","nameKo":"카낭가","ascii":"Kananga","lat":-5.89624,"lon":22.41659,"population":1247168},{"id":212730,"name":"Kisangani","nameKo":"키상가니","ascii":"Kisangani","lat":0.51528,"lon":25.19099,"population":1181788},{"id":217831,"name":"Bukavu","ascii":"Bukavu","lat":-2.49077,"lon":28.84281,"population":816811},{"id":922773,"name":"Kolwezi","ascii":"Kolwezi","lat":-10.71484,"lon":25.46674,"population":790248},{"id":922741,"name":"Likasi","nameKo":"리카시","ascii":"Likasi","lat":-10.98303,"lon":26.7384,"population":635768},{"id":204953,"name":"Tshikapa","ascii":"Tshikapa","lat":-6.41621,"lon":20.79995,"population":634529},{"id":2314705,"name":"Kikwit","nameKo":"키퀴트","ascii":"Kikwit","lat":-5.04098,"lon":18.81619,"population":509367},{"id":2593460,"name":"Masina","ascii":"Masina","lat":-4.38361,"lon":15.39139,"population":485167},{"id":2312895,"name":"Mbandaka","nameKo":"음반다카","ascii":"Mbandaka","lat":0.04865,"lon":18.26034,"population":455011},{"id":216281,"name":"Goma","nameKo":"고마","ascii":"Goma","lat":-1.67409,"lon":29.22845,"population":432587},{"id":2313002,"name":"Matadi","nameKo":"마타디","ascii":"Matadi","lat":-5.83861,"lon":13.46306,"population":425662},{"id":204405,"name":"Uvira","ascii":"Uvira","lat":-3.39534,"lon":29.13779,"population":407092},{"id":217695,"name":"Bunia","ascii":"Bunia","lat":1.55941,"lon":30.25224,"population":399282},{"id":2316702,"name":"Boma","nameKo":"보마","ascii":"Boma","lat":-5.85098,"lon":13.05364,"population":297009},{"id":8461573,"name":"Mwene","ascii":"Mwene","lat":-9.81697,"lon":22.87023,"population":295683},{"id":217562,"name":"Butembo","ascii":"Butembo","lat":0.14164,"lon":29.29117,"population":286242},{"id":215771,"name":"Isiro","ascii":"Isiro","lat":2.77391,"lon":27.61603,"population":255409},{"id":212902,"name":"Kindu","nameKo":"킨두","ascii":"Kindu","lat":-2.94373,"lon":25.92237,"population":234651},{"id":215527,"name":"Kabinda","ascii":"Kabinda","lat":-6.13791,"lon":24.48179,"population":219396},{"id":216449,"name":"Gandajika","ascii":"Gandajika","lat":-6.74504,"lon":23.95328,"population":208051},{"id":2317397,"name":"Bandundu Province","nameKo":"반둔두 주","ascii":"Bandundu Province","lat":-3.31687,"lon":17.38063,"population":202904},{"id":214614,"name":"Kamina","ascii":"Kamina","lat":-8.73508,"lon":24.99798,"population":200184},{"id":2315728,"name":"Gemena","ascii":"Gemena","lat":3.25651,"lon":19.77234,"population":197159},{"id":207570,"name":"Mwene-Ditu","ascii":"Mwene-Ditu","lat":-7.00906,"lon":23.45278,"population":189177},{"id":922806,"name":"Kipushi","ascii":"Kipushi","lat":-11.76097,"lon":27.25135,"population":169635},{"id":214974,"name":"Kalemie","nameKo":"칼레미","ascii":"Kalemie","lat":-5.94749,"lon":29.19471,"population":160961},{"id":217745,"name":"Bumba","nameKo":"붐바","ascii":"Bumba","lat":2.18771,"lon":22.46827,"population":154586},{"id":2312888,"name":"Mbanza-Ngungu","ascii":"Mbanza-Ngungu","lat":-5.25837,"lon":14.85838,"population":142773},{"id":219057,"name":"Beni","ascii":"Beni","lat":0.49113,"lon":29.47306,"population":140731},{"id":2312393,"name":"Moanda","ascii":"Moanda","lat":-5.92753,"lon":12.37148,"population":128804},{"id":211734,"name":"Lisala","ascii":"Lisala","lat":2.15127,"lon":21.51672,"population":117464},{"id":215976,"name":"Ilebo","ascii":"Ilebo","lat":-4.33111,"lon":20.58638,"population":117245},{"id":922083,"name":"Tshilenge","ascii":"Tshilenge","lat":-10.96667,"lon":22.9,"population":116073},{"id":2315419,"name":"Inkisi","ascii":"Inkisi","lat":-5.13122,"lon":15.0541,"population":115317},{"id":217834,"name":"Bukama","ascii":"Bukama","lat":-9.20443,"lon":25.85475,"population":105530},{"id":220075,"name":"Bakwa","ascii":"Bakwa","lat":4.1263,"lon":27.39527,"population":100575},{"id":923058,"name":"Kambove","ascii":"Kambove","lat":-10.87352,"lon":26.59746,"population":99884},{"id":218855,"name":"Binga","ascii":"Binga","lat":2.37351,"lon":20.49769,"population":96790},{"id":211647,"name":"Lodja","ascii":"Lodja","lat":-3.52105,"lon":23.6005,"population":91409},{"id":213666,"name":"Katwa","ascii":"Katwa","lat":0.08928,"lon":29.30858,"population":89352},{"id":208182,"name":"Mulongo","ascii":"Mulongo","lat":-7.83486,"lon":26.99852,"population":89340},{"id":2315579,"name":"Idiofa","ascii":"Idiofa","lat":-4.96589,"lon":19.59151,"population":87882},{"id":212360,"name":"Kongolo","ascii":"Kongolo","lat":-5.38532,"lon":27.00029,"population":86932},{"id":206047,"name":"Rutshuru","ascii":"Rutshuru","lat":-1.18666,"lon":29.44669,"population":82680},{"id":209598,"name":"Manono","ascii":"Manono","lat":-7.29862,"lon":27.39894,"population":82465},{"id":220121,"name":"Babamba","ascii":"Babamba","lat":0.18333,"lon":27.48333,"population":81740},{"id":213940,"name":"Kasongo","ascii":"Kasongo","lat":-4.42741,"lon":26.66656,"population":81629},{"id":2316259,"name":"Bulungu","ascii":"Bulungu","lat":-4.54437,"lon":18.60364,"population":81393},{"id":207596,"name":"Mweka","ascii":"Mweka","lat":-4.85187,"lon":21.5595,"population":81267},{"id":215668,"name":"Kabalo","ascii":"Kabalo","lat":-6.05255,"lon":26.9143,"population":81191},{"id":209000,"name":"Baudhuinville","ascii":"Baudhuinville","lat":-7.08408,"lon":29.73681,"population":81181},{"id":217570,"name":"Buta","ascii":"Buta","lat":2.78582,"lon":24.72997,"population":80751},{"id":214390,"name":"Kanyama","ascii":"Kanyama","lat":-7.51668,"lon":24.17404,"population":80043},{"id":209161,"name":"Miabi","ascii":"Miabi","lat":-6.22149,"lon":23.39254,"population":79929},{"id":2316770,"name":"Bolenge","ascii":"Bolenge","lat":0,"lon":18.21667,"population":79648},{"id":2314523,"name":"Kimpese","ascii":"Kimpese","lat":-5.5615,"lon":14.43159,"population":79539},{"id":219414,"name":"Basoko","ascii":"Basoko","lat":1.23909,"lon":23.61598,"population":76371},{"id":8329635,"name":"Hyosha","ascii":"Hyosha","lat":0.69781,"lon":29.51863,"population":74502},{"id":216404,"name":"Gbadolite","ascii":"Gbadolite","lat":4.279,"lon":21.00284,"population":73835},{"id":214925,"name":"Kalima","ascii":"Kalima","lat":-5.4854,"lon":28.21601,"population":72327},{"id":2315417,"name":"Inongo","ascii":"Inongo","lat":-1.9275,"lon":18.2881,"population":68852},{"id":9946557,"name":"Kituku","ascii":"Kituku","lat":-7.58157,"lon":30.20604,"population":66378},{"id":2311127,"name":"Tshela","ascii":"Tshela","lat":-4.99707,"lon":12.9484,"population":64210},{"id":2313084,"name":"Mangai","ascii":"Mangai","lat":-4.02328,"lon":19.53385,"population":63713},{"id":2314935,"name":"Kenge","ascii":"Kenge","lat":-5.76521,"lon":13.65711,"population":63317},{"id":206847,"name":"Nyunzu","ascii":"Nyunzu","lat":-5.95609,"lon":28.01649,"population":62565},{"id":2311968,"name":"Nioki","ascii":"Nioki","lat":-2.72037,"lon":17.69001,"population":62153},{"id":203717,"name":"Yangambi","ascii":"Yangambi","lat":0.76755,"lon":24.43973,"population":62082},{"id":220448,"name":"Aketi","nameKo":"아케티","ascii":"Aketi","lat":2.73877,"lon":23.78326,"population":61437},{"id":2312249,"name":"Mushie","ascii":"Mushie","lat":-3.01728,"lon":16.92238,"population":61336},{"id":2313874,"name":"Kutu","ascii":"Kutu","lat":-2.7249,"lon":18.14756,"population":56061},{"id":2316091,"name":"Dibaya-Lubwe","ascii":"Dibaya-Lubwe","lat":-4.15869,"lon":19.8619,"population":55672},{"id":11905965,"name":"Mangina","ascii":"Mangina","lat":0.60419,"lon":29.31004,"population":55439},{"id":210399,"name":"Luputa","ascii":"Luputa","lat":-7.16177,"lon":23.70057,"population":54676},{"id":212760,"name":"Kirumba","ascii":"Kirumba","lat":-1.09056,"lon":29.2925,"population":52041},{"id":213576,"name":"Kayna","ascii":"Kayna","lat":-0.60927,"lon":29.17249,"population":51103},{"id":218680,"name":"Boende","ascii":"Boende","lat":-0.28163,"lon":20.88053,"population":50794},{"id":923186,"name":"Fungurume","ascii":"Fungurume","lat":-10.61771,"lon":26.32107,"population":50100},{"id":210379,"name":"Lusambo","ascii":"Lusambo","lat":-4.97503,"lon":23.44391,"population":49376},{"id":2310763,"name":"Zongo","ascii":"Zongo","lat":4.34283,"lon":18.59447,"population":48658},{"id":217637,"name":"Businga","ascii":"Businga","lat":3.33863,"lon":20.88577,"population":48339},{"id":204283,"name":"Watsa","ascii":"Watsa","lat":3.03716,"lon":29.53551,"population":47278},{"id":2316748,"name":"Bolobo","ascii":"Bolobo","lat":-2.158,"lon":16.23249,"population":47032},{"id":210674,"name":"Lukula","ascii":"Lukula","lat":-3.86881,"lon":23.88348,"population":46534},{"id":212795,"name":"Kipamba","ascii":"Kipamba","lat":-8.20591,"lon":26.42036,"population":46430},{"id":2313011,"name":"Masi-Manimba","ascii":"Masi-Manimba","lat":-4.77549,"lon":17.89095,"population":45775},{"id":220223,"name":"Aru","ascii":"Aru","lat":2.86218,"lon":30.84138,"population":45516},{"id":210939,"name":"Luebo","ascii":"Luebo","lat":-5.35218,"lon":21.42192,"population":45443},{"id":2315057,"name":"Kasangulu","ascii":"Kasangulu","lat":-4.5833,"lon":15.16554,"population":45400},{"id":208725,"name":"Mangbwalu","ascii":"Mangbwalu","lat":1.94468,"lon":30.03861,"population":45318},{"id":214297,"name":"Kanyobagonga","ascii":"Kanyobagonga","lat":-0.69978,"lon":29.17181,"population":44146},{"id":215558,"name":"Kabeya-Kamwanga","ascii":"Kabeya-Kamwanga","lat":-5.9988,"lon":23.25386,"population":44093},{"id":922597,"name":"Malemba","ascii":"Malemba","lat":-10.37812,"lon":24.54516,"population":44027},{"id":213851,"name":"Katanda","ascii":"Katanda","lat":-0.82535,"lon":29.36451,"population":42105},{"id":211069,"name":"Lubero","ascii":"Lubero","lat":-0.15837,"lon":29.23859,"population":41722},{"id":217100,"name":"Djugu","ascii":"Djugu","lat":1.91932,"lon":30.50257,"population":41409},{"id":2317285,"name":"Basankusu","nameKo":"바산쿠수","ascii":"Basankusu","lat":1.22095,"lon":19.80205,"population":41141},{"id":2315961,"name":"Dungu","ascii":"Dungu","lat":-3.62437,"lon":18.84943,"population":41076},{"id":206113,"name":"Pweto","ascii":"Pweto","lat":-8.46604,"lon":28.90079,"population":38298},{"id":211098,"name":"Lubao","ascii":"Lubao","lat":-5.38771,"lon":25.74885,"population":37818},{"id":2313762,"name":"Libenge","nameKo":"리벤지","ascii":"Libenge","lat":3.65332,"lon":18.63566,"population":37344},{"id":215605,"name":"Kabare","ascii":"Kabare","lat":-2.49682,"lon":28.79081,"population":37034},{"id":214575,"name":"Kampene","ascii":"Kampene","lat":-3.59678,"lon":26.66715,"population":37034},{"id":922559,"name":"Mokambo","ascii":"Mokambo","lat":-12.42765,"lon":28.34684,"population":34762},{"id":209856,"name":"Malemba-Nkulu","ascii":"Malemba-Nkulu","lat":-8.04475,"lon":26.79625,"population":25430},{"id":206289,"name":"Pepa","ascii":"Pepa","lat":-7.69811,"lon":29.7772,"population":24767},{"id":217389,"name":"Demba","ascii":"Demba","lat":-5.49573,"lon":22.26962,"population":22263},{"id":2315026,"name":"Kasongo-Lunda","ascii":"Kasongo-Lunda","lat":-6.47833,"lon":16.81735,"population":20060},{"id":218253,"name":"Bondo","ascii":"Bondo","lat":3.81461,"lon":23.68665,"population":17860},{"id":204318,"name":"Wamba","ascii":"Wamba","lat":2.14838,"lon":27.99466,"population":17373},{"id":205970,"name":"Sake","ascii":"Sake","lat":-1.57386,"lon":29.04339,"population":17151},{"id":2313371,"name":"Lukolela","ascii":"Lukolela","lat":-1.06046,"lon":17.1821,"population":15000},{"id":2316473,"name":"Bosobolo","ascii":"Bosobolo","lat":4.1898,"lon":19.8833,"population":14553},{"id":215814,"name":"Isamba","ascii":"Isamba","lat":-4.03333,"lon":21.98333,"population":8723},{"id":218229,"name":"Bongandanga","ascii":"Bongandanga","lat":1.50695,"lon":21.0726,"population":4105}]