[{"id":2293538,"name":"Abidjan","nameKo":"아비장","ascii":"Abidjan","lat":5.35444,"lon":-4.00167,"population":6321017},{"id":2293521,"name":"Abobo","ascii":"Abobo","lat":5.41613,"lon":-4.0159,"population":1340083},{"id":2290956,"name":"Bouaké","nameKo":"부아케","ascii":"Bouake","lat":7.69385,"lon":-5.03031,"population":832371},{"id":2286304,"name":"Korhogo","nameKo":"코로고","ascii":"Korhogo","lat":9.45803,"lon":-5.62961,"population":440926},{"id":2290486,"name":"Daloa","nameKo":"달로아","ascii":"Daloa","lat":6.87735,"lon":-6.45022,"population":421871},{"id":2285853,"name":"Koumassi","ascii":"Koumassi","lat":5.29716,"lon":-3.96753,"population":412282},{"id":2282006,"name":"San-Pédro","nameKo":"상페드로","ascii":"San-Pedro","lat":4.74851,"lon":-6.6363,"population":390654},{"id":2288829,"name":"Gagnoa","ascii":"Gagnoa","lat":6.13193,"lon":-5.9506,"population":277044},{"id":2279755,"name":"Yamoussoukro","nameKo":"야무수크로","ascii":"Yamoussoukro","lat":6.82055,"lon":-5.27674,"population":275686},{"id":2281606,"name":"Sinfra","ascii":"Sinfra","lat":6.62103,"lon":-5.91144,"population":245226},{"id":2284647,"name":"Man","ascii":"Man","lat":7.41251,"lon":-7.55383,"population":241969},{"id":2595323,"name":"Marcory","ascii":"Marcory","lat":5.31198,"lon":-3.99363,"population":214061},{"id":2291136,"name":"Bondoukou","ascii":"Bondoukou","lat":8.0402,"lon":-2.80003,"population":141568},{"id":2290582,"name":"Dabou","ascii":"Dabou","lat":5.32556,"lon":-4.37685,"population":138083},{"id":2289887,"name":"Divo","ascii":"Divo","lat":5.83739,"lon":-5.35723,"population":136627},{"id":2292852,"name":"Anyama","ascii":"Anyama","lat":5.49462,"lon":-4.05183,"population":133905},{"id":2596935,"name":"Soubré","ascii":"Soubre","lat":5.78377,"lon":-6.59388,"population":131181},{"id":2293549,"name":"Abengourou","nameKo":"아방구루","ascii":"Abengourou","lat":6.72972,"lon":-3.49639,"population":130810},{"id":7849539,"name":"Bonon","ascii":"Bonon","lat":6.9268,"lon":-6.0489,"population":119938},{"id":2289549,"name":"Duekoué","ascii":"Duekoue","lat":6.74202,"lon":-7.34918,"population":117023},{"id":2290964,"name":"Bouaflé","ascii":"Bouafle","lat":6.99041,"lon":-5.7442,"population":104209},{"id":2596934,"name":"Séguéla","ascii":"Seguela","lat":7.96111,"lon":-6.67306,"population":103980},{"id":2290412,"name":"Daoukro","ascii":"Daoukro","lat":7.0591,"lon":-3.9631,"population":101136},{"id":2288115,"name":"Grand-Bassam","ascii":"Grand-Bassam","lat":5.2118,"lon":-3.73884,"population":96797},{"id":2280045,"name":"Vavoua","ascii":"Vavoua","lat":7.38194,"lon":-6.47778,"population":86977},{"id":2291580,"name":"Bingerville","ascii":"Bingerville","lat":5.35581,"lon":-3.88537,"population":82983},{"id":2293268,"name":"Agboville","ascii":"Agboville","lat":5.92801,"lon":-4.21319,"population":81770},{"id":2290462,"name":"Danané","ascii":"Danane","lat":7.25957,"lon":-8.15498,"population":78614},{"id":2293342,"name":"Adzopé","ascii":"Adzope","lat":6.10694,"lon":-3.86194,"population":76122},{"id":10629379,"name":"Méagui","ascii":"Meagui","lat":5.4119,"lon":-6.5603,"population":74365},{"id":2289049,"name":"Ferkessédougou","ascii":"Ferkessedougou","lat":9.5928,"lon":-5.19449,"population":72476},{"id":2289983,"name":"Dimbokro","ascii":"Dimbokro","lat":6.64678,"lon":-4.70519,"population":70198},{"id":2287790,"name":"Issia","ascii":"Issia","lat":6.49224,"lon":-6.58558,"population":68263},{"id":2287958,"name":"Guiglo","ascii":"Guiglo","lat":6.54368,"lon":-7.4935,"population":68113},{"id":2279526,"name":"Zagné","ascii":"Zagne","lat":6.21016,"lon":-7.48284,"population":63341},{"id":2293260,"name":"Agnibilékrou","ascii":"Agnibilekrou","lat":7.13113,"lon":-3.20415,"population":63015},{"id":2287298,"name":"Katiola","ascii":"Katiola","lat":8.13728,"lon":-5.10095,"population":59641},{"id":2293507,"name":"Aboisso","ascii":"Aboisso","lat":5.46779,"lon":-3.20711,"population":59225},{"id":2282827,"name":"Oumé","ascii":"Oume","lat":6.38309,"lon":-5.41759,"population":58606},{"id":2280316,"name":"Toumodi","ascii":"Toumodi","lat":6.55799,"lon":-5.01769,"population":55986},{"id":2283016,"name":"Odienné","ascii":"Odienne","lat":9.50511,"lon":-7.56433,"population":54669},{"id":2280589,"name":"Tengréla","ascii":"Tengrela","lat":10.48115,"lon":-6.40694,"population":52271},{"id":2290836,"name":"Boundiali","ascii":"Boundiali","lat":9.52167,"lon":-6.48694,"population":51803},{"id":2291087,"name":"Bonoua","ascii":"Bonoua","lat":5.27247,"lon":-3.59625,"population":49434},{"id":2282907,"name":"Ouangolodougou","ascii":"Ouangolodougou","lat":9.96837,"lon":-5.14882,"population":49248},{"id":2289724,"name":"Doropo","ascii":"Doropo","lat":9.80955,"lon":-3.34577,"population":48225},{"id":2288118,"name":"Affery","ascii":"Affery","lat":6.32035,"lon":-3.95235,"population":47109},{"id":2279172,"name":"Zuénoula","ascii":"Zuenoula","lat":7.43027,"lon":-6.05054,"population":44097},{"id":2290099,"name":"Diégonéfla","ascii":"Diegonefla","lat":6.28919,"lon":-5.57413,"population":43456},{"id":2291451,"name":"Bloléquin","ascii":"Blolequin","lat":6.56913,"lon":-8.00253,"population":41821},{"id":2287884,"name":"Hiré","ascii":"Hire","lat":6.18878,"lon":-5.29463,"population":41430},{"id":12687197,"name":"Djapadji","ascii":"Djapadji","lat":5.29114,"lon":-6.82023,"population":39673},{"id":2292755,"name":"Arrah","ascii":"Arrah","lat":6.67342,"lon":-3.96938,"population":37432},{"id":2289071,"name":"Fengolo","ascii":"Fengolo","lat":6.78634,"lon":-7.39338,"population":37165},{"id":2288105,"name":"Grand-Lahou","ascii":"Grand-Lahou","lat":5.13825,"lon":-5.02123,"population":36906},{"id":2291113,"name":"Bongouanou","ascii":"Bongouanou","lat":6.65175,"lon":-4.20406,"population":36379},{"id":2293107,"name":"Akoupé","ascii":"Akoupe","lat":6.38423,"lon":-3.88759,"population":35970},{"id":2280995,"name":"Tanda","ascii":"Tanda","lat":7.80335,"lon":-3.16832,"population":35854},{"id":2288139,"name":"Goya","ascii":"Goya","lat":6.56487,"lon":-7.42735,"population":35292},{"id":2283823,"name":"Ndouci","ascii":"Ndouci","lat":5.86383,"lon":-4.7609,"population":35145},{"id":2280761,"name":"Tiassalé","ascii":"Tiassale","lat":5.89839,"lon":-4.82293,"population":35090},{"id":2281979,"name":"Saïoua","ascii":"Saioua","lat":6.48535,"lon":-6.278,"population":34860},{"id":2281951,"name":"Sassandra","ascii":"Sassandra","lat":4.95384,"lon":-6.08531,"population":34492},{"id":2596898,"name":"Ahouanou","ascii":"Ahouanou","lat":5.50565,"lon":-4.8588,"population":33939},{"id":2289515,"name":"Dianra","ascii":"Dianra","lat":8.94333,"lon":-6.2549,"population":33548},{"id":2292324,"name":"Balakouya","ascii":"Balakouya","lat":5.20771,"lon":-6.35163,"population":33150},{"id":2291779,"name":"Béoumi","ascii":"Beoumi","lat":7.67395,"lon":-5.58085,"population":33089},{"id":2287653,"name":"Kahin","ascii":"Kahin","lat":6.91413,"lon":-7.63121,"population":32991},{"id":2290648,"name":"Buyo","ascii":"Buyo","lat":6.27534,"lon":-6.99704,"population":32847},{"id":12687201,"name":"Gligbeuadji","ascii":"Gligbeuadji","lat":5.2,"lon":-6.7,"population":32380},{"id":2285449,"name":"Lakota","ascii":"Lakota","lat":5.84752,"lon":-5.682,"population":32376},{"id":7849902,"name":"Grand-Zattry","ascii":"Grand-Zattry","lat":6.1162,"lon":-6.53603,"population":31326},{"id":12687195,"name":"Ancien-Prozi","ascii":"Ancien-Prozi","lat":7.66885,"lon":-6.96881,"population":31245},{"id":2291086,"name":"Bonoufla","ascii":"Bonoufla","lat":7.12906,"lon":-6.47424,"population":30420},{"id":2286469,"name":"Konéfla","ascii":"Konefla","lat":6.65166,"lon":-5.60501,"population":30217},{"id":2279235,"name":"Zouan-Hounien","ascii":"Zouan-Hounien","lat":6.91937,"lon":-8.2065,"population":29649},{"id":2281120,"name":"Tabou","ascii":"Tabou","lat":4.42295,"lon":-7.3528,"population":29469},{"id":2280376,"name":"Touba","ascii":"Touba","lat":8.28333,"lon":-7.68333,"population":28986},{"id":2284460,"name":"M’Bengué","ascii":"M'Bengue","lat":10.00244,"lon":-5.90037,"population":28832},{"id":2292085,"name":"Gbapleu","ascii":"Gbapleu","lat":6.47983,"lon":-7.16528,"population":28802},{"id":2291391,"name":"Boboniessoko","ascii":"Boboniessoko","lat":6.96589,"lon":-6.65652,"population":27529},{"id":2279495,"name":"Zaliohouan","ascii":"Zaliohouan","lat":6.79519,"lon":-6.2355,"population":27050},{"id":2290173,"name":"Diawala","ascii":"Diawala","lat":10.10701,"lon":-5.47295,"population":26206},{"id":2286023,"name":"Kaouara","ascii":"Kaouara","lat":10.09085,"lon":-5.19482,"population":26142},{"id":2288010,"name":"Guépaouo","ascii":"Guepaouo","lat":6.47268,"lon":-5.70615,"population":26111},{"id":2279841,"name":"Yabayo","ascii":"Yabayo","lat":5.93876,"lon":-6.59826,"population":26037},{"id":2284787,"name":"Luénoufla","ascii":"Luenoufla","lat":7.07236,"lon":-6.24125,"population":25463},{"id":2279240,"name":"Zou","ascii":"Zou","lat":6.97647,"lon":-7.79834,"population":25210},{"id":2288357,"name":"Gonaté","ascii":"Gonate","lat":6.90418,"lon":-6.24347,"population":24838},{"id":2283456,"name":"Niellé","ascii":"Nielle","lat":10.19814,"lon":-5.62337,"population":24780},{"id":2293428,"name":"Adiaké","ascii":"Adiake","lat":5.28634,"lon":-3.30403,"population":24701},{"id":2280743,"name":"Tiébissou","ascii":"Tiebissou","lat":7.15772,"lon":-5.2248,"population":24412},{"id":2290849,"name":"Bouna","ascii":"Bouna","lat":9.26927,"lon":-2.9951,"population":24312},{"id":2282800,"name":"Oupoyo","ascii":"Oupoyo","lat":5.56054,"lon":-6.58997,"population":23834},{"id":2284477,"name":"M’Batto","ascii":"M'Batto","lat":6.47197,"lon":-4.35781,"population":23722},{"id":7849877,"name":"Belleville","ascii":"Belleville","lat":6.18021,"lon":-6.90529,"population":23595},{"id":12688221,"name":"Belleville","ascii":"Belleville","lat":6.87341,"lon":-6.84829,"population":23595},{"id":2292180,"name":"Bangolo Tahouake","ascii":"Bangolo Tahouake","lat":7.04119,"lon":-7.168,"population":23420},{"id":2287970,"name":"Guibéroua","ascii":"Guiberoua","lat":6.23869,"lon":-6.17147,"population":23371},{"id":2291666,"name":"Biankouma","ascii":"Biankouma","lat":7.73909,"lon":-7.61377,"population":23232},{"id":2284777,"name":"Mabéhiri","ascii":"Mabehiri","lat":5.66667,"lon":-6.41667,"population":23215},{"id":2282650,"name":"Para","ascii":"Para","lat":5.51956,"lon":-7.32755,"population":22807},{"id":12687199,"name":"Gabiadji","ascii":"Gabiadji","lat":5.0234,"lon":-6.56157,"population":22619},{"id":2291924,"name":"Bédiala","ascii":"Bediala","lat":7.16008,"lon":-6.30642,"population":22419},{"id":2281103,"name":"Tafiré","ascii":"Tafire","lat":9.06883,"lon":-5.16404,"population":22284},{"id":2290555,"name":"Dagbao I","ascii":"Dagbao I","lat":5.56025,"lon":-6.02111,"population":22056},{"id":12687207,"name":"Gnatroa","ascii":"Gnatroa","lat":5.92273,"lon":-6.15013,"population":21879},{"id":2292179,"name":"Bangolo","ascii":"Bangolo","lat":7.01232,"lon":-7.48639,"population":21861},{"id":2288404,"name":"Gohouo","ascii":"Gohouo","lat":7.05402,"lon":-7.44035,"population":21824},{"id":2283616,"name":"Niakaramandougou","ascii":"Niakaramandougou","lat":8.65759,"lon":-5.29109,"population":21793},{"id":12687198,"name":"Fronan","ascii":"Fronan","lat":8.21494,"lon":-5.12549,"population":21579},{"id":2291636,"name":"Biéby","ascii":"Bieby","lat":6.07873,"lon":-3.63548,"population":21578},{"id":12687206,"name":"Dagadji","ascii":"Dagadji","lat":5.12569,"lon":-6.81483,"population":21333},{"id":12687200,"name":"Galébré","ascii":"Galebre","lat":6.0059,"lon":-6.29403,"population":21245},{"id":2284159,"name":"Moussadougou","ascii":"Moussadougou","lat":6.154,"lon":-5.69334,"population":21186},{"id":2282189,"name":"Sahoua","ascii":"Sahoua","lat":5.06191,"lon":-6.25997,"population":20838},{"id":12687208,"name":"Watté","ascii":"Watte","lat":4.9353,"lon":-6.77828,"population":20769},{"id":2280405,"name":"Tortiya","ascii":"Tortiya","lat":8.76821,"lon":-5.6865,"population":20738},{"id":12687204,"name":"Touih","ascii":"Touih","lat":5.25604,"lon":-6.53249,"population":20686},{"id":2284679,"name":"Aboisso Comoé","ascii":"Aboisso Comoe","lat":5.7351,"lon":-3.40338,"population":20659},{"id":2283646,"name":"Niablé","ascii":"Niable","lat":6.66129,"lon":-3.26984,"population":20422},{"id":2291929,"name":"Bécédi-Brignan","ascii":"Becedi-Brignan","lat":5.90909,"lon":-4.01281,"population":20284},{"id":2287980,"name":"Guézon","ascii":"Guezon","lat":6.74177,"lon":-7.11742,"population":20057},{"id":2287981,"name":"Guézon","ascii":"Guezon","lat":6.56696,"lon":-7.70203,"population":20057},{"id":12687196,"name":"Bléniméouin","ascii":"Blenimeouin","lat":7.13333,"lon":-7.18333,"population":19689},{"id":2284589,"name":"Mankono","ascii":"Mankono","lat":8.05861,"lon":-6.18972,"population":19597},{"id":12687508,"name":"Gnago","ascii":"Gnago","lat":5.24032,"lon":-5.79516,"population":19370},{"id":2286819,"name":"Ahigbé Koffikro","ascii":"Ahigbe Koffikro","lat":5.40755,"lon":-3.38023,"population":19351},{"id":2284719,"name":"Mahapleu","ascii":"Mahapleu","lat":7.22474,"lon":-7.93118,"population":19342},{"id":2284489,"name":"M’Bahiakro","ascii":"M'Bahiakro","lat":7.45728,"lon":-4.33993,"population":19307},{"id":2289633,"name":"Doukouya","ascii":"Doukouya","lat":6.42623,"lon":-5.55925,"population":19290},{"id":12687203,"name":"Ogoudou","ascii":"Ogoudou","lat":5.89674,"lon":-5.15792,"population":19158},{"id":2285161,"name":"Lobakuya","ascii":"Lobakuya","lat":5.09053,"lon":-6.34438,"population":18713},{"id":2289433,"name":"Ebilassokro","ascii":"Ebilassokro","lat":6.37917,"lon":-3.34722,"population":18530},{"id":2596874,"name":"Erémankono","ascii":"Eremankono","lat":5.92829,"lon":-5.02252,"population":18428},{"id":2283504,"name":"Niapidou","ascii":"Niapidou","lat":5.34849,"lon":-6.05601,"population":18336},{"id":2290609,"name":"Dabakala","ascii":"Dabakala","lat":8.36321,"lon":-4.42863,"population":18322},{"id":2282566,"name":"Pélézi","ascii":"Pelezi","lat":7.28174,"lon":-6.81449,"population":18278},{"id":2284314,"name":"Mignouré","ascii":"Mignoure","lat":7.4875,"lon":-6.78821,"population":18180},{"id":2282240,"name":"Rubino","ascii":"Rubino","lat":6.07,"lon":-4.31056,"population":18180},{"id":2290000,"name":"Dikodougou","ascii":"Dikodougou","lat":9.06757,"lon":-5.77222,"population":18087},{"id":2292531,"name":"Azaguié","ascii":"Azaguie","lat":5.62984,"lon":-4.08204,"population":17987},{"id":2288002,"name":"Guéssabo","ascii":"Guessabo","lat":6.73668,"lon":-6.95487,"population":17944},{"id":12688212,"name":"Vrouo","ascii":"Vrouo","lat":7.69644,"lon":-6.55352,"population":17716},{"id":2292090,"name":"Baoutifla","ascii":"Baoutifla","lat":7.23425,"lon":-6.47485,"population":17712},{"id":2288718,"name":"Gbabam","ascii":"Gbabam","lat":5.46651,"lon":-5.58678,"population":17699},{"id":2291663,"name":"Bianouan","ascii":"Bianouan","lat":6.01203,"lon":-3.19024,"population":17561},{"id":2279513,"name":"Zaïbo","ascii":"Zaibo","lat":6.9893,"lon":-6.66673,"population":17406},{"id":2292391,"name":"Bahé-Blaon","ascii":"Bahe-Blaon","lat":6.67073,"lon":-7.34265,"population":17216},{"id":2282178,"name":"Sakassou","ascii":"Sakassou","lat":7.45462,"lon":-5.29263,"population":17093},{"id":2284744,"name":"Maféré","ascii":"Mafere","lat":5.4151,"lon":-3.03006,"population":17008},{"id":2282985,"name":"Okromodou","ascii":"Okromodou","lat":5.35123,"lon":-5.67593,"population":16922},{"id":12687494,"name":"Touagui","ascii":"Touagui","lat":5.43102,"lon":-6.55946,"population":16684},{"id":2284030,"name":"Nambingué","ascii":"Nambingue","lat":10.05,"lon":-5.33778,"population":16677},{"id":2289902,"name":"Diourouzon","ascii":"Diourouzon","lat":6.88922,"lon":-7.51952,"population":16666},{"id":2288439,"name":"Gadouan","ascii":"Gadouan","lat":6.65623,"lon":-6.16609,"population":16620},{"id":7848493,"name":"Kranzadougou","ascii":"Kranzadougou","lat":6.48496,"lon":-7.20101,"population":16614},{"id":2282521,"name":"Petitgoa I","ascii":"Petitgoa I","lat":6.12024,"lon":-6.71253,"population":16457},{"id":2292932,"name":"Andé","ascii":"Ande","lat":6.78176,"lon":-4.08517,"population":16341},{"id":7850551,"name":"Nzianouan","ascii":"Nzianouan","lat":6.01161,"lon":-4.82133,"population":16337},{"id":12687966,"name":"Gbolouville","ascii":"Gbolouville","lat":5.79408,"lon":-4.66127,"population":16321},{"id":2291962,"name":"Bayota","ascii":"Bayota","lat":6.46477,"lon":-5.95427,"population":16298},{"id":2285092,"name":"Logoualé","ascii":"Logouale","lat":7.10769,"lon":-7.55207,"population":16106},{"id":2282506,"name":"Petit Grabo","ascii":"Petit Grabo","lat":5.26902,"lon":-7.31421,"population":16054},{"id":2292380,"name":"Baibli","ascii":"Baibli","lat":7.17618,"lon":-7.29729,"population":16018},{"id":7849905,"name":"Loboville","ascii":"Loboville","lat":6.13656,"lon":-6.84096,"population":16006},{"id":12687528,"name":"Gagny","ascii":"Gagny","lat":5.0491,"lon":-6.74477,"population":15910},{"id":7849068,"name":"Zéaglo","ascii":"Zeaglo","lat":6.56297,"lon":-7.8172,"population":15873},{"id":2282983,"name":"Okrouyo","ascii":"Okrouyo","lat":5.76443,"lon":-6.40785,"population":15852},{"id":12687527,"name":"Gnépasso","ascii":"Gnepasso","lat":4.98218,"lon":-7.06024,"population":15835},{"id":12689422,"name":"Flakièdougou","ascii":"Flakiedougou","lat":8.48273,"lon":-3.1273,"population":15815},{"id":2288759,"name":"Gaoulou","ascii":"Gaoulou","lat":5.03347,"lon":-6.15137,"population":15794},{"id":2286632,"name":"Kolia","ascii":"Kolia","lat":9.7651,"lon":-6.46372,"population":15716},{"id":7849082,"name":"Aboka","ascii":"Aboka","lat":6.53867,"lon":-6.81589,"population":15627},{"id":2289950,"name":"Dignago","ascii":"Dignago","lat":6.29164,"lon":-6.27945,"population":15621},{"id":2279214,"name":"Zoukougbeu","ascii":"Zoukougbeu","lat":6.76229,"lon":-6.8638,"population":15375},{"id":2285905,"name":"Kouibly","ascii":"Kouibly","lat":7.25597,"lon":-7.23508,"population":15335},{"id":2597400,"name":"Borotou-Koro","ascii":"Borotou-Koro","lat":8.49111,"lon":-7.17861,"population":15293},{"id":7848497,"name":"Nizahon II","ascii":"Nizahon II","lat":6.37222,"lon":-7.39891,"population":15290},{"id":12688220,"name":"Bognonzra","ascii":"Bognonzra","lat":6.94321,"lon":-5.96734,"population":15282},{"id":2286458,"name":"Kong","ascii":"Kong","lat":9.14943,"lon":-4.60982,"population":15262},{"id":7848483,"name":"Diéhiba","ascii":"Diehiba","lat":6.90152,"lon":-7.41376,"population":15253},{"id":2287987,"name":"Guéyo","ascii":"Gueyo","lat":5.6882,"lon":-6.0712,"population":15080},{"id":8536562,"name":"Songon","ascii":"Songon","lat":5.3196,"lon":-4.25415,"population":14977},{"id":2279795,"name":"Yakassé-Attobrou","ascii":"Yakasse-Attobrou","lat":6.18174,"lon":-3.65111,"population":14907},{"id":2287927,"name":"Guitry","ascii":"Guitry","lat":5.51952,"lon":-5.24038,"population":14836},{"id":2293468,"name":"Aboudé","ascii":"Aboude","lat":5.89609,"lon":-4.56253,"population":14828},{"id":12689421,"name":"Marahui","ascii":"Marahui","lat":8.61522,"lon":-2.75076,"population":14827},{"id":2290511,"name":"Dakpadou","ascii":"Dakpadou","lat":5.25664,"lon":-6.06774,"population":14825},{"id":2284784,"name":"Luéhouan","ascii":"Luehouan","lat":6.29916,"lon":-6.77104,"population":14811},{"id":2291949,"name":"Bazré","ascii":"Bazre","lat":6.72443,"lon":-5.48283,"population":14767},{"id":12687965,"name":"Dokpodon","ascii":"Dokpodon","lat":5.18955,"lon":-5.45087,"population":14717},{"id":12688219,"name":"Bogbam","ascii":"Bogbam","lat":6.38085,"lon":-6.19258,"population":14657},{"id":2282854,"name":"Ouragahio","ascii":"Ouragahio","lat":6.31058,"lon":-5.93473,"population":14587},{"id":2287778,"name":"Jacqueville","ascii":"Jacqueville","lat":5.20515,"lon":-4.4146,"population":14383},{"id":2285707,"name":"Kouto","ascii":"Kouto","lat":9.89029,"lon":-6.40921,"population":14245},{"id":13100441,"name":"Anonkoua","ascii":"Anonkoua","lat":5.4273,"lon":-4.04872,"population":14232},{"id":2280333,"name":"Toulépleu Gueré","ascii":"Toulepleu Guere","lat":6.57395,"lon":-8.42592,"population":14098},{"id":2290177,"name":"Dianra-Village","ascii":"Dianra-Village","lat":8.76437,"lon":-6.24411,"population":14028},{"id":2290403,"name":"Dapéoua","ascii":"Dapeoua","lat":6.13774,"lon":-6.87847,"population":13945},{"id":12687526,"name":"Walébo","ascii":"Walebo","lat":5.58377,"lon":-6.83339,"population":13865},{"id":2291383,"name":"Bocanda","ascii":"Bocanda","lat":7.06264,"lon":-4.49948,"population":13849},{"id":2279403,"name":"Zegban","ascii":"Zegban","lat":5.16369,"lon":-5.58882,"population":13843},{"id":2281794,"name":"Sémien","ascii":"Semien","lat":7.61419,"lon":-7.12955,"population":13762},{"id":12687743,"name":"Scierie","ascii":"Scierie","lat":6.32778,"lon":-5.52229,"population":13694},{"id":2290642,"name":"Bouandougou","ascii":"Bouandougou","lat":8.21598,"lon":-5.66962,"population":13665},{"id":12687525,"name":"Adjaméné","ascii":"Adjamene","lat":4.76645,"lon":-6.84326,"population":13638},{"id":12687524,"name":"Lobogba","ascii":"Lobogba","lat":5.98014,"lon":-6.73576,"population":13608},{"id":2279709,"name":"Yaoudé","ascii":"Yaoude","lat":6.5588,"lon":-7.44612,"population":13587},{"id":2293486,"name":"Abongoua","ascii":"Abongoua","lat":6.6527,"lon":-4.10178,"population":13492},{"id":12687523,"name":"Gbliglo","ascii":"Gbliglo","lat":6.13533,"lon":-7.02576,"population":13485},{"id":2292403,"name":"Bagohouo","ascii":"Bagohouo","lat":6.89011,"lon":-7.19282,"population":13441},{"id":2290985,"name":"Botro","ascii":"Botro","lat":7.85249,"lon":-5.31063,"population":13375},{"id":7849903,"name":"Konédougou","ascii":"Konedougou","lat":6.03991,"lon":-6.66579,"population":13354},{"id":2290650,"name":"Butubré I","ascii":"Butubre I","lat":5.51071,"lon":-6.44838,"population":13344},{"id":2281904,"name":"Séchi","ascii":"Sechi","lat":6.25143,"lon":-4.42194,"population":13329},{"id":2284576,"name":"Manzanoua","ascii":"Manzanoua","lat":6.84346,"lon":-3.28625,"population":13224},{"id":12687742,"name":"Bamo","ascii":"Bamo","lat":5.80501,"lon":-5.96597,"population":13206},{"id":2290194,"name":"Diangobo","ascii":"Diangobo","lat":6.14632,"lon":-3.64219,"population":13205},{"id":2281609,"name":"Sinématiali","ascii":"Sinematiali","lat":9.5841,"lon":-5.38476,"population":13174},{"id":2290561,"name":"Dafrahinou Darinsala","ascii":"Dafrahinou Darinsala","lat":6.43243,"lon":-7.08849,"population":13157},{"id":2288363,"name":"Goménébéri","ascii":"Gomeneberi","lat":5.37889,"lon":-5.51833,"population":13132},{"id":2287540,"name":"Kanakono","ascii":"Kanakono","lat":10.35497,"lon":-6.23634,"population":13127},{"id":2284243,"name":"Monoko Zohi Deux","ascii":"Monoko Zohi Deux","lat":7.06992,"lon":-6.84476,"population":13112},{"id":2292347,"name":"Bacon","ascii":"Bacon","lat":6.35602,"lon":-3.91017,"population":13066},{"id":2292937,"name":"Ananguié","ascii":"Ananguie","lat":6.22299,"lon":-3.77333,"population":12979},{"id":2281374,"name":"Songan","ascii":"Songan","lat":6.10929,"lon":-3.20843,"population":12947},{"id":7848492,"name":"Ouattaradougou","ascii":"Ouattaradougou","lat":6.59172,"lon":-7.19591,"population":12880},{"id":2279236,"name":"Zouan","ascii":"Zouan","lat":6.54502,"lon":-7.59902,"population":12873},{"id":2288485,"name":"Gnato","ascii":"Gnato","lat":4.43338,"lon":-7.54031,"population":12803},{"id":2288362,"name":"Gomon","ascii":"Gomon","lat":5.72358,"lon":-4.44129,"population":12759},{"id":2279791,"name":"Yakassémé","ascii":"Yakasseme","lat":5.81052,"lon":-3.9511,"population":12733},{"id":2279525,"name":"Zagoréta","ascii":"Zagoreta","lat":6.6756,"lon":-6.15347,"population":12705},{"id":12688218,"name":"Zaguiéta","ascii":"Zaguieta","lat":6.78815,"lon":-6.06288,"population":12690},{"id":2292626,"name":"Assuéfri","ascii":"Assuefri","lat":7.69973,"lon":-2.97847,"population":12650},{"id":2282012,"name":"Sankadiokro","ascii":"Sankadiokro","lat":6.86165,"lon":-3.48564,"population":12620},{"id":2288476,"name":"Gnouboyo","ascii":"Gnouboyo","lat":5.878,"lon":-6.40086,"population":12611},{"id":2291915,"name":"Bèfla","ascii":"Befla","lat":7.21185,"lon":-6.13989,"population":12604},{"id":2290474,"name":"Damé","ascii":"Dame","lat":7.07085,"lon":-3.14883,"population":12543},{"id":2288411,"name":"Gohitafla","ascii":"Gohitafla","lat":7.49076,"lon":-5.87952,"population":12519},{"id":2291920,"name":"Bédigoazon","ascii":"Bedigoazon","lat":6.56363,"lon":-7.77749,"population":12477},{"id":2288604,"name":"Gbon","ascii":"Gbon","lat":9.83238,"lon":-6.44716,"population":12464},{"id":2279370,"name":"Zérégbo","ascii":"Zeregbo","lat":7.07081,"lon":-7.91012,"population":12334},{"id":2280053,"name":"Vaou","ascii":"Vaou","lat":7.44358,"lon":-6.99199,"population":12331},{"id":2288251,"name":"Goudi","ascii":"Goudi","lat":6.12401,"lon":-5.10372,"population":12324},{"id":2283307,"name":"Noé","ascii":"Noe","lat":5.29388,"lon":-2.78478,"population":12199},{"id":12687522,"name":"Goh","ascii":"Goh","lat":5.2323,"lon":-6.63627,"population":12186},{"id":12688217,"name":"Manfla","ascii":"Manfla","lat":7.41135,"lon":-5.91127,"population":12151},{"id":2292767,"name":"Appouessou","ascii":"Appouessou","lat":6.54846,"lon":-3.42755,"population":12150},{"id":2570410,"name":"Pinhou","ascii":"Pinhou","lat":6.92125,"lon":-7.75791,"population":12149},{"id":2279427,"name":"Zaranou","ascii":"Zaranou","lat":6.4265,"lon":-3.36171,"population":12116},{"id":2292052,"name":"Grand Berebi","ascii":"Grand Berebi","lat":4.65098,"lon":-6.9237,"population":12104},{"id":2293262,"name":"Aniassué","ascii":"Aniassue","lat":6.65368,"lon":-3.68103,"population":12088},{"id":2280863,"name":"Téiri","ascii":"Teiri","lat":6.3981,"lon":-5.9846,"population":12086},{"id":2289700,"name":"Douagué","ascii":"Douague","lat":7.47944,"lon":-7.13336,"population":12022},{"id":12687521,"name":"Lessiri","ascii":"Lessiri","lat":5.90971,"lon":-6.48897,"population":11993},{"id":12688536,"name":"Ayaou-Sokpa","ascii":"Ayaou-Sokpa","lat":7.42057,"lon":-5.61407,"population":11933},{"id":2292366,"name":"Bacanda","ascii":"Bacanda","lat":5.63331,"lon":-4.87758,"population":11892},{"id":2288627,"name":"Gbétogo","ascii":"Gbetogo","lat":8.12639,"lon":-6.94361,"population":11828},{"id":12687741,"name":"Adahidoukou","ascii":"Adahidoukou","lat":5.31083,"lon":-5.2246,"population":11823},{"id":2293045,"name":"Alépé","ascii":"Alepe","lat":5.5004,"lon":-3.66308,"population":11725},{"id":12687520,"name":"Tchétaly","ascii":"Tchetaly","lat":6.17923,"lon":-7.07116,"population":11659},{"id":2288125,"name":"Grabo","ascii":"Grabo","lat":4.92035,"lon":-7.49562,"population":11640},{"id":2287480,"name":"Kani","ascii":"Kani","lat":8.47807,"lon":-6.60509,"population":11547},{"id":2281562,"name":"Sirasso","ascii":"Sirasso","lat":9.27425,"lon":-6.09897,"population":11497},{"id":2290292,"name":"Danguira","ascii":"Danguira","lat":5.67033,"lon":-3.76763,"population":11481},{"id":12688105,"name":"Guézon-Tahouaké","ascii":"Guezon-Tahouake","lat":7.0761,"lon":-7.18719,"population":11438},{"id":12687519,"name":"Sarakagui","ascii":"Sarakagui","lat":5.81904,"lon":-6.80444,"population":11385},{"id":2283611,"name":"Niakoblonyoa","ascii":"Niakoblonyoa","lat":5.71802,"lon":-5.96702,"population":11350},{"id":12688627,"name":"Bobosso-Tiénigbé","ascii":"Bobosso-Tienigbe","lat":8.45183,"lon":-5.78737,"population":11319},{"id":12687518,"name":"Johin","ascii":"Johin","lat":5.80465,"lon":-6.78437,"population":11281},{"id":2280733,"name":"Tiégba","ascii":"Tiegba","lat":6.2328,"lon":-5.65306,"population":11252},{"id":2286069,"name":"Kouaméfra","ascii":"Kouamefra","lat":6.59205,"lon":-5.42399,"population":11237},{"id":2292971,"name":"Amélékia","ascii":"Amelekia","lat":6.83036,"lon":-3.57522,"population":11192},{"id":2283184,"name":"Toumoukro","ascii":"Toumoukro","lat":10.3855,"lon":-5.75062,"population":11172},{"id":2292542,"name":"Ayamé","ascii":"Ayame","lat":5.6052,"lon":-3.15709,"population":11149},{"id":12687517,"name":"Gblétia","ascii":"Gbletia","lat":5.6337,"lon":-6.62994,"population":11141},{"id":2291153,"name":"Bonaouin","ascii":"Bonaouin","lat":6.56474,"lon":-3.76066,"population":11114},{"id":2287663,"name":"Kagbé","ascii":"Kagbe","lat":6.16599,"lon":-5.34964,"population":11096},{"id":2292571,"name":"Atrobou","ascii":"Atrobou","lat":6.09021,"lon":-4.0589,"population":11091},{"id":2290256,"name":"Diabo","ascii":"Diabo","lat":7.78959,"lon":-5.17102,"population":11047},{"id":2291708,"name":"Béttié","ascii":"Bettie","lat":6.07568,"lon":-3.40846,"population":10960},{"id":2290680,"name":"Brou akpaousso","ascii":"Brou akpaousso","lat":6.90916,"lon":-4.05582,"population":10914},{"id":2290529,"name":"Dahiri","ascii":"Dahiri","lat":5.26206,"lon":-5.52897,"population":10885},{"id":2279424,"name":"Zata","ascii":"Zata","lat":6.87914,"lon":-5.40398,"population":10877},{"id":2285919,"name":"Kouétinfla","ascii":"Kouetinfla","lat":6.61223,"lon":-6.06037,"population":10872},{"id":2292678,"name":"Assié koumassi","ascii":"Assie koumassi","lat":6.76966,"lon":-4.28954,"population":10856},{"id":2280708,"name":"Tiémélékro","ascii":"Tiemelekro","lat":6.49214,"lon":-4.61985,"population":10856},{"id":2293550,"name":"Abongoua","ascii":"Abongoua","lat":6.24709,"lon":-3.54335,"population":10854},{"id":2288093,"name":"Grébouo","ascii":"Grebouo","lat":5.66667,"lon":-6.33333,"population":10829},{"id":2289505,"name":"Diarabana","ascii":"Diarabana","lat":8.18668,"lon":-6.60866,"population":10815},{"id":2284758,"name":"Madogé","ascii":"Madoge","lat":7.02886,"lon":-6.47253,"population":10815},{"id":2283006,"name":"Offumpo","ascii":"Offumpo","lat":5.95186,"lon":-4.45667,"population":10791},{"id":2286279,"name":"Korokaha","ascii":"Korokaha","lat":9.90059,"lon":-5.62764,"population":10769},{"id":2287587,"name":"Kamala","ascii":"Kamala","lat":8.43434,"lon":-2.72108,"population":10763},{"id":2287158,"name":"Kétésso","ascii":"Ketesso","lat":5.87796,"lon":-3.17407,"population":10711},{"id":2279904,"name":"Ouamélhoro","ascii":"Ouamelhoro","lat":10.33226,"lon":-5.62113,"population":10695},{"id":12687516,"name":"Ottawa","ascii":"Ottawa","lat":5.71842,"lon":-6.27466,"population":10586},{"id":7848491,"name":"Tobly Bangolo","ascii":"Tobly Bangolo","lat":6.74276,"lon":-7.18864,"population":10552},{"id":2290101,"name":"Diédrou","ascii":"Diedrou","lat":6.99139,"lon":-7.77825,"population":10509},{"id":2286675,"name":"Kokoumbo","ascii":"Kokoumbo","lat":6.54246,"lon":-5.25925,"population":10493},{"id":8032190,"name":"Kacoukro","ascii":"Kacoukro","lat":5.29605,"lon":-3.37752,"population":10475},{"id":12687406,"name":"Saph","ascii":"Saph","lat":5.13289,"lon":-6.72693,"population":10471},{"id":2283657,"name":"Nguinou","ascii":"Nguinou","lat":6.75052,"lon":-4.16133,"population":10469},{"id":2279242,"name":"Zoroyo","ascii":"Zoroyo","lat":5.89548,"lon":-6.65079,"population":10441},{"id":12688216,"name":"Gbabo","ascii":"Gbabo","lat":7.12097,"lon":-6.76377,"population":10436},{"id":2284260,"name":"Momiraso","ascii":"Momiraso","lat":9.70654,"lon":-5.16887,"population":10431},{"id":2280258,"name":"Trahé","ascii":"Trahe","lat":4.71577,"lon":-7.17566,"population":10426},{"id":12688215,"name":"Séitifla","ascii":"Seitifla","lat":7.43926,"lon":-6.71813,"population":10422},{"id":12687740,"name":"Broudoukou-Kpenda","ascii":"Broudoukou-Kpenda","lat":5.52314,"lon":-5.51411,"population":10408},{"id":2281653,"name":"Siétinfla","ascii":"Sietinfla","lat":6.82764,"lon":-5.73008,"population":10404},{"id":2279407,"name":"Zéga","ascii":"Zega","lat":6.50061,"lon":-6.42126,"population":10404},{"id":2293278,"name":"Agbaou","ascii":"Agbaou","lat":6.34136,"lon":-3.85433,"population":10386},{"id":2288310,"name":"Brobo","ascii":"Brobo","lat":7.64026,"lon":-4.82541,"population":10382},{"id":12688214,"name":"Complexe","ascii":"Complexe","lat":7.60288,"lon":-6.14386,"population":10366},{"id":12687394,"name":"Hannié","ascii":"Hannie","lat":5.19401,"lon":-7.35304,"population":10356},{"id":2282033,"name":"Sangouiné","ascii":"Sangouine","lat":7.27472,"lon":-7.77944,"population":10313},{"id":2279491,"name":"Zambakro","ascii":"Zambakro","lat":6.73322,"lon":-5.41117,"population":10301},{"id":2287150,"name":"Kétro","ascii":"Ketro","lat":7.18256,"lon":-6.643,"population":10290},{"id":7848488,"name":"Dibobli","ascii":"Dibobli","lat":6.73952,"lon":-7.02156,"population":10274},{"id":2285711,"name":"Kouta","ascii":"Kouta","lat":5.48849,"lon":-5.23249,"population":10266},{"id":2290117,"name":"Didiévi","ascii":"Didievi","lat":7.12866,"lon":-4.89804,"population":10262},{"id":2287346,"name":"Kasséré","ascii":"Kassere","lat":9.82723,"lon":-6.2167,"population":10255},{"id":2280311,"name":"Tomono","ascii":"Tomono","lat":8.32598,"lon":-6.10395,"population":10209},{"id":2291874,"name":"Bécouéfin","ascii":"Becouefin","lat":6.48086,"lon":-3.84625,"population":10169},{"id":12688104,"name":"Tacourably","ascii":"Tacourably","lat":7.2551,"lon":-7.17898,"population":10160},{"id":2284061,"name":"Nékédé","ascii":"Nekede","lat":6.46392,"lon":-5.99848,"population":10157},{"id":12687465,"name":"Gnititoigui","ascii":"Gnititoigui","lat":5.34392,"lon":-6.48204,"population":10126},{"id":2286734,"name":"Kouassi-Kouassikro","ascii":"Kouassi-Kouassikro","lat":7.34141,"lon":-4.67709,"population":10102},{"id":12687739,"name":"Datta","ascii":"Datta","lat":5.9363,"lon":-5.32465,"population":10095},{"id":12687515,"name":"Ipouagui","ascii":"Ipouagui","lat":5.51902,"lon":-6.83564,"population":10095},{"id":2282414,"name":"Pogo","ascii":"Pogo","lat":10.43669,"lon":-5.63062,"population":10077},{"id":2280665,"name":"Tieupleu","ascii":"Tieupleu","lat":7.04069,"lon":-8.15318,"population":10033},{"id":12688103,"name":"Gourané","ascii":"Gourane","lat":7.61198,"lon":-7.2986,"population":10029},{"id":12687514,"name":"Blahou","ascii":"Blahou","lat":4.93107,"lon":-6.55781,"population":10019},{"id":2279710,"name":"Yaou","ascii":"Yaou","lat":5.79773,"lon":-3.13823,"population":9999},{"id":2288982,"name":"Floleu","ascii":"Floleu","lat":6.84397,"lon":-8.12554,"population":9962},{"id":2280951,"name":"Taobly","ascii":"Taobly","lat":7.41388,"lon":-7.18576,"population":9949},{"id":2287564,"name":"Kami","ascii":"Kami","lat":6.88289,"lon":-5.27871,"population":9936},{"id":2279794,"name":"Yakassé-Feyassé","ascii":"Yakasse-Feyasse","lat":6.9557,"lon":-3.4126,"population":9934},{"id":2289526,"name":"Diafla","ascii":"Diafla","lat":7.42124,"lon":-6.86751,"population":9933},{"id":12688409,"name":"Sodesucre Village","ascii":"Sodesucre Village","lat":9.50652,"lon":-5.27788,"population":9933},{"id":2291571,"name":"Bin-Houyé","ascii":"Bin-Houye","lat":6.78241,"lon":-8.31311,"population":9879},{"id":2282276,"name":"Prikro","ascii":"Prikro","lat":7.64705,"lon":-3.99626,"population":9839},{"id":2285043,"name":"Lokbonoun","ascii":"Lokbonoun","lat":8.06667,"lon":-5.26667,"population":9780},{"id":2282203,"name":"Sago","ascii":"Sago","lat":5.267,"lon":-5.91611,"population":9775},{"id":12687738,"name":"Wagana","ascii":"Wagana","lat":5.58147,"lon":-5.36776,"population":9753},{"id":7849319,"name":"Dahira","ascii":"Dahira","lat":6.54137,"lon":-6.32131,"population":9699},{"id":2280688,"name":"Tiéningboué","ascii":"Tieningboue","lat":8.17838,"lon":-5.72147,"population":9692},{"id":2280794,"name":"Tiébiéssou","ascii":"Tiebiessou","lat":5.3525,"lon":-4.89056,"population":9657},{"id":2279215,"name":"Zoukouboué","ascii":"Zoukouboue","lat":7.1112,"lon":-6.78102,"population":9652},{"id":2292603,"name":"Attinguié","ascii":"Attinguie","lat":6.06445,"lon":-4.5485,"population":9587},{"id":2284910,"name":"Lopou","ascii":"Lopou","lat":5.42176,"lon":-4.46967,"population":9587},{"id":2287510,"name":"Kanébly","ascii":"Kanebly","lat":7.48122,"lon":-7.03262,"population":9547},{"id":2291930,"name":"Bécédi","ascii":"Becedi","lat":5.64167,"lon":-4.58216,"population":9546},{"id":2279459,"name":"Zangué","ascii":"Zangue","lat":6.43055,"lon":-5.35551,"population":9538},{"id":2290681,"name":"Brouafla-nattis","ascii":"Brouafla-nattis","lat":7.59623,"lon":-6.51838,"population":9529},{"id":2570409,"name":"Blaguiéhi","ascii":"Blaguiehi","lat":6.95799,"lon":-7.66503,"population":9525},{"id":2284013,"name":"Nanandy","ascii":"Nanandy","lat":6.7425,"lon":-7.1698,"population":9503},{"id":2291453,"name":"Blodi","ascii":"Blodi","lat":6.79396,"lon":-7.2972,"population":9494},{"id":7849856,"name":"Diassa","ascii":"Diassa","lat":6.41587,"lon":-6.69652,"population":9486},{"id":2281641,"name":"Sikensi","ascii":"Sikensi","lat":5.66829,"lon":-4.57371,"population":9473},{"id":2280435,"name":"Tonla","ascii":"Tonla","lat":6.35395,"lon":-5.644,"population":9463},{"id":2292562,"name":"Attinguié","ascii":"Attinguie","lat":5.46739,"lon":-4.18549,"population":9455},{"id":12687513,"name":"Djigbagui","ascii":"Djigbagui","lat":5.61444,"lon":-6.87374,"population":9413},{"id":2292363,"name":"Bakayo","ascii":"Bakayo","lat":5.53272,"lon":-6.04418,"population":9394},{"id":2291198,"name":"Boli","ascii":"Boli","lat":7.22648,"lon":-4.80666,"population":9386},{"id":2292108,"name":"Baonfla","ascii":"Baonfla","lat":6.83328,"lon":-5.49849,"population":9363},{"id":2287925,"name":"Guitrozon","ascii":"Guitrozon","lat":6.75012,"lon":-7.3714,"population":9336},{"id":12687512,"name":"Takoréagui","ascii":"Takoreagui","lat":5.75692,"lon":-6.79092,"population":9312},{"id":2596907,"name":"Bakanou A","ascii":"Bakanou A","lat":5.59411,"lon":-4.63455,"population":9310},{"id":12687511,"name":"Gnagboya","ascii":"Gnagboya","lat":6.07877,"lon":-6.93104,"population":9279},{"id":2292479,"name":"Bably","ascii":"Bably","lat":7.02553,"lon":-7.87339,"population":9271},{"id":2292953,"name":"Amoriakro","ascii":"Amoriakro","lat":7.09941,"lon":-3.52821,"population":9203},{"id":2287281,"name":"Katiali","ascii":"Katiali","lat":9.82268,"lon":-5.93381,"population":9193},{"id":2285992,"name":"Assaie-kouassikro","ascii":"Assaie-kouassikro","lat":6.96509,"lon":-3.90343,"population":9180},{"id":12687510,"name":"Sagboya","ascii":"Sagboya","lat":5.96571,"lon":-6.91331,"population":9167},{"id":2290114,"name":"Didoko","ascii":"Didoko","lat":6.02111,"lon":-5.31207,"population":9166},{"id":2279822,"name":"Yacoéoua","ascii":"Yacoeoua","lat":5.97747,"lon":-6.48762,"population":9164},{"id":2279546,"name":"Zaadi","ascii":"Zaadi","lat":6.33317,"lon":-5.73659,"population":9158},{"id":8032096,"name":"Kohourou","ascii":"Kohourou","lat":5.47964,"lon":-3.32856,"population":9122},{"id":12687509,"name":"Kpotè","ascii":"Kpote","lat":4.87116,"lon":-6.53403,"population":9122},{"id":2282310,"name":"Poumbly","ascii":"Poumbly","lat":7.359,"lon":-7.20527,"population":9106},{"id":2280449,"name":"Tongouolan","ascii":"Tongouolan","lat":7.16499,"lon":-3.30552,"population":9102},{"id":2290710,"name":"Brizéboua","ascii":"Brizeboua","lat":7.00954,"lon":-6.46905,"population":9070},{"id":2284063,"name":"Nakara","ascii":"Nakara","lat":8.25783,"lon":-5.63704,"population":9063},{"id":2280322,"name":"Tombokro","ascii":"Tombokro","lat":6.92669,"lon":-5.49965,"population":9041},{"id":2280217,"name":"Troya","ascii":"Troya","lat":6.25218,"lon":-7.49524,"population":9014},{"id":2289033,"name":"Fiassé","ascii":"Fiasse","lat":6.16357,"lon":-3.63625,"population":9005},{"id":12687737,"name":"Brihi","ascii":"Brihi","lat":6.45027,"lon":-5.91893,"population":8996},{"id":2282518,"name":"Petit Badien","ascii":"Petit Badien","lat":5.2567,"lon":-4.63988,"population":8987},{"id":2289503,"name":"Dialakoro","ascii":"Dialakoro","lat":8.1921,"lon":-5.8429,"population":8979},{"id":2281734,"name":"Sérihio","ascii":"Serihio","lat":5.90051,"lon":-6.11755,"population":8978},{"id":2282745,"name":"Ouyabli","ascii":"Ouyabli","lat":7.32723,"lon":-7.20838,"population":8971},{"id":12687595,"name":"Amian","ascii":"Amian","lat":6.46745,"lon":-3.64043,"population":8958},{"id":2290665,"name":"Broukro","ascii":"Broukro","lat":6.6464,"lon":-4.22305,"population":8954},{"id":2284803,"name":"Loviguié I","ascii":"Loviguie I","lat":5.80761,"lon":-4.33836,"population":8952},{"id":2279959,"name":"Ouaninou","ascii":"Ouaninou","lat":8.2379,"lon":-7.86638,"population":8943},{"id":12688213,"name":"Garango","ascii":"Garango","lat":6.96301,"lon":-5.80875,"population":8905},{"id":2290821,"name":"Bounta","ascii":"Bounta","lat":7.64675,"lon":-7.95915,"population":8890},{"id":2287766,"name":"Kaadé","ascii":"Kaade","lat":6.56928,"lon":-7.71427,"population":8883},{"id":2285671,"name":"Koziayo II","ascii":"Koziayo II","lat":5.92426,"lon":-6.34379,"population":8871},{"id":2284590,"name":"Minignan","ascii":"Minignan","lat":9.99744,"lon":-7.83593,"population":8855},{"id":12687736,"name":"Nagadoukou","ascii":"Nagadoukou","lat":6.42583,"lon":-5.78126,"population":8835},{"id":2280335,"name":"Toulépleu","ascii":"Toulepleu","lat":6.57974,"lon":-8.41091,"population":8794},{"id":2286221,"name":"Kotobi","ascii":"Kotobi","lat":6.69569,"lon":-4.12892,"population":8768},{"id":12687735,"name":"Ziplignan","ascii":"Ziplignan","lat":6.44853,"lon":-5.84019,"population":8750},{"id":2287451,"name":"Kanoroba","ascii":"Kanoroba","lat":9.11088,"lon":-6.12238,"population":8735},{"id":2284761,"name":"Madinani","ascii":"Madinani","lat":9.61083,"lon":-6.94215,"population":8698},{"id":2284843,"name":"Loua","ascii":"Loua","lat":6.43822,"lon":-5.60554,"population":8694},{"id":2287634,"name":"Kako","ascii":"Kako","lat":4.77572,"lon":-7.01707,"population":8690},{"id":2280069,"name":"Vaafla","ascii":"Vaafla","lat":7.41806,"lon":-6.64861,"population":8677},{"id":2285889,"name":"Koulaéoué","ascii":"Koulaeoue","lat":7.04434,"lon":-7.88591,"population":8651},{"id":12688102,"name":"Doumbiadougou","ascii":"Doumbiadougou","lat":6.60253,"lon":-7.31889,"population":8595},{"id":2293328,"name":"Aféré","ascii":"Afere","lat":6.90283,"lon":-4.08374,"population":8590},{"id":2284288,"name":"Moapé","ascii":"Moape","lat":6.18888,"lon":-3.80369,"population":8580},{"id":12687594,"name":"Affalikro","ascii":"Affalikro","lat":6.64548,"lon":-3.38381,"population":8575},{"id":2292211,"name":"Bandiay","ascii":"Bandiay","lat":7.2,"lon":-6.18333,"population":8575},{"id":12687507,"name":"Kpada","ascii":"Kpada","lat":5.77996,"lon":-6.48509,"population":8551},{"id":2281349,"name":"Sononzo","ascii":"Sononzo","lat":8.62639,"lon":-6.13,"population":8551},{"id":12687734,"name":"Zohoa","ascii":"Zohoa","lat":6.32387,"lon":-6.15829,"population":8547},{"id":2279695,"name":"Yapleu","ascii":"Yapleu","lat":7.09056,"lon":-7.71028,"population":8519},{"id":2290144,"name":"Diby","ascii":"Diby","lat":5.65774,"lon":-2.97845,"population":8516},{"id":2293321,"name":"Affiénou","ascii":"Affienou","lat":5.41118,"lon":-2.92478,"population":8502},{"id":12687506,"name":"Moussayo","ascii":"Moussayo","lat":5.98952,"lon":-6.43714,"population":8493},{"id":12687505,"name":"Kodaya","ascii":"Kodaya","lat":5.99517,"lon":-6.97259,"population":8481},{"id":2282866,"name":"Ouellé","ascii":"Ouelle","lat":7.29611,"lon":-4.01364,"population":8481},{"id":12687504,"name":"Trawaininkro","ascii":"Trawaininkro","lat":6.06286,"lon":-6.88054,"population":8472},{"id":2282609,"name":"Pauli-Brousse","ascii":"Pauli-Brousse","lat":4.96289,"lon":-6.18983,"population":8464},{"id":2281475,"name":"Soko","ascii":"Soko","lat":7.99173,"lon":-2.74435,"population":8427},{"id":2288497,"name":"Gloplou","ascii":"Gloplou","lat":7.11261,"lon":-7.35152,"population":8418},{"id":2288091,"name":"Grégbeu","ascii":"Gregbeu","lat":6.80685,"lon":-6.71716,"population":8385},{"id":12687503,"name":"Wonséaly","ascii":"Wonsealy","lat":6.17149,"lon":-7.03729,"population":8381},{"id":2289543,"name":"Duférébo","ascii":"Duferebo","lat":7.08976,"lon":-3.44624,"population":8361},{"id":12688101,"name":"Gonié-Tahouaké","ascii":"Gonie-Tahouake","lat":7.13159,"lon":-7.29997,"population":8333},{"id":8031882,"name":"Samo","ascii":"Samo","lat":5.284,"lon":-3.51785,"population":8327},{"id":12687733,"name":"Kadéko","ascii":"Kadeko","lat":6.09846,"lon":-5.58439,"population":8283},{"id":2293085,"name":"Akridou","ascii":"Akridou","lat":5.62668,"lon":-5.60681,"population":8274},{"id":12687857,"name":"Tiékou-Carrefour","ascii":"Tiekou-Carrefour","lat":6.35872,"lon":-4.28598,"population":8265},{"id":2281142,"name":"Tabo","ascii":"Tabo","lat":6.2361,"lon":-5.13745,"population":8260},{"id":12687732,"name":"Dougodou","ascii":"Dougodou","lat":5.30101,"lon":-5.35141,"population":8253},{"id":12687964,"name":"Assangbadji","ascii":"Assangbadji","lat":6.40782,"lon":-3.87669,"population":8240},{"id":2288447,"name":"Godélilié","ascii":"Godelilie","lat":6.0456,"lon":-5.84345,"population":8174},{"id":12688100,"name":"Tié-Iné","ascii":"Tie-Ine","lat":6.90141,"lon":-7.59785,"population":8169},{"id":2281973,"name":"Sapli","ascii":"Sapli","lat":8.14477,"lon":-2.98627,"population":8164},{"id":2285614,"name":"Kregbé","ascii":"Kregbe","lat":6.97249,"lon":-3.98416,"population":8138},{"id":2280143,"name":"Tiéme","ascii":"Tieme","lat":9.54452,"lon":-7.31778,"population":8123},{"id":2286459,"name":"Kong","ascii":"Kong","lat":6.11391,"lon":-3.64849,"population":8103},{"id":12687502,"name":"Liliyo","ascii":"Liliyo","lat":5.99473,"lon":-6.3573,"population":8086},{"id":12688408,"name":"Djélisso","ascii":"Djelisso","lat":10.19489,"lon":-5.39097,"population":8076},{"id":2283847,"name":"N’deou","ascii":"N'deou","lat":9.97,"lon":-6.61823,"population":8073},{"id":7849854,"name":"Namane","ascii":"Namane","lat":6.42177,"lon":-6.68203,"population":8064},{"id":2290819,"name":"Bouoissué","ascii":"Bouoissue","lat":6.96348,"lon":-3.2324,"population":8044},{"id":2290169,"name":"Diapé","ascii":"Diape","lat":6.0142,"lon":-3.92726,"population":8029},{"id":12688211,"name":"N'Douffoukankro","ascii":"N'Douffoukankro","lat":6.8616,"lon":-5.82098,"population":8025},{"id":2286007,"name":"Kouassi-Datékro","ascii":"Kouassi-Datekro","lat":7.8175,"lon":-3.52556,"population":7965},{"id":2288207,"name":"Gbeya","ascii":"Gbeya","lat":10.31053,"lon":-6.93507,"population":7960},{"id":2286892,"name":"Kodioussou","ascii":"Kodioussou","lat":5.77116,"lon":-3.75595,"population":7958},{"id":12687501,"name":"Négbatchi","ascii":"Negbatchi","lat":4.89972,"lon":-7.46838,"population":7958},{"id":2291027,"name":"Boron","ascii":"Boron","lat":8.69445,"lon":-5.96906,"population":7952},{"id":2279393,"name":"Zékrézinssou","ascii":"Zekrezinssou","lat":7.07158,"lon":-4.28036,"population":7952},{"id":2291257,"name":"Bohinou","ascii":"Bohinou","lat":7.17337,"lon":-6.83116,"population":7938},{"id":2284404,"name":"Memni","ascii":"Memni","lat":5.51121,"lon":-3.73995,"population":7924},{"id":2290310,"name":"Déma","ascii":"Dema","lat":7.30833,"lon":-6.48194,"population":7920},{"id":2290438,"name":"Dania","ascii":"Dania","lat":7.15082,"lon":-6.84125,"population":7908},{"id":2597112,"name":"Adaou","ascii":"Adaou","lat":5.42783,"lon":-3.26443,"population":7898},{"id":2290335,"name":"Dédifla","ascii":"Dedifla","lat":7.2851,"lon":-6.58711,"population":7881},{"id":2292399,"name":"Bagouri","ascii":"Bagouri","lat":7.12992,"lon":-6.81457,"population":7858},{"id":2596814,"name":"Tézié","ascii":"Tezie","lat":6.3875,"lon":-6.3025,"population":7849},{"id":12688535,"name":"Sran-Bélakro","ascii":"Sran-Belakro","lat":7.35138,"lon":-5.59067,"population":7847},{"id":2282250,"name":"Raviart","ascii":"Raviart","lat":7.40422,"lon":-4.88668,"population":7838},{"id":2596951,"name":"Agou","ascii":"Agou","lat":5.98289,"lon":-3.94393,"population":7823},{"id":2284583,"name":"Manoufla","ascii":"Manoufla","lat":6.6195,"lon":-5.62714,"population":7818},{"id":12687731,"name":"Goudouko","ascii":"Goudouko","lat":5.73666,"lon":-5.61581,"population":7811},{"id":2279539,"name":"Zabré","ascii":"Zabre","lat":5.31012,"lon":-6.27536,"population":7807},{"id":12687500,"name":"Magnéry","ascii":"Magnery","lat":4.94007,"lon":-6.92193,"population":7805},{"id":2570408,"name":"Koulouan","ascii":"Koulouan","lat":6.95309,"lon":-7.69888,"population":7785},{"id":2285596,"name":"Krinjabo","ascii":"Krinjabo","lat":5.39733,"lon":-3.21357,"population":7780},{"id":2288102,"name":"Grand Morié","ascii":"Grand Morie","lat":5.98312,"lon":-4.13537,"population":7766},{"id":8032042,"name":"Alosso-II","ascii":"Alosso-II","lat":5.56437,"lon":-3.50035,"population":7758},{"id":2290396,"name":"Darakokaha","ascii":"Darakokaha","lat":8.28921,"lon":-5.15868,"population":7733},{"id":2287940,"name":"Guinkin","ascii":"Guinkin","lat":6.5667,"lon":-7.72277,"population":7731},{"id":12687392,"name":"Néro","ascii":"Nero","lat":4.50817,"lon":-7.5212,"population":7724},{"id":2289222,"name":"Faraba","ascii":"Faraba","lat":8.65459,"lon":-6.252,"population":7692},{"id":2281075,"name":"Taï","ascii":"Tai","lat":5.87366,"lon":-7.45519,"population":7670},{"id":2596993,"name":"Sanhoukro","ascii":"Sanhoukro","lat":5.78499,"lon":-3.12968,"population":7668},{"id":2290917,"name":"Boudépé","ascii":"Boudepe","lat":5.98392,"lon":-3.98698,"population":7662},{"id":12688099,"name":"Kéibly","ascii":"Keibly","lat":5.99636,"lon":-7.4726,"population":7654},{"id":12687730,"name":"Cfi-Baroko","ascii":"Cfi-Baroko","lat":5.72051,"lon":-5.17192,"population":7650},{"id":2283930,"name":"Napié","ascii":"Napie","lat":9.28868,"lon":-5.58324,"population":7627},{"id":2292718,"name":"Assaoufoué","ascii":"Assaoufoue","lat":6.57675,"lon":-4.22405,"population":7624},{"id":2292866,"name":"Anoumaba","ascii":"Anoumaba","lat":6.33735,"lon":-4.51626,"population":7623},{"id":2596986,"name":"Appouasso","ascii":"Appouasso","lat":5.96305,"lon":-3.17605,"population":7622},{"id":12687963,"name":"Ellibou","ascii":"Ellibou","lat":5.6882,"lon":-4.51,"population":7615},{"id":2292877,"name":"Anno","ascii":"Anno","lat":5.85952,"lon":-4.37902,"population":7593},{"id":2284032,"name":"Nambézaria","ascii":"Nambezaria","lat":5.65,"lon":-5.75,"population":7569},{"id":12687593,"name":"Siakakro","ascii":"Siakakro","lat":6.91244,"lon":-3.24469,"population":7566},{"id":2285508,"name":"Labodougou","ascii":"Labodougou","lat":5.71433,"lon":-5.41263,"population":7563},{"id":2282955,"name":"Oress-Krobou","ascii":"Oress-Krobou","lat":5.7324,"lon":-4.3947,"population":7526},{"id":12687499,"name":"Mayakoffikro","ascii":"Mayakoffikro","lat":6.27502,"lon":-6.99623,"population":7523},{"id":2597109,"name":"Assouba","ascii":"Assouba","lat":5.45956,"lon":-3.25653,"population":7521},{"id":2293269,"name":"Agbossou","ascii":"Agbossou","lat":6.86144,"lon":-4.0816,"population":7488},{"id":12687498,"name":"Gnipi","ascii":"Gnipi","lat":5.66876,"lon":-6.64374,"population":7478},{"id":7848486,"name":"Ledjean","ascii":"Ledjean","lat":6.92867,"lon":-7.10539,"population":7462},{"id":2282706,"name":"Pakouabo","ascii":"Pakouabo","lat":7.15724,"lon":-5.7925,"population":7443},{"id":2290654,"name":"Brozan","ascii":"Brozan","lat":6.39873,"lon":-5.50306,"population":7427},{"id":12687729,"name":"Kazéribéri","ascii":"Kazeriberi","lat":5.63899,"lon":-5.61016,"population":7413},{"id":2287360,"name":"Karié","ascii":"Karie","lat":5.437,"lon":-7.33944,"population":7412},{"id":2280988,"name":"Talléré","ascii":"Tallere","lat":9.20084,"lon":-6.14807,"population":7411},{"id":2285350,"name":"Latokaha","ascii":"Latokaha","lat":8.62257,"lon":-5.38733,"population":7405},{"id":2281571,"name":"Sipilou","ascii":"Sipilou","lat":7.8645,"lon":-8.10143,"population":7395},{"id":2596997,"name":"Mborou","ascii":"Mborou","lat":5.59474,"lon":-4.36334,"population":7388},{"id":2285362,"name":"Lataha","ascii":"Lataha","lat":9.56724,"lon":-5.59098,"population":7379},{"id":2291148,"name":"Booda","ascii":"Booda","lat":6.36075,"lon":-5.68817,"population":7351},{"id":2287428,"name":"Kanzra","ascii":"Kanzra","lat":7.32282,"lon":-6.22237,"population":7347},{"id":2292663,"name":"Assinie-Mafia","ascii":"Assinie-Mafia","lat":5.13384,"lon":-3.29096,"population":7338},{"id":2279222,"name":"Zouhounou","ascii":"Zouhounou","lat":6.61217,"lon":-3.29229,"population":7304},{"id":2291409,"name":"Bobi","ascii":"Bobi","lat":8.16144,"lon":-6.55006,"population":7299},{"id":2292535,"name":"Ayénoua","ascii":"Ayenoua","lat":5.36681,"lon":-3.31774,"population":7293},{"id":12688210,"name":"Gbéhigbly","ascii":"Gbehigbly","lat":7.25591,"lon":-7.05965,"population":7285},{"id":2280901,"name":"Tayo","ascii":"Tayo","lat":5.66667,"lon":-6.35,"population":7285},{"id":2279474,"name":"Zanfouénou","ascii":"Zanfouenou","lat":6.70516,"lon":-4.10607,"population":7281},{"id":2287859,"name":"Iboguhé","ascii":"Iboguhe","lat":6.5481,"lon":-6.84419,"population":7280},{"id":2283475,"name":"Nidrou","ascii":"Nidrou","lat":6.90202,"lon":-7.18141,"population":7280},{"id":2292173,"name":"Bangoua","ascii":"Bangoua","lat":7.33542,"lon":-3.47303,"population":7259},{"id":12688513,"name":"Sucaf Ci Village","ascii":"Sucaf Ci Village","lat":9.29837,"lon":-5.29325,"population":7252},{"id":2279861,"name":"Wora","ascii":"Wora","lat":10.08407,"lon":-6.32683,"population":7217},{"id":2293096,"name":"Akradio","ascii":"Akradio","lat":5.43719,"lon":-4.36353,"population":7198},{"id":12687497,"name":"Gbalébouo","ascii":"Gbalebouo","lat":5.73699,"lon":-6.34582,"population":7184},{"id":2291177,"name":"Bolona","ascii":"Bolona","lat":10.29666,"lon":-6.43756,"population":7169},{"id":2291658,"name":"Biasso","ascii":"Biasso","lat":6.11151,"lon":-3.78657,"population":7160},{"id":2291469,"name":"Blésségue","ascii":"Blessegue","lat":10.19833,"lon":-6.40778,"population":7160},{"id":2285677,"name":"Koyékro","ascii":"Koyekro","lat":6.15253,"lon":-4.74567,"population":7138},{"id":2284706,"name":"Mahra","ascii":"Mahra","lat":8.67927,"lon":-5.97627,"population":7132},{"id":2293452,"name":"Abradine","ascii":"Abradine","lat":6.19975,"lon":-3.61125,"population":7127},{"id":2285831,"name":"Koun-Fao","ascii":"Koun-Fao","lat":7.48764,"lon":-3.25249,"population":7114},{"id":2285826,"name":"Kounahiri","ascii":"Kounahiri","lat":7.79089,"lon":-5.83477,"population":7107},{"id":2284193,"name":"Montézo","ascii":"Montezo","lat":5.48556,"lon":-3.74027,"population":7107},{"id":2292765,"name":"Apprompron","ascii":"Apprompron","lat":6.29219,"lon":-3.31526,"population":7102},{"id":2290475,"name":"Diamarakro","ascii":"Diamarakro","lat":6.23681,"lon":-3.32006,"population":7102},{"id":2289777,"name":"Doké","ascii":"Doke","lat":6.59281,"lon":-8.11205,"population":7102},{"id":12687496,"name":"Ziéagui","ascii":"Zieagui","lat":5.56399,"lon":-6.90694,"population":7086},{"id":2290197,"name":"Diangbanasso","ascii":"Diangbanasso","lat":9.08161,"lon":-4.6415,"population":7080},{"id":2285381,"name":"Laouda","ascii":"Laouda","lat":6.20829,"lon":-5.70204,"population":7070},{"id":2279967,"name":"Ouandérama-Dioulasso","ascii":"Ouanderama-Dioulasso","lat":8.65,"lon":-4.4,"population":7042},{"id":12687728,"name":"Wanéwa","ascii":"Wanewa","lat":5.82369,"lon":-6.11183,"population":7036},{"id":2291504,"name":"Blapleu","ascii":"Blapleu","lat":7.63918,"lon":-7.73705,"population":7026},{"id":2280083,"name":"Tyonlé","ascii":"Tyonle","lat":7.0564,"lon":-7.66649,"population":7009},{"id":12687495,"name":"Kagnénako","ascii":"Kagnenako","lat":5.81191,"lon":-6.349,"population":7007},{"id":2290528,"name":"Dairo","ascii":"Dairo","lat":5.66059,"lon":-5.47393,"population":7005},{"id":2597029,"name":"Nzodji","ascii":"Nzodji","lat":5.59375,"lon":-3.85083,"population":7000},{"id":2280973,"name":"Tankéssi","ascii":"Tankessi","lat":7.34908,"lon":-3.20347,"population":6983},{"id":8356569,"name":"Toumanguié","ascii":"Toumanguie","lat":5.32703,"lon":-3.32374,"population":6978},{"id":2281097,"name":"Tagadi","ascii":"Tagadi","lat":8.63154,"lon":-2.62515,"population":6975},{"id":2283232,"name":"Nougoua","ascii":"Nougoua","lat":5.34177,"lon":-2.77659,"population":6974},{"id":2290178,"name":"Dianoufla","ascii":"Dianoufla","lat":6.79928,"lon":-6.01422,"population":6971},{"id":12687962,"name":"Nouvel-Ousrou","ascii":"Nouvel-Ousrou","lat":5.41101,"lon":-4.51335,"population":6967},{"id":2289434,"name":"Ebikro-Ndakro","ascii":"Ebikro-Ndakro","lat":5.725,"lon":-3.11099,"population":6966},{"id":2290626,"name":"Chiépo","ascii":"Chiepo","lat":5.69519,"lon":-5.06251,"population":6963},{"id":2279375,"name":"Zépréguhé","ascii":"Zepreguhe","lat":6.90617,"lon":-6.3704,"population":6963},{"id":2280582,"name":"Tinhou","ascii":"Tinhou","lat":6.43832,"lon":-8.1561,"population":6961},{"id":12687881,"name":"Amani","ascii":"Amani","lat":5.69753,"lon":-4.72254,"population":6957},{"id":12687493,"name":"Niorouhio","ascii":"Niorouhio","lat":5.76837,"lon":-6.12006,"population":6935},{"id":12688209,"name":"Benhuafla","ascii":"Benhuafla","lat":6.59526,"lon":-5.87943,"population":6926},{"id":2285942,"name":"Koudougou","ascii":"Koudougou","lat":6.93528,"lon":-5.6663,"population":6924},{"id":7849875,"name":"Lobozoa","ascii":"Lobozoa","lat":6.21819,"lon":-6.95554,"population":6923},{"id":12688208,"name":"Diacohou-Sud","ascii":"Diacohou-Sud","lat":6.78794,"lon":-5.87103,"population":6900},{"id":2282099,"name":"San","ascii":"San","lat":10.3905,"lon":-6.43582,"population":6896},{"id":2284658,"name":"Maminigui","ascii":"Maminigui","lat":7.40183,"lon":-5.84077,"population":6895},{"id":2285438,"name":"Lalogo","ascii":"Lalogo","lat":8.83327,"lon":-6.3566,"population":6893},{"id":12687492,"name":"Bricolo","ascii":"Bricolo","lat":5.78502,"lon":-6.45205,"population":6891},{"id":2286237,"name":"Kosso","ascii":"Kosso","lat":5.04973,"lon":-5.77883,"population":6887},{"id":2281999,"name":"Santa","ascii":"Santa","lat":7.66389,"lon":-7.84778,"population":6874},{"id":2286487,"name":"Kodiébouman","ascii":"Kodiebouman","lat":6.22107,"lon":-4.54056,"population":6871},{"id":2285287,"name":"Léléblé","ascii":"Leleble","lat":6.23311,"lon":-5.22341,"population":6870},{"id":12688098,"name":"Zaodrou","ascii":"Zaodrou","lat":7.15835,"lon":-7.1848,"population":6865},{"id":2280521,"name":"Toazéo","ascii":"Toazeo","lat":6.79943,"lon":-7.32988,"population":6841},{"id":2291791,"name":"Benzra","ascii":"Benzra","lat":7.32774,"lon":-6.00849,"population":6840},{"id":2289415,"name":"Abronambué","ascii":"Abronambue","lat":6.75611,"lon":-3.34139,"population":6836},{"id":2288791,"name":"Gangbapleu","ascii":"Gangbapleu","lat":7.74878,"lon":-7.89301,"population":6803},{"id":12688407,"name":"Mougnini","ascii":"Mougnini","lat":10.01405,"lon":-6.67064,"population":6800},{"id":2596901,"name":"Sahuyé","ascii":"Sahuye","lat":5.73253,"lon":-4.52683,"population":6796},{"id":2279327,"name":"Zikisso","ascii":"Zikisso","lat":6.06396,"lon":-5.70245,"population":6791},{"id":2287868,"name":"Huafla","ascii":"Huafla","lat":6.56368,"lon":-5.79967,"population":6782},{"id":2288175,"name":"Gouméré","ascii":"Goumere","lat":7.8963,"lon":-2.98013,"population":6778},{"id":2291491,"name":"Bléanianda","ascii":"Bleanianda","lat":6.3072,"lon":-5.70499,"population":6768},{"id":2288081,"name":"Gribouo","ascii":"Gribouo","lat":6.19511,"lon":-6.9132,"population":6760},{"id":2280177,"name":"Guiembé","ascii":"Guiembe","lat":9.23298,"lon":-5.71277,"population":6751},{"id":2280997,"name":"Tanbi","ascii":"Tanbi","lat":8.23343,"lon":-2.57362,"population":6748},{"id":2288117,"name":"Grand Alépé","ascii":"Grand Alepe","lat":5.47503,"lon":-3.76424,"population":6718},{"id":12687592,"name":"Kossonoukro","ascii":"Kossonoukro","lat":6.0107,"lon":-3.38927,"population":6717},{"id":2288755,"name":"Gaouroubré","ascii":"Gaouroubre","lat":5.28057,"lon":-6.24612,"population":6713},{"id":2291284,"name":"Boguédia","ascii":"Boguedia","lat":6.63434,"lon":-6.51915,"population":6711},{"id":2285639,"name":"Kpouébo","ascii":"Kpouebo","lat":6.33441,"lon":-4.85618,"population":6709},{"id":2281807,"name":"Séliéguhé","ascii":"Selieguhe","lat":6.62265,"lon":-6.86803,"population":6708},{"id":2597371,"name":"Nafoungolo","ascii":"Nafoungolo","lat":10.31364,"lon":-5.44754,"population":6700},{"id":2283802,"name":"Ndjemin","ascii":"Ndjemin","lat":5.27031,"lon":-4.23875,"population":6695},{"id":8051543,"name":"Ono Salci","ascii":"Ono Salci","lat":5.38138,"lon":-3.5655,"population":6695},{"id":2293364,"name":"Adébem","ascii":"Adebem","lat":5.47349,"lon":-5.83667,"population":6682},{"id":2288800,"name":"Gan","ascii":"Gan","lat":7.06596,"lon":-7.89385,"population":6677},{"id":7848498,"name":"Béablo","ascii":"Beablo","lat":6.37887,"lon":-7.33397,"population":6663},{"id":12687491,"name":"Nonouan","ascii":"Nonouan","lat":5.023,"lon":-6.37198,"population":6652},{"id":2289754,"name":"Domobly","ascii":"Domobly","lat":6.5321,"lon":-7.57411,"population":6647},{"id":12687490,"name":"Baglo","ascii":"Baglo","lat":6.37166,"lon":-7.1439,"population":6607},{"id":2289865,"name":"Djidoubaye","ascii":"Djidoubaye","lat":6.08567,"lon":-7.48642,"population":6600},{"id":2290192,"name":"Diangobo","ascii":"Diangobo","lat":6.56564,"lon":-3.33675,"population":6599},{"id":2288518,"name":"Glanié","ascii":"Glanie","lat":7.75948,"lon":-8.0813,"population":6581},{"id":2291488,"name":"Blédi Diéya","ascii":"Bledi Dieya","lat":6.58627,"lon":-8.06722,"population":6580},{"id":12687489,"name":"Dahili","ascii":"Dahili","lat":5.50267,"lon":-6.78421,"population":6580},{"id":2286888,"name":"Kodjina","ascii":"Kodjina","lat":6.73543,"lon":-3.59696,"population":6545},{"id":2281938,"name":"Satikran","ascii":"Satikran","lat":6.82699,"lon":-3.74318,"population":6532},{"id":2291932,"name":"Bébou","ascii":"Bebou","lat":6.3617,"lon":-3.41275,"population":6526},{"id":2279594,"name":"Yokoboué","ascii":"Yokoboue","lat":5.26933,"lon":-5.10658,"population":6520},{"id":2292681,"name":"Assié Akpessé","ascii":"Assie Akpesse","lat":6.46539,"lon":-4.33607,"population":6514},{"id":7850683,"name":"Gloleu","ascii":"Gloleu","lat":7.12901,"lon":-7.76901,"population":6506},{"id":2288027,"name":"Guéhiébli","ascii":"Guehiebli","lat":6.89479,"lon":-7.43139,"population":6504},{"id":12687488,"name":"Zougouzoa","ascii":"Zougouzoa","lat":6.2121,"lon":-6.59185,"population":6504},{"id":2279247,"name":"Zonlé I","ascii":"Zonle I","lat":7.36466,"lon":-7.7695,"population":6501},{"id":12687727,"name":"Ahizabré","ascii":"Ahizabre","lat":6.04923,"lon":-6.09978,"population":6499},{"id":2279364,"name":"Zéribéri","ascii":"Zeriberi","lat":5.38418,"lon":-5.44369,"population":6493},{"id":2279418,"name":"Zéalé","ascii":"Zeale","lat":6.98846,"lon":-8.16097,"population":6491},{"id":2289473,"name":"Diéouzon","ascii":"Dieouzon","lat":7.15575,"lon":-7.32219,"population":6480},{"id":2291913,"name":"Bégbessou","ascii":"Begbessou","lat":7.06697,"lon":-5.59738,"population":6463},{"id":2292402,"name":"Bagoliéoua","ascii":"Bagolieoua","lat":6.16794,"lon":-6.53318,"population":6446},{"id":2292311,"name":"Baléko","ascii":"Baleko","lat":5.4339,"lon":-6.02594,"population":6443},{"id":2286307,"name":"Koréguhé","ascii":"Koreguhe","lat":6.18859,"lon":-6.65891,"population":6436},{"id":2292952,"name":"Amoriki","ascii":"Amoriki","lat":7.08793,"lon":-4.16155,"population":6420},{"id":12687487,"name":"Kangagui","ascii":"Kangagui","lat":5.71755,"lon":-6.80999,"population":6416},{"id":2281137,"name":"Tabagné","ascii":"Tabagne","lat":7.99104,"lon":-3.06871,"population":6416},{"id":2282253,"name":"Piébly Un","ascii":"Piebly Un","lat":7.25125,"lon":-7.08299,"population":6413},{"id":2286038,"name":"Kouan Houlé","ascii":"Kouan Houle","lat":7.39279,"lon":-8.26093,"population":6406},{"id":2292445,"name":"Badikaha","ascii":"Badikaha","lat":9.19166,"lon":-5.16499,"population":6393},{"id":2279910,"name":"Ouellé","ascii":"Ouelle","lat":10.35602,"lon":-6.80896,"population":6366},{"id":2279867,"name":"Wongé","ascii":"Wonge","lat":8.32675,"lon":-6.57449,"population":6354},{"id":12688097,"name":"Pona-Vahi","ascii":"Pona-Vahi","lat":6.94692,"lon":-7.16088,"population":6333},{"id":2292037,"name":"Bassadzin","ascii":"Bassadzin","lat":5.93741,"lon":-3.73819,"population":6322},{"id":12688207,"name":"Gouriniani","ascii":"Gouriniani","lat":7.20357,"lon":-6.18393,"population":6320},{"id":2279775,"name":"Yala","ascii":"Yala","lat":7.37778,"lon":-6.82639,"population":6313},{"id":2279510,"name":"Zahirogbeu","ascii":"Zahirogbeu","lat":6.76219,"lon":-6.88421,"population":6309},{"id":2293535,"name":"Abié","ascii":"Abie","lat":5.86647,"lon":-3.92574,"population":6305},{"id":2279951,"name":"Waranyéné","ascii":"Waranyene","lat":9.41999,"lon":-5.66747,"population":6305},{"id":2282124,"name":"Samatiguila","ascii":"Samatiguila","lat":9.81952,"lon":-7.56085,"population":6278},{"id":2289580,"name":"Drayo","ascii":"Drayo","lat":6.25898,"lon":-6.04026,"population":6275},{"id":8032016,"name":"Banguié I","ascii":"Banguie I","lat":5.90159,"lon":-4.20054,"population":6259},{"id":2287945,"name":"Gunglo Zia","ascii":"Gunglo Zia","lat":6.82062,"lon":-7.24392,"population":6252},{"id":2288293,"name":"Gotongouiné","ascii":"Gotongouine","lat":7.17363,"lon":-7.74959,"population":6250},{"id":2292635,"name":"Assoumoukro","ascii":"Assoumoukro","lat":6.46403,"lon":-4.3728,"population":6248},{"id":2286294,"name":"Koro","ascii":"Koro","lat":8.55505,"lon":-7.46348,"population":6219},{"id":2283916,"name":"Nassian","ascii":"Nassian","lat":8.45275,"lon":-3.47152,"population":6202},{"id":12687591,"name":"Saykro","ascii":"Saykro","lat":5.2736,"lon":-2.78369,"population":6198},{"id":12687486,"name":"Angagui","ascii":"Angagui","lat":5.94737,"lon":-6.81144,"population":6186},{"id":2287999,"name":"Guéssiguié Un","ascii":"Guessiguie Un","lat":5.73853,"lon":-4.2355,"population":6186},{"id":2291639,"name":"Bidiouan","ascii":"Bidiouan","lat":6.61531,"lon":-6.23701,"population":6184},{"id":2293099,"name":"Akpessékro","ascii":"Akpessekro","lat":6.72488,"lon":-5.30602,"population":6176},{"id":2280906,"name":"Tawara","ascii":"Tawara","lat":9.65719,"lon":-5.65254,"population":6161},{"id":12688096,"name":"Gohouo-Zarabaon","ascii":"Gohouo-Zarabaon","lat":7.00374,"lon":-7.7499,"population":6160},{"id":2288179,"name":"Goulikao","ascii":"Goulikao","lat":6.50706,"lon":-5.52408,"population":6158},{"id":2291660,"name":"Biantouo","ascii":"Biantouo","lat":6.96438,"lon":-8.24995,"population":6157},{"id":2286705,"name":"Kokolopozo","ascii":"Kokolopozo","lat":5.13662,"lon":-6.08244,"population":6143},{"id":2279937,"name":"Wataradougou","ascii":"Wataradougou","lat":8.67176,"lon":-5.81538,"population":6130},{"id":2284820,"name":"Lomara","ascii":"Lomara","lat":10.35174,"lon":-6.33887,"population":6127},{"id":12687485,"name":"Gnanké","ascii":"Gnanke","lat":5.29851,"lon":-6.5289,"population":6126},{"id":2283664,"name":"Nguessankro","ascii":"Nguessankro","lat":6.63468,"lon":-4.30349,"population":6119},{"id":2286455,"name":"Kongaso","ascii":"Kongaso","lat":7.81533,"lon":-6.07747,"population":6110},{"id":2290620,"name":"Cosrou","ascii":"Cosrou","lat":5.31906,"lon":-4.65889,"population":6108},{"id":2281763,"name":"Sépénédyokaha","ascii":"Sepenedyokaha","lat":9.84286,"lon":-5.15788,"population":6096},{"id":12687856,"name":"Allangbakro","ascii":"Allangbakro","lat":6.75314,"lon":-4.41157,"population":6088},{"id":2290205,"name":"Dianambroufla","ascii":"Dianambroufla","lat":6.65823,"lon":-5.62325,"population":6077},{"id":2282054,"name":"Sanégourifla","ascii":"Sanegourifla","lat":6.65521,"lon":-5.80021,"population":6073},{"id":2284203,"name":"Morokro","ascii":"Morokro","lat":6.0776,"lon":-4.70306,"population":6060},{"id":2291142,"name":"Bondo-Dioula","ascii":"Bondo-Dioula","lat":8.21942,"lon":-3.2004,"population":6058},{"id":12687726,"name":"Pissékou","ascii":"Pissekou","lat":6.28651,"lon":-5.82015,"population":6047},{"id":12687961,"name":"Irobo","ascii":"Irobo","lat":5.29358,"lon":-4.79603,"population":6026},{"id":2287533,"name":"Kanangonon","ascii":"Kanangonon","lat":8.29825,"lon":-5.05627,"population":6026},{"id":2284197,"name":"Moronou","ascii":"Moronou","lat":6.32043,"lon":-4.97121,"population":6017},{"id":2290153,"name":"Diasson","ascii":"Diasson","lat":5.97152,"lon":-3.72759,"population":6013},{"id":2287711,"name":"Kadioha","ascii":"Kadioha","lat":8.96821,"lon":-5.88332,"population":5996},{"id":2289927,"name":"Yorodougou","ascii":"Yorodougou","lat":7.78356,"lon":-7.88024,"population":5996},{"id":2290135,"name":"Diboké","ascii":"Diboke","lat":6.44434,"lon":-8.11234,"population":5969},{"id":2289448,"name":"Dyougoublé","ascii":"Dyougouble","lat":9.52789,"lon":-5.935,"population":5965},{"id":2597174,"name":"Bessedi Anon","ascii":"Bessedi Anon","lat":5.92585,"lon":-3.99411,"population":5964},{"id":12687484,"name":"Gobroko","ascii":"Gobroko","lat":5.40626,"lon":-5.90484,"population":5957},{"id":2292317,"name":"Balayo","ascii":"Balayo","lat":6.44012,"lon":-6.01255,"population":5951},{"id":2284481,"name":"Mbaoussiéssou","ascii":"Mbaoussiessou","lat":6.58073,"lon":-4.2711,"population":5946},{"id":2293124,"name":"Akoudzin","ascii":"Akoudzin","lat":6.02639,"lon":-3.98333,"population":5937},{"id":2279315,"name":"Zaguinasso","ascii":"Zaguinasso","lat":10.04886,"lon":-6.35999,"population":5934},{"id":2292102,"name":"Baoubli","ascii":"Baoubli","lat":6.80566,"lon":-7.39931,"population":5929},{"id":2597172,"name":"Tiapoum","ascii":"Tiapoum","lat":5.13622,"lon":-3.02308,"population":5920},{"id":2284250,"name":"Monga","ascii":"Monga","lat":5.47623,"lon":-3.6607,"population":5902},{"id":2283222,"name":"Noumousséria I","ascii":"Noumousseria I","lat":6.70982,"lon":-6.66308,"population":5893},{"id":2282372,"name":"Ponan","ascii":"Ponan","lat":5.90336,"lon":-7.47722,"population":5889},{"id":2279506,"name":"Zakuéoua","ascii":"Zakueoua","lat":6.24931,"lon":-6.50741,"population":5883},{"id":12687483,"name":"Sérigbangan","ascii":"Serigbangan","lat":5.52778,"lon":-6.71258,"population":5882},{"id":2289291,"name":"Facobly","ascii":"Facobly","lat":7.3883,"lon":-7.37644,"population":5880},{"id":2293399,"name":"Adikokoi","ascii":"Adikokoi","lat":6.63331,"lon":-3.71193,"population":5852},{"id":2291786,"name":"Béoua","ascii":"Beoua","lat":6.5399,"lon":-7.64601,"population":5842},{"id":2279626,"name":"Yorobodi","ascii":"Yorobodi","lat":8.11913,"lon":-3.68191,"population":5841},{"id":2284710,"name":"Mahino","ascii":"Mahino","lat":5.11262,"lon":-7.4149,"population":5833},{"id":2292134,"name":"Banneu","ascii":"Banneu","lat":7.07343,"lon":-8.25311,"population":5830},{"id":2289321,"name":"Fadiadougou","ascii":"Fadiadougou","lat":8.7,"lon":-6.62139,"population":5813},{"id":2287795,"name":"Yrozon","ascii":"Yrozon","lat":6.84043,"lon":-7.21862,"population":5813},{"id":2282179,"name":"Sakaouo","ascii":"Sakaouo","lat":6.46381,"lon":-5.69083,"population":5810},{"id":2289537,"name":"Duonfla","ascii":"Duonfla","lat":6.843,"lon":-5.49915,"population":5806},{"id":2285368,"name":"Lasologo","ascii":"Lasologo","lat":9.58605,"lon":-5.10091,"population":5793},{"id":2288495,"name":"Gloubli","ascii":"Gloubli","lat":6.89842,"lon":-7.77758,"population":5786},{"id":2285834,"name":"Koumoudji","ascii":"Koumoudji","lat":6.64449,"lon":-5.63742,"population":5773},{"id":2287289,"name":"Katoro","ascii":"Katoro","lat":10.14962,"lon":-6.12869,"population":5769},{"id":2282782,"name":"Ouréyo","ascii":"Oureyo","lat":6.01972,"lon":-6.59778,"population":5768},{"id":2290966,"name":"Bouafla","ascii":"Bouafla","lat":7.25219,"lon":-5.84987,"population":5750},{"id":12687590,"name":"Ehuasso","ascii":"Ehuasso","lat":6.32597,"lon":-3.44403,"population":5750},{"id":2292415,"name":"Bagasséhoa","ascii":"Bagassehoa","lat":6.19053,"lon":-6.36254,"population":5747},{"id":2281236,"name":"Soukourougban","ascii":"Soukourougban","lat":7.84873,"lon":-5.93504,"population":5747},{"id":7848062,"name":"Tahably Glodé","ascii":"Tahably Glode","lat":6.74399,"lon":-7.24159,"population":5742},{"id":2288101,"name":"Grand Yapo","ascii":"Grand Yapo","lat":5.82634,"lon":-4.15452,"population":5740},{"id":2287261,"name":"Kayo","ascii":"Kayo","lat":5.80977,"lon":-6.47534,"population":5738},{"id":2290115,"name":"Didizo","ascii":"Didizo","lat":5.65104,"lon":-5.45993,"population":5737},{"id":2284724,"name":"Mahalé","ascii":"Mahale","lat":10.12893,"lon":-6.57778,"population":5729},{"id":2291446,"name":"Blotilé","ascii":"Blotile","lat":7.04902,"lon":-7.69201,"population":5721},{"id":12687725,"name":"Mabouo","ascii":"Mabouo","lat":5.93446,"lon":-6.02418,"population":5720},{"id":2283993,"name":"Nandibo Un","ascii":"Nandibo Un","lat":5.28381,"lon":-4.92117,"population":5714},{"id":2292318,"name":"Balahio","ascii":"Balahio","lat":6.31448,"lon":-6.42587,"population":5712},{"id":8032524,"name":"Boka","ascii":"Boka","lat":5.94293,"lon":-4.39767,"population":5711},{"id":2597401,"name":"Bielou-carrefour","ascii":"Bielou-carrefour","lat":8.54139,"lon":-6.20056,"population":5710},{"id":2291387,"name":"Boboua","ascii":"Boboua","lat":7.01945,"lon":-6.47003,"population":5708},{"id":2288158,"name":"Gouriela","ascii":"Gouriela","lat":7.53053,"lon":-6.5145,"population":5708},{"id":2281957,"name":"Sarhala","ascii":"Sarhala","lat":8.41789,"lon":-6.17147,"population":5702},{"id":12687960,"name":"Djidjikro","ascii":"Djidjikro","lat":5.30993,"lon":-4.87689,"population":5694},{"id":2279533,"name":"Zadioa","ascii":"Zadioa","lat":6.43153,"lon":-6.39783,"population":5685},{"id":12687959,"name":"Ahéoua","ascii":"Aheoua","lat":6.36064,"lon":-3.86087,"population":5680},{"id":2292893,"name":"Angovia","ascii":"Angovia","lat":7.03305,"lon":-5.53697,"population":5680},{"id":7850553,"name":"Kreuzokoué","ascii":"Kreuzokoue","lat":6.07216,"lon":-5.44359,"population":5654},{"id":2292936,"name":"Annépé","ascii":"Annepe","lat":5.90612,"lon":-3.76986,"population":5648},{"id":2288421,"name":"Gogobro","ascii":"Gogobro","lat":6.15532,"lon":-5.32088,"population":5645},{"id":12687589,"name":"Kotouagnoa","ascii":"Kotouagnoa","lat":5.21608,"lon":-2.89049,"population":5645},{"id":7848495,"name":"Lokossou","ascii":"Lokossou","lat":6.60116,"lon":-7.37859,"population":5645},{"id":12687588,"name":"Akati","ascii":"Akati","lat":6.39852,"lon":-3.21473,"population":5629},{"id":2279194,"name":"Zraluo","ascii":"Zraluo","lat":7.57237,"lon":-5.88859,"population":5628},{"id":2288290,"name":"Gouabafla","ascii":"Gouabafla","lat":7.32113,"lon":-6.56099,"population":5619},{"id":2283019,"name":"Odia","ascii":"Odia","lat":9.37361,"lon":-6.16889,"population":5614},{"id":2287446,"name":"Kanouan","ascii":"Kanouan","lat":7.41694,"lon":-5.45222,"population":5611},{"id":2286492,"name":"Komborodougou","ascii":"Komborodougou","lat":9.32634,"lon":-5.42922,"population":5611},{"id":2283009,"name":"Offa","ascii":"Offa","lat":5.92241,"lon":-4.34689,"population":5610},{"id":2292989,"name":"Amangbo","ascii":"Amangbo","lat":6.0206,"lon":-4.37141,"population":5602},{"id":12688206,"name":"Minfla","ascii":"Minfla","lat":7.52299,"lon":-6.04404,"population":5602},{"id":2291364,"name":"Bodo","ascii":"Bodo","lat":5.90955,"lon":-4.68498,"population":5579},{"id":2281077,"name":"Taoudi","ascii":"Taoudi","lat":8.13701,"lon":-3.43473,"population":5571},{"id":12689277,"name":"Séman","ascii":"Seman","lat":6.89358,"lon":-5.29709,"population":5561},{"id":2288440,"name":"Godoua","ascii":"Godoua","lat":6.51865,"lon":-6.30316,"population":5559},{"id":2286313,"name":"Koréagui","ascii":"Koreagui","lat":5.54303,"lon":-6.60172,"population":5559},{"id":12687958,"name":"Ira","ascii":"Ira","lat":5.35403,"lon":-4.65894,"population":5558},{"id":2282975,"name":"Olodio","ascii":"Olodio","lat":4.71589,"lon":-7.46696,"population":5554},{"id":2596933,"name":"Mantongouiné","ascii":"Mantongouine","lat":7.28782,"lon":-8.03824,"population":5553},{"id":12689420,"name":"Ondéfidouo","ascii":"Ondefidouo","lat":9.04384,"lon":-3.08297,"population":5552},{"id":2291766,"name":"Béréblo","ascii":"Bereblo","lat":5.27505,"lon":-7.46269,"population":5549},{"id":2292763,"name":"Apron-Pronou","ascii":"Apron-Pronou","lat":7.00129,"lon":-3.36017,"population":5543},{"id":2288559,"name":"Guintéguéla","ascii":"Guinteguela","lat":8.29044,"lon":-7.30927,"population":5543},{"id":12687482,"name":"Brouagui","ascii":"Brouagui","lat":5.65075,"lon":-6.82418,"population":5530},{"id":2279509,"name":"Zakarékro","ascii":"Zakarekro","lat":5.10965,"lon":-5.60241,"population":5522},{"id":2279731,"name":"Yaobou","ascii":"Yaobou","lat":5.7115,"lon":-4.41274,"population":5520},{"id":12689419,"name":"Léomidouo","ascii":"Leomidouo","lat":9.03536,"lon":-2.90439,"population":5519},{"id":2288750,"name":"Gaboua","ascii":"Gaboua","lat":7.0625,"lon":-6.46806,"population":5518},{"id":12688095,"name":"Douékpé","ascii":"Douekpe","lat":7.1362,"lon":-7.32839,"population":5511},{"id":2291230,"name":"Bokéda","ascii":"Bokeda","lat":6.3615,"lon":-5.71192,"population":5502},{"id":2287836,"name":"Inahiri","ascii":"Inahiri","lat":5.14007,"lon":-6.21354,"population":5500},{"id":2288555,"name":"Guéoulé","ascii":"Gueoule","lat":7.59893,"lon":-7.90071,"population":5488},{"id":2281862,"name":"Séguié","ascii":"Seguie","lat":6.05573,"lon":-4.09421,"population":5485},{"id":2290675,"name":"Broubrou","ascii":"Broubrou","lat":5.72477,"lon":-4.8237,"population":5471},{"id":2282759,"name":"Ourouta","ascii":"Ourouta","lat":7.14219,"lon":-6.3143,"population":5469},{"id":12688626,"name":"Gbimanan","ascii":"Gbimanan","lat":8.23371,"lon":-6.79954,"population":5454},{"id":12687481,"name":"Kpangban","ascii":"Kpangban","lat":5.58177,"lon":-6.75359,"population":5443},{"id":2293407,"name":"Adiékro","ascii":"Adiekro","lat":7.06743,"lon":-3.69271,"population":5441},{"id":12688205,"name":"Hallanikro","ascii":"Hallanikro","lat":6.85323,"lon":-5.63957,"population":5440},{"id":2290658,"name":"Brouta","ascii":"Brouta","lat":7.24953,"lon":-6.18451,"population":5438},{"id":2281166,"name":"Suéfla","ascii":"Suefla","lat":6.8521,"lon":-5.71466,"population":5434},{"id":12687724,"name":"Gbeugréhoa","ascii":"Gbeugrehoa","lat":6.20546,"lon":-6.33818,"population":5423},{"id":2286243,"name":"Kossandji","ascii":"Kossandji","lat":5.82463,"lon":-3.61566,"population":5423},{"id":12688406,"name":"Kélégbala","ascii":"Kelegbala","lat":10.03229,"lon":-6.75961,"population":5421},{"id":2285581,"name":"Krokroum","ascii":"Krokroum","lat":5.2111,"lon":-5.40944,"population":5410},{"id":2289031,"name":"Fiékon","ascii":"Fiekon","lat":7.09963,"lon":-6.84547,"population":5396},{"id":2288539,"name":"Djibrosso","ascii":"Djibrosso","lat":8.76968,"lon":-6.99918,"population":5392},{"id":2292829,"name":"Ahouakro","ascii":"Ahouakro","lat":6.11987,"lon":-4.87238,"population":5380},{"id":2291589,"name":"Mibrigué","ascii":"Mibrigue","lat":10.28504,"lon":-5.795,"population":5380},{"id":2280265,"name":"Tourvré","ascii":"Tourvre","lat":9.9033,"lon":-6.50237,"population":5379},{"id":2279422,"name":"Zahia","ascii":"Zahia","lat":6.91672,"lon":-6.57811,"population":5370},{"id":2287162,"name":"Kétasso","ascii":"Ketasso","lat":5.75869,"lon":-5.03378,"population":5369},{"id":2293287,"name":"Agba-Mbayassou","ascii":"Agba-Mbayassou","lat":7.11518,"lon":-4.26818,"population":5366},{"id":2292438,"name":"Bodokro","ascii":"Bodokro","lat":7.86144,"lon":-5.47745,"population":5365},{"id":2284978,"name":"Lolobo","ascii":"Lolobo","lat":6.95892,"lon":-5.26581,"population":5361},{"id":2290844,"name":"Bounafla","ascii":"Bounafla","lat":6.72204,"lon":-5.51812,"population":5352},{"id":2290736,"name":"Bréguiagui","ascii":"Breguiagui","lat":5.24854,"lon":-6.37914,"population":5349},{"id":2280254,"name":"Transua","ascii":"Transua","lat":7.55004,"lon":-3.01431,"population":5333},{"id":2280289,"name":"Toupah","ascii":"Toupah","lat":5.31891,"lon":-4.56552,"population":5330},{"id":8032138,"name":"Gaoussoukro","ascii":"Gaoussoukro","lat":5.2484,"lon":-2.97116,"population":5318},{"id":12688094,"name":"Kéiténably","ascii":"Keitenably","lat":7.26047,"lon":-7.33748,"population":5314},{"id":7850567,"name":"Dainé II","ascii":"Daine II","lat":7.42997,"lon":-7.60525,"population":5307},{"id":2280059,"name":"Valoua","ascii":"Valoua","lat":5.93088,"lon":-6.10075,"population":5303},{"id":2289417,"name":"Eboué","ascii":"Eboue","lat":5.34407,"lon":-3.1255,"population":5296},{"id":2291931,"name":"Bébouo-sibouo","ascii":"Bebouo-sibouo","lat":6.81967,"lon":-6.23775,"population":5294},{"id":2290405,"name":"Daouo","ascii":"Daouo","lat":7.40348,"lon":-6.61788,"population":5292},{"id":2289715,"name":"Donsohouo","ascii":"Donsohouo","lat":6.44981,"lon":-5.6963,"population":5288},{"id":2287374,"name":"Karamokola","ascii":"Karamokola","lat":8.09985,"lon":-6.18261,"population":5277},{"id":2284449,"name":"Mborla-Dioulasso","ascii":"Mborla-Dioulasso","lat":8.46882,"lon":-4.481,"population":5272},{"id":2291997,"name":"Bawakaha","ascii":"Bawakaha","lat":9.49932,"lon":-5.41023,"population":5270},{"id":2292125,"name":"Banoufla","ascii":"Banoufla","lat":7.11998,"lon":-6.31833,"population":5264},{"id":12688151,"name":"Blablata","ascii":"Blablata","lat":7.28616,"lon":-6.2456,"population":5260},{"id":2290975,"name":"Boua","ascii":"Boua","lat":5.01997,"lon":-7.05443,"population":5257},{"id":2279579,"name":"Yopohua","ascii":"Yopohua","lat":6.39596,"lon":-5.82952,"population":5247},{"id":2290841,"name":"Bounantinfla","ascii":"Bounantinfla","lat":6.75449,"lon":-5.91559,"population":5234},{"id":2285896,"name":"Koukoguhé","ascii":"Koukoguhe","lat":6.91063,"lon":-6.56571,"population":5226},{"id":2282494,"name":"Pétyonara","ascii":"Petyonara","lat":8.43064,"lon":-5.11429,"population":5225},{"id":12687480,"name":"Zogbodoua","ascii":"Zogbodoua","lat":5.73339,"lon":-6.31338,"population":5216},{"id":2285924,"name":"Kouénoufla Don","ascii":"Kouenoufla Don","lat":7.35452,"lon":-6.75151,"population":5213},{"id":2291172,"name":"Billahio","ascii":"Billahio","lat":6.21378,"lon":-6.14614,"population":5208},{"id":12688405,"name":"Ouolo","ascii":"Ouolo","lat":9.54831,"lon":-5.4246,"population":5208},{"id":2289017,"name":"Findimanou","ascii":"Findimanou","lat":6.83153,"lon":-4.08298,"population":5194},{"id":12688093,"name":"Pagnébly","ascii":"Pagnebly","lat":7.24845,"lon":-7.13249,"population":5190},{"id":2291216,"name":"Gbily","ascii":"Gbily","lat":6.22964,"lon":-6.96934,"population":5181},{"id":12687479,"name":"Amaragui","ascii":"Amaragui","lat":5.81337,"lon":-6.71579,"population":5178},{"id":2282127,"name":"Samapleu","ascii":"Samapleu","lat":7.76161,"lon":-7.93784,"population":5178},{"id":12687914,"name":"Palmindustrie Tamabo","ascii":"Palmindustrie Tamabo","lat":5.44147,"lon":-4.79541,"population":5177},{"id":2290761,"name":"Bonzi","ascii":"Bonzi","lat":6.91666,"lon":-5.53405,"population":5161},{"id":2289388,"name":"Elenzué","ascii":"Elenzue","lat":6.80811,"lon":-4.09735,"population":5161},{"id":2290096,"name":"Djékanou","ascii":"Djekanou","lat":6.48389,"lon":-5.11553,"population":5160},{"id":2288465,"name":"Goazra","ascii":"Goazra","lat":6.94429,"lon":-5.96878,"population":5156},{"id":12687723,"name":"Sané-Gazé","ascii":"Sane-Gaze","lat":6.4586,"lon":-5.80163,"population":5145},{"id":12718622,"name":"Boahia","ascii":"Boahia","lat":7.5717,"lon":-3.51489,"population":5143},{"id":12688625,"name":"Béréni-Dialla","ascii":"Bereni-Dialla","lat":8.00364,"lon":-6.86094,"population":5124},{"id":2289431,"name":"Ebimpe","ascii":"Ebimpe","lat":5.49901,"lon":-4.08207,"population":5119},{"id":2288244,"name":"Gouéda","ascii":"Goueda","lat":6.21439,"lon":-5.69125,"population":5116},{"id":2283783,"name":"Néguépié","ascii":"Neguepie","lat":10.34762,"lon":-6.51708,"population":5116},{"id":2293558,"name":"Abéanou","ascii":"Abeanou","lat":6.97326,"lon":-4.2328,"population":5112},{"id":2287532,"name":"Kananwolo","ascii":"Kananwolo","lat":8.78256,"lon":-5.3108,"population":5107},{"id":8032092,"name":"Bakro","ascii":"Bakro","lat":5.50681,"lon":-3.2455,"population":5102},{"id":12687722,"name":"Dioulabougou-Boléko","ascii":"Dioulabougou-Boleko","lat":5.35444,"lon":-5.16966,"population":5102},{"id":2288726,"name":"Gazahio","ascii":"Gazahio","lat":6.24409,"lon":-6.35457,"population":5100},{"id":2288597,"name":"Gbonkaha","ascii":"Gbonkaha","lat":9.11687,"lon":-6.89666,"population":5099},{"id":2280448,"name":"Tonho","ascii":"Tonho","lat":9.90236,"lon":-5.72848,"population":5093},{"id":2288063,"name":"Groguida","ascii":"Groguida","lat":5.1325,"lon":-5.08555,"population":5082},{"id":2287171,"name":"Kiramissé","ascii":"Kiramisse","lat":8.22181,"lon":-3.44671,"population":5081},{"id":12688204,"name":"Zokoguhé-Didéguhé","ascii":"Zokoguhe-Dideguhe","lat":7.06759,"lon":-6.45901,"population":5081},{"id":2292832,"name":"Aouabo","ascii":"Aouabo","lat":6.23958,"lon":-3.79218,"population":5080},{"id":12688092,"name":"Nané","ascii":"Nane","lat":7.68757,"lon":-7.18685,"population":5080},{"id":12687721,"name":"Djidji","ascii":"Djidji","lat":6.15401,"lon":-5.69333,"population":5075},{"id":2292206,"name":"Bandoli","ascii":"Bandoli","lat":8.59226,"lon":-2.70806,"population":5073},{"id":2290458,"name":"Dananon","ascii":"Dananon","lat":7.61072,"lon":-6.36333,"population":5069},{"id":2280137,"name":"Kiémou","ascii":"Kiemou","lat":9.0605,"lon":-5.54983,"population":5065},{"id":2291798,"name":"Béinleu","ascii":"Beinleu","lat":7.22838,"lon":-7.88256,"population":5042},{"id":2292667,"name":"Assikoun","ascii":"Assikoun","lat":6.4175,"lon":-3.88306,"population":5029},{"id":2292483,"name":"Babien","ascii":"Babien","lat":7.95339,"lon":-6.87053,"population":5011},{"id":12688091,"name":"Gréikro","ascii":"Greikro","lat":6.81693,"lon":-7.05859,"population":5007},{"id":2283999,"name":"Nanbonkaha","ascii":"Nanbonkaha","lat":9.74069,"lon":-5.15874,"population":5006},{"id":2290531,"name":"Dahoua","ascii":"Dahoua","lat":6.68253,"lon":-7.34761,"population":4999},{"id":8032090,"name":"Temin","ascii":"Temin","lat":5.53224,"lon":-3.27209,"population":4990},{"id":2286234,"name":"Kossou","ascii":"Kossou","lat":7.00103,"lon":-5.48095,"population":4981},{"id":2289844,"name":"Djiroutou","ascii":"Djiroutou","lat":5.36758,"lon":-7.28412,"population":4977},{"id":2284199,"name":"Morondo","ascii":"Morondo","lat":8.95152,"lon":-6.78524,"population":4976},{"id":2288802,"name":"Gamina","ascii":"Gamina","lat":6.96772,"lon":-6.65495,"population":4973},{"id":7848500,"name":"Béhébou","ascii":"Behebou","lat":6.31697,"lon":-7.41991,"population":4967},{"id":2292838,"name":"Arobo","ascii":"Arobo","lat":6.89341,"lon":-3.85799,"population":4964},{"id":2283021,"name":"Obié","ascii":"Obie","lat":5.91733,"lon":-5.21736,"population":4960},{"id":2291423,"name":"Bouapé","ascii":"Bouape","lat":6.26239,"lon":-3.81457,"population":4950},{"id":12688534,"name":"Ouanadiékaha","ascii":"Ouanadiekaha","lat":8.36292,"lon":-5.17237,"population":4927},{"id":2597171,"name":"Nguiémé","ascii":"Nguieme","lat":5.14576,"lon":-3.04965,"population":4919},{"id":2290764,"name":"Boyo","ascii":"Boyo","lat":9.95478,"lon":-6.37826,"population":4914},{"id":12687957,"name":"N'Da-Gnamien","ascii":"N'Da-Gnamien","lat":6.16735,"lon":-4.93495,"population":4913},{"id":2280078,"name":"Tioroniaradougou","ascii":"Tioroniaradougou","lat":9.35446,"lon":-5.63766,"population":4907},{"id":2290423,"name":"Daobli","ascii":"Daobli","lat":5.88205,"lon":-7.4756,"population":4903},{"id":2279411,"name":"Zébra","ascii":"Zebra","lat":6.92126,"lon":-6.52948,"population":4900},{"id":2291642,"name":"Bidihé","ascii":"Bidihe","lat":6.19348,"lon":-5.62545,"population":4894},{"id":12687478,"name":"Petit-Bondoukou","ascii":"Petit-Bondoukou","lat":5.60407,"lon":-6.64765,"population":4889},{"id":12687720,"name":"Gnama","ascii":"Gnama","lat":5.73862,"lon":-5.48283,"population":4870},{"id":12687477,"name":"Hana","ascii":"Hana","lat":5.68994,"lon":-6.82328,"population":4870},{"id":12687476,"name":"Blédouagui","ascii":"Bledouagui","lat":5.65583,"lon":-6.76744,"population":4855},{"id":2290491,"name":"Daligépalenyoa","ascii":"Daligepalenyoa","lat":5.83389,"lon":-5.93635,"population":4855},{"id":2290958,"name":"Bouaka","ascii":"Bouaka","lat":7.6707,"lon":-6.09708,"population":4846},{"id":2281795,"name":"Sémiambli","ascii":"Semiambli","lat":7.54278,"lon":-7.19444,"population":4843},{"id":12688203,"name":"Blé","ascii":"Ble","lat":6.82036,"lon":-5.85306,"population":4831},{"id":2281307,"name":"Zakogbeu","ascii":"Zakogbeu","lat":6.78305,"lon":-6.81606,"population":4827},{"id":2283712,"name":"Ngatakro","ascii":"Ngatakro","lat":7.06378,"lon":-3.75868,"population":4822},{"id":2283663,"name":"Nguessankro","ascii":"Nguessankro","lat":7.12148,"lon":-3.34329,"population":4817},{"id":2289454,"name":"Diorholé","ascii":"Diorhole","lat":7.79787,"lon":-6.36755,"population":4810},{"id":12687719,"name":"Gnagbodougnoa","ascii":"Gnagbodougnoa","lat":5.96632,"lon":-5.84337,"population":4808},{"id":2289539,"name":"Duokro","ascii":"Duokro","lat":6.65903,"lon":-5.23498,"population":4785},{"id":2292371,"name":"Bakadou I","ascii":"Bakadou I","lat":5.39787,"lon":-6.02241,"population":4784},{"id":2596905,"name":"Katadji","ascii":"Katadji","lat":5.66771,"lon":-4.54136,"population":4778},{"id":2288088,"name":"Gréguibré","ascii":"Greguibre","lat":5.24742,"lon":-6.25389,"population":4776},{"id":2281941,"name":"Satiari","ascii":"Satiari","lat":7.0475,"lon":-5.27833,"population":4775},{"id":12688202,"name":"Allahou-Bazi","ascii":"Allahou-Bazi","lat":7.03485,"lon":-5.53339,"population":4767},{"id":2596882,"name":"Niamanzra","ascii":"Niamanzra","lat":5.88519,"lon":-4.62386,"population":4766},{"id":2290995,"name":"Botindé","ascii":"Botinde","lat":5.7781,"lon":-4.75524,"population":4765},{"id":12687956,"name":"Soribadougou","ascii":"Soribadougou","lat":6.54882,"lon":-3.77689,"population":4765},{"id":2289792,"name":"Dogozo","ascii":"Dogozo","lat":5.69303,"lon":-5.05171,"population":4758},{"id":2283586,"name":"Niambli","ascii":"Niambli","lat":6.74357,"lon":-7.28827,"population":4749},{"id":2285412,"name":"Landiougou","ascii":"Landiougou","lat":9.78385,"lon":-6.29388,"population":4743},{"id":2282158,"name":"Sakré","ascii":"Sakre","lat":5.68166,"lon":-7.39172,"population":4743},{"id":2285886,"name":"Koulalé","ascii":"Koulale","lat":7.95798,"lon":-8.06857,"population":4736},{"id":2290872,"name":"Bouko","ascii":"Bouko","lat":8.87507,"lon":-7.7902,"population":4732},{"id":12687718,"name":"Ziki","ascii":"Ziki","lat":5.76047,"lon":-5.44482,"population":4732},{"id":2289878,"name":"Djébonoua","ascii":"Djebonoua","lat":7.51573,"lon":-5.0735,"population":4728},{"id":2291231,"name":"Pahoubli","ascii":"Pahoubli","lat":6.39667,"lon":-8.37527,"population":4727},{"id":2281082,"name":"Tahara","ascii":"Tahara","lat":10.15444,"lon":-7.12266,"population":4721},{"id":2279177,"name":"Zuékokoré","ascii":"Zuekokore","lat":6.56831,"lon":-4.28911,"population":4718},{"id":2290716,"name":"Mbrimbo","ascii":"Mbrimbo","lat":6.0262,"lon":-4.87406,"population":4717},{"id":12689418,"name":"Youndouo","ascii":"Youndouo","lat":8.82541,"lon":-2.95745,"population":4717},{"id":2291384,"name":"Bobuo II","ascii":"Bobuo II","lat":5.59062,"lon":-6.02957,"population":4713},{"id":2285343,"name":"Lauzoua","ascii":"Lauzoua","lat":5.20327,"lon":-5.31013,"population":4705},{"id":12688201,"name":"Attossè","ascii":"Attosse","lat":6.8751,"lon":-5.86769,"population":4701},{"id":12687717,"name":"Kpadagnoa","ascii":"Kpadagnoa","lat":5.57574,"lon":-5.90638,"population":4699},{"id":2288001,"name":"Guessihio","ascii":"Guessihio","lat":6.10722,"lon":-6.00722,"population":4692},{"id":8032023,"name":"Mafia","ascii":"Mafia","lat":5.53436,"lon":-3.84868,"population":4684},{"id":2279388,"name":"Zémongokaha","ascii":"Zemongokaha","lat":9.6465,"lon":-5.6198,"population":4682},{"id":2290560,"name":"Dagba","ascii":"Dagba","lat":9.24503,"lon":-5.96465,"population":4679},{"id":2281942,"name":"Satama-Sokoura","ascii":"Satama-Sokoura","lat":7.89975,"lon":-4.3636,"population":4679},{"id":12687716,"name":"Néko","ascii":"Neko","lat":5.78899,"lon":-5.73623,"population":4675},{"id":2280620,"name":"Tinasso","ascii":"Tinasso","lat":9.91667,"lon":-6.65,"population":4671},{"id":2290281,"name":"Déraouan","ascii":"Deraouan","lat":6.89087,"lon":-6.4232,"population":4670},{"id":2287714,"name":"Kadrokpa","ascii":"Kadrokpa","lat":4.97426,"lon":-6.01222,"population":4658},{"id":2291820,"name":"Bénéné","ascii":"Benene","lat":6.95031,"lon":-4.0514,"population":4657},{"id":2288516,"name":"Glaou","ascii":"Glaou","lat":6.62573,"lon":-7.37005,"population":4656},{"id":2281684,"name":"Sibabli","ascii":"Sibabli","lat":6.93717,"lon":-7.16392,"population":4656},{"id":12687955,"name":"Akalékro","ascii":"Akalekro","lat":5.61062,"lon":-4.82517,"population":4653},{"id":2293229,"name":"Ahiroa","ascii":"Ahiroa","lat":6.17474,"lon":-4.63357,"population":4649},{"id":2290753,"name":"Braffédon","ascii":"Braffedon","lat":5.13839,"lon":-4.98963,"population":4649},{"id":2290896,"name":"Bougou","ascii":"Bougou","lat":10.22306,"lon":-5.8657,"population":4644},{"id":2292720,"name":"Assanou","ascii":"Assanou","lat":6.99442,"lon":-5.15835,"population":4643},{"id":2597039,"name":"Koutoukro","ascii":"Koutoukro","lat":5.61683,"lon":-3.58292,"population":4636},{"id":2287290,"name":"Katonon","ascii":"Katonon","lat":10.03596,"lon":-5.61363,"population":4635},{"id":12687475,"name":"Touanié","ascii":"Touanie","lat":5.51767,"lon":-6.51047,"population":4629},{"id":2281877,"name":"Séguélon","ascii":"Seguelon","lat":9.35694,"lon":-7.12083,"population":4625},{"id":2279493,"name":"Zamaka","ascii":"Zamaka","lat":6.911,"lon":-3.41532,"population":4622},{"id":12687474,"name":"Djiro-Gnépahio","ascii":"Djiro-Gnepahio","lat":4.84675,"lon":-6.62739,"population":4618},{"id":7848484,"name":"Gozon","ascii":"Gozon","lat":6.89282,"lon":-7.4689,"population":4603},{"id":2279817,"name":"Yadio","ascii":"Yadio","lat":6.07276,"lon":-4.07399,"population":4603},{"id":2293567,"name":"Abadjin-Kouté","ascii":"Abadjin-Koute","lat":5.33017,"lon":-4.15226,"population":4600},{"id":2283724,"name":"Nganon","ascii":"Nganon","lat":9.68176,"lon":-5.99172,"population":4599},{"id":2288848,"name":"Gabia","ascii":"Gabia","lat":6.40891,"lon":-6.3791,"population":4598},{"id":2287992,"name":"Guéya","ascii":"Gueya","lat":6.55368,"lon":-7.95722,"population":4587},{"id":2292980,"name":"Aman Salékro","ascii":"Aman Salekro","lat":7.25208,"lon":-5.58005,"population":4585},{"id":2288309,"name":"Gorodi","ascii":"Gorodi","lat":6.70524,"lon":-6.91219,"population":4585},{"id":2292225,"name":"Bandakanyi-Sokoura","ascii":"Bandakanyi-Sokoura","lat":8.11118,"lon":-3.62799,"population":4577},{"id":12688200,"name":"Litobli","ascii":"Litobli","lat":6.87751,"lon":-7.00803,"population":4577},{"id":12688131,"name":"Liadjénoufla","ascii":"Liadjenoufla","lat":6.81109,"lon":-5.7775,"population":4569},{"id":2290041,"name":"Digbam","ascii":"Digbam","lat":6.41422,"lon":-6.24297,"population":4566},{"id":2279501,"name":"Zakroguhé","ascii":"Zakroguhe","lat":6.34387,"lon":-6.47286,"population":4561},{"id":2285939,"name":"Koudouyou","ascii":"Koudouyou","lat":5.76382,"lon":-6.51191,"population":4556},{"id":12688090,"name":"Péhê-Zarabaon","ascii":"Pehe-Zarabaon","lat":6.92937,"lon":-7.76294,"population":4553},{"id":2281071,"name":"Tahiraguhé","ascii":"Tahiraguhe","lat":6.79236,"lon":-6.40031,"population":4553},{"id":2290616,"name":"Da","ascii":"Da","lat":6.97453,"lon":-7.5465,"population":4543},{"id":2292564,"name":"Attiégouakro","ascii":"Attiegouakro","lat":6.77402,"lon":-5.11411,"population":4537},{"id":2284955,"name":"Longo","ascii":"Longo","lat":8.97579,"lon":-5.39915,"population":4534},{"id":12688089,"name":"Diébly","ascii":"Diebly","lat":7.10352,"lon":-7.22019,"population":4529},{"id":12687473,"name":"Louogba","ascii":"Louogba","lat":5.55078,"lon":-6.72445,"population":4520},{"id":2291481,"name":"Blékoum","ascii":"Blekoum","lat":6.39068,"lon":-3.53685,"population":4500},{"id":2289653,"name":"Dougbafra","ascii":"Dougbafra","lat":6.34539,"lon":-5.40101,"population":4498},{"id":12687472,"name":"Médon","ascii":"Medon","lat":5.20687,"lon":-6.21691,"population":4495},{"id":2288593,"name":"Yasségouiné","ascii":"Yassegouine","lat":7.52592,"lon":-8.01362,"population":4495},{"id":2286217,"name":"Kotoka","ascii":"Kotoka","lat":5.54281,"lon":-2.86912,"population":4493},{"id":2596952,"name":"Assikoa","ascii":"Assikoa","lat":5.99326,"lon":-3.80923,"population":4489},{"id":12688624,"name":"Korokopla","ascii":"Korokopla","lat":7.88168,"lon":-5.96623,"population":4489},{"id":2290220,"name":"Diamankani","ascii":"Diamankani","lat":10.56303,"lon":-6.52987,"population":4487},{"id":2289408,"name":"Edjambo","ascii":"Edjambo","lat":5.19767,"lon":-2.9625,"population":4481},{"id":12688199,"name":"Nangrékro","ascii":"Nangrekro","lat":6.92853,"lon":-5.86142,"population":4476},{"id":2290677,"name":"Brou-Attakro","ascii":"Brou-Attakro","lat":6.6774,"lon":-3.80374,"population":4473},{"id":2284511,"name":"Massadougou","ascii":"Massadougou","lat":8.29918,"lon":-3.9215,"population":4473},{"id":2289632,"name":"Doukouyo","ascii":"Doukouyo","lat":5.84233,"lon":-5.97134,"population":4472},{"id":12687470,"name":"Pont-Brimé","ascii":"Pont-Brime","lat":4.84213,"lon":-6.56492,"population":4470},{"id":2281622,"name":"Sindala","ascii":"Sindala","lat":9.09847,"lon":-4.75254,"population":4459},{"id":2596904,"name":"Badasso","ascii":"Badasso","lat":5.68172,"lon":-4.52113,"population":4456},{"id":2291355,"name":"Boduaso","ascii":"Boduaso","lat":7.70644,"lon":-6.39561,"population":4450},{"id":2283357,"name":"Niouldé","ascii":"Nioulde","lat":6.55196,"lon":-7.69047,"population":4446},{"id":2279555,"name":"Youorédoula","ascii":"Youoredoula","lat":7.31758,"lon":-6.71288,"population":4441},{"id":12687469,"name":"Robert-Porte","ascii":"Robert-Porte","lat":5.62245,"lon":-6.61928,"population":4430},{"id":2281329,"name":"Sorobango","ascii":"Sorobango","lat":8.17239,"lon":-2.70814,"population":4430},{"id":2279646,"name":"Yéleu","ascii":"Yeleu","lat":6.97093,"lon":-8.05105,"population":4416},{"id":12687468,"name":"Ahoutouagui","ascii":"Ahoutouagui","lat":5.33693,"lon":-6.47087,"population":4415},{"id":2290033,"name":"Digbeuguhé","ascii":"Digbeuguhe","lat":6.32146,"lon":-6.73138,"population":4415},{"id":2282724,"name":"Padiégnan","ascii":"Padiegnan","lat":6.97847,"lon":-3.42304,"population":4395},{"id":12687715,"name":"Akabréboua","ascii":"Akabreboua","lat":5.89255,"lon":-5.64916,"population":4394},{"id":12688198,"name":"Domangbeu","ascii":"Domangbeu","lat":6.98467,"lon":-7.01882,"population":4394},{"id":2287484,"name":"Kanguélé","ascii":"Kanguele","lat":8.11152,"lon":-2.71527,"population":4390},{"id":2282320,"name":"Pouébo","ascii":"Pouebo","lat":7.28889,"lon":-4.71889,"population":4388},{"id":2281640,"name":"Sikolo","ascii":"Sikolo","lat":9.44248,"lon":-4.71513,"population":4386},{"id":2596877,"name":"Kaganiézé","ascii":"Kaganieze","lat":5.93098,"lon":-4.79223,"population":4382},{"id":2293254,"name":"Agoua","ascii":"Agoua","lat":6.88063,"lon":-4.05587,"population":4381},{"id":2287996,"name":"Guétuzon II","ascii":"Guetuzon II","lat":6.75146,"lon":-6.92283,"population":4380},{"id":2284463,"name":"M’bérié","ascii":"M'berie","lat":6.02699,"lon":-4.13174,"population":4378},{"id":2291995,"name":"Baya","ascii":"Baya","lat":9.90531,"lon":-6.24781,"population":4364},{"id":2292193,"name":"Gbangbossou","ascii":"Gbangbossou","lat":7.53963,"lon":-4.81773,"population":4345},{"id":12687954,"name":"Mèbifon","ascii":"Mebifon","lat":5.95251,"lon":-3.57884,"population":4345},{"id":2596945,"name":"Ery-Makouguié II","ascii":"Ery-Makouguie II","lat":5.90458,"lon":-4.17084,"population":4340},{"id":2597159,"name":"Akounougbé","ascii":"Akounougbe","lat":5.18278,"lon":-3.17836,"population":4337},{"id":2287224,"name":"Kékrénou","ascii":"Kekrenou","lat":7.52837,"lon":-5.59692,"population":4336},{"id":2285742,"name":"Koulikoro","ascii":"Koulikoro","lat":7.80819,"lon":-7.15739,"population":4336},{"id":2288373,"name":"Goliahio","ascii":"Goliahio","lat":6.32206,"lon":-6.3749,"population":4334},{"id":2285153,"name":"Lobo-Akoudzin","ascii":"Lobo-Akoudzin","lat":5.85088,"lon":-3.82291,"population":4332},{"id":2283320,"name":"Nkoupé","ascii":"Nkoupe","lat":6.0729,"lon":-3.93534,"population":4332},{"id":2597114,"name":"Diatokro","ascii":"Diatokro","lat":5.39545,"lon":-3.34407,"population":4329},{"id":12687714,"name":"Zokolilié","ascii":"Zokolilie","lat":5.76141,"lon":-5.64129,"population":4329},{"id":2287952,"name":"Guiméyo","ascii":"Guimeyo","lat":5.83072,"lon":-6.30877,"population":4327},{"id":2282681,"name":"Pana","ascii":"Pana","lat":8.22773,"lon":-3.34082,"population":4320},{"id":2279313,"name":"Zinzénou","ascii":"Zinzenou","lat":6.88139,"lon":-3.45806,"population":4308},{"id":12687467,"name":"Niabably Pk","ascii":"Niabably Pk","lat":5.0725,"lon":-6.07504,"population":4307},{"id":8032043,"name":"Wehou","ascii":"Wehou","lat":5.52399,"lon":-3.45092,"population":4306},{"id":2284680,"name":"Malamalakro","ascii":"Malamalakro","lat":5.24371,"lon":-2.97063,"population":4303},{"id":2293445,"name":"Aby","ascii":"Aby","lat":5.30502,"lon":-3.16916,"population":4301},{"id":2281020,"name":"Tamabo","ascii":"Tamabo","lat":5.4144,"lon":-4.81775,"population":4301},{"id":2281667,"name":"Siempurgo","ascii":"Siempurgo","lat":9.51953,"lon":-6.19408,"population":4290},{"id":2279627,"name":"Yérébaye","ascii":"Yerebaye","lat":8.34553,"lon":-2.81344,"population":4289},{"id":12687466,"name":"Koupéro","ascii":"Koupero","lat":5.884,"lon":-6.84575,"population":4288},