[{"id":1796236,"name":"Shanghai","nameKo":"상하이","ascii":"Shanghai","lat":31.22222,"lon":121.45806,"population":24874500},{"id":1816670,"name":"Beijing","nameKo":"베이징","ascii":"Beijing","lat":39.9075,"lon":116.39723,"population":18960744},{"id":1795565,"name":"Shenzhen","nameKo":"선전 시","ascii":"Shenzhen","lat":22.54554,"lon":114.0683,"population":17494398},{"id":1809858,"name":"Guangzhou","nameKo":"광저우","ascii":"Guangzhou","lat":23.11667,"lon":113.25,"population":16096724},{"id":1815286,"name":"Chengdu","nameKo":"청두 시","ascii":"Chengdu","lat":30.66667,"lon":104.06667,"population":13568357},{"id":1792947,"name":"Tianjin","nameKo":"톈진 시","ascii":"Tianjin","lat":39.14222,"lon":117.17667,"population":11090314},{"id":1791247,"name":"Wuhan","nameKo":"우한 시","ascii":"Wuhan","lat":30.58333,"lon":114.26667,"population":10392693},{"id":1812545,"name":"Dongguan","nameKo":"둥관 시","ascii":"Dongguan","lat":23.01797,"lon":113.74866,"population":9644871},{"id":1790630,"name":"Xi’an","nameKo":"시안 시","ascii":"Xi'an","lat":34.25833,"lon":108.92861,"population":9600000},{"id":1799962,"name":"Nanjing","nameKo":"난징","ascii":"Nanjing","lat":32.06167,"lon":118.77778,"population":9314685},{"id":1808926,"name":"Hangzhou","nameKo":"항저우","ascii":"Hangzhou","lat":30.29365,"lon":120.16142,"population":9236032},{"id":1811103,"name":"Foshan","nameKo":"포산 시","ascii":"Foshan","lat":23.02677,"lon":113.13148,"population":9042509},{"id":1814906,"name":"Chongqing","nameKo":"충칭 시","ascii":"Chongqing","lat":29.56026,"lon":106.55771,"population":7457599},{"id":1797929,"name":"Qingdao","nameKo":"칭다오 시","ascii":"Qingdao","lat":36.06488,"lon":120.38042,"population":7172451},{"id":2034937,"name":"Shenyang","nameKo":"선양","ascii":"Shenyang","lat":41.79222,"lon":123.43278,"population":7050000},{"id":1886760,"name":"Suzhou","nameKo":"쑤저우 시","ascii":"Suzhou","lat":31.30408,"lon":120.59538,"population":6715559},{"id":2037013,"name":"Harbin","nameKo":"하얼빈 시","ascii":"Harbin","lat":45.75,"lon":126.65,"population":5242897},{"id":1808722,"name":"Hefei","nameKo":"허페이 시","ascii":"Hefei","lat":31.86389,"lon":117.28083,"population":5050000},{"id":1814087,"name":"Dalian","nameKo":"다롄 시","ascii":"Dalian","lat":38.91222,"lon":121.60222,"population":4913879},{"id":2038180,"name":"Changchun","nameKo":"창춘 시","ascii":"Changchun","lat":43.88,"lon":125.32278,"population":4714996},{"id":1790645,"name":"Xiamen","nameKo":"샤먼 시","ascii":"Xiamen","lat":24.47979,"lon":118.08187,"population":4617251},{"id":13308620,"name":"Bao'an","ascii":"Bao'an","lat":22.55213,"lon":113.88288,"population":4476554},{"id":1790923,"name":"Wuxi","nameKo":"우시 시","ascii":"Wuxi","lat":31.56887,"lon":120.28857,"population":4396835},{"id":1805753,"name":"Jinan","nameKo":"지난 시","ascii":"Jinan","lat":36.66833,"lon":116.99722,"population":4335989},{"id":1793511,"name":"Taiyuan","nameKo":"타이위안 시","ascii":"Taiyuan","lat":37.86944,"lon":112.56028,"population":4303673},{"id":1784658,"name":"Zhengzhou","nameKo":"정저우 시","ascii":"Zhengzhou","lat":34.75778,"lon":113.64861,"population":4253913},{"id":1795270,"name":"Shijiazhuang","nameKo":"스자좡 시","ascii":"Shijiazhuang","lat":38.04139,"lon":114.47861,"population":3938513},{"id":1804651,"name":"Kunming","nameKo":"쿤밍 시","ascii":"Kunming","lat":25.03889,"lon":102.71833,"population":3855346},{"id":6986104,"name":"Zhongshan","nameKo":"중산 시","ascii":"Zhongshan","lat":22.52306,"lon":113.37912,"population":3841873},{"id":1799869,"name":"Nanning","nameKo":"난닝 시","ascii":"Nanning","lat":22.81667,"lon":108.31667,"population":3839800},{"id":1795940,"name":"Shantou","nameKo":"산터우 시","ascii":"Shantou","lat":23.35489,"lon":116.67876,"population":3838900},{"id":1810821,"name":"Fuzhou","nameKo":"푸저우 시","ascii":"Fuzhou","lat":26.06139,"lon":119.30611,"population":3740000},{"id":1799397,"name":"Ningbo","nameKo":"닝보 시","ascii":"Ningbo","lat":29.87819,"lon":121.54945,"population":3731203},{"id":1798425,"name":"Puyang","ascii":"Puyang","lat":29.45679,"lon":119.88872,"population":3590000},{"id":1794903,"name":"Shiyan","nameKo":"스옌 시","ascii":"Shiyan","lat":32.6475,"lon":110.77806,"population":3460000},{"id":1793346,"name":"Tangshan","nameKo":"탕산 시","ascii":"Tangshan","lat":39.64381,"lon":118.18319,"population":3372102},{"id":13512505,"name":"Lüliang","ascii":"Lueliang","lat":37.5192,"lon":111.14436,"population":3346500},{"id":1815456,"name":"Changzhou","nameKo":"창저우 시","ascii":"Changzhou","lat":31.77359,"lon":119.95401,"population":3290918},{"id":1785286,"name":"Zibo","nameKo":"쯔보 시","ascii":"Zibo","lat":36.79056,"lon":118.06333,"population":3129228},{"id":1815577,"name":"Changsha","nameKo":"창사 시","ascii":"Changsha","lat":28.19874,"lon":112.97087,"population":3093980},{"id":1809461,"name":"Guiyang","nameKo":"구이양 시","ascii":"Guiyang","lat":26.58333,"lon":106.71667,"population":3037159},{"id":1529102,"name":"Ürümqi","nameKo":"우루무치 시","ascii":"UEruemqi","lat":43.80096,"lon":87.60046,"population":3029372},{"id":1804430,"name":"Lanzhou","nameKo":"란저우 시","ascii":"Lanzhou","lat":36.05701,"lon":103.83987,"population":3000000},{"id":1806776,"name":"Huizhou","nameKo":"후이저우 시","ascii":"Huizhou","lat":23.11147,"lon":114.41523,"population":2900113},{"id":1809078,"name":"Haikou","nameKo":"하이커우 시","ascii":"Haikou","lat":20.03421,"lon":110.34651,"population":2873358},{"id":1803318,"name":"Linyi","nameKo":"린이 시","ascii":"Linyi","lat":35.06306,"lon":118.34278,"population":2743843},{"id":1816971,"name":"Baoding","nameKo":"바오딩 시","ascii":"Baoding","lat":38.87288,"lon":115.46246,"population":2739887},{"id":1791388,"name":"Wenzhou","nameKo":"원저우 시","ascii":"Wenzhou","lat":27.99942,"lon":120.66682,"population":2650000},{"id":1785725,"name":"Yunfu","nameKo":"윈푸 시","ascii":"Yunfu","lat":22.92787,"lon":112.03809,"population":2612800},{"id":1797873,"name":"Huai'an","nameKo":"화이안시","ascii":"Huai'an","lat":33.58861,"lon":119.01917,"population":2494013},{"id":1800163,"name":"Nanchang","nameKo":"난창 시","ascii":"Nanchang","lat":28.68396,"lon":115.85306,"population":2357839},{"id":2036892,"name":"Hohhot","nameKo":"후허하오터 시","ascii":"Hohhot","lat":40.81056,"lon":111.65222,"population":2350000},{"id":1795855,"name":"Shaoxing","nameKo":"소흥","ascii":"Shaoxing","lat":30.00237,"lon":120.57864,"population":2300000},{"id":1799722,"name":"Nantong","nameKo":"난퉁 시","ascii":"Nantong","lat":32.03028,"lon":120.87472,"population":2273326},{"id":1787093,"name":"Yantai","nameKo":"옌타이 시","ascii":"Yantai","lat":37.47649,"lon":121.44081,"population":2227733},{"id":1790437,"name":"Zhuhai","nameKo":"주하이 시","ascii":"Zhuhai","lat":22.27694,"lon":113.56778,"population":2207090},{"id":2038432,"name":"Baotou","nameKo":"바오터우 시","ascii":"Baotou","lat":40.6516,"lon":109.84389,"population":2150000},{"id":12359313,"name":"Qingyang","ascii":"Qingyang","lat":35.70976,"lon":107.64455,"population":2125400},{"id":1785623,"name":"Kunshan","nameKo":"쿤산 시","ascii":"Kunshan","lat":31.37762,"lon":120.95431,"population":2092496},{"id":1791681,"name":"Weifang","nameKo":"웨이팡 시","ascii":"Weifang","lat":36.71,"lon":119.10194,"population":2044028},{"id":1783621,"name":"Zunyi","nameKo":"쭌이 시","ascii":"Zunyi","lat":27.68667,"lon":106.90722,"population":2037775},{"id":10859300,"name":"Lianyungang","nameKo":"롄윈강 시","ascii":"Lianyungang","lat":34.59845,"lon":119.21556,"population":2001009},{"id":1810638,"name":"Ganzhou","nameKo":"간저우 시","ascii":"Ganzhou","lat":25.84664,"lon":114.9326,"population":1977253},{"id":8347664,"name":"Ordos","nameKo":"어얼둬쓰 시","ascii":"Ordos","lat":39.6086,"lon":109.78157,"population":1940653},{"id":1797121,"name":"Jieyang","nameKo":"지에양 시","ascii":"Jieyang","lat":23.5418,"lon":116.36581,"population":1899394},{"id":2036502,"name":"Jilin","nameKo":"지린 시","ascii":"Jilin","lat":43.84652,"lon":126.5608,"population":1895865},{"id":1800146,"name":"Nanchong","nameKo":"난충 시","ascii":"Nanchong","lat":30.79508,"lon":106.08473,"population":1858875},{"id":2037799,"name":"Datong","nameKo":"다퉁 시","ascii":"Datong","lat":40.09361,"lon":113.29139,"population":1850000},{"id":1799629,"name":"Nanyang","nameKo":"난양 시","ascii":"Nanyang","lat":32.99472,"lon":112.53278,"population":1811812},{"id":1806299,"name":"Jiangmen","nameKo":"장먼 시","ascii":"Jiangmen","lat":22.58333,"lon":113.08333,"population":1795459},{"id":1815251,"name":"Jiangyin","ascii":"Jiangyin","lat":31.91102,"lon":120.26302,"population":1779515},{"id":1810845,"name":"Fuyang","nameKo":"푸양 시","ascii":"Fuyang","lat":32.9,"lon":115.81667,"population":1768947},{"id":11838258,"name":"Bayan Nur","ascii":"Bayan Nur","lat":40.74143,"lon":107.38599,"population":1760000},{"id":1815395,"name":"Chaozhou","nameKo":"차오저우 시","ascii":"Chaozhou","lat":23.65396,"lon":116.62262,"population":1750945},{"id":1797945,"name":"Qingyuan","nameKo":"칭위안 시","ascii":"Qingyuan","lat":23.7,"lon":113.03333,"population":1738424},{"id":1793724,"name":"Tai’an","ascii":"Tai'an","lat":36.18528,"lon":117.12,"population":1735425},{"id":1788852,"name":"Xining","nameKo":"시닝 시","ascii":"Xining","lat":36.62554,"lon":101.75739,"population":1677177},{"id":7283386,"name":"Changshu","ascii":"Changshu","lat":31.64615,"lon":120.74221,"population":1677050},{"id":1807681,"name":"Huainan","ascii":"Huainan","lat":32.62639,"lon":116.99694,"population":1666826},{"id":1793743,"name":"Suzhou","ascii":"Suzhou","lat":33.63611,"lon":116.97889,"population":1647642},{"id":1802206,"name":"Lu’an","ascii":"Lu'an","lat":31.73561,"lon":116.51688,"population":1644344},{"id":1787746,"name":"Yancheng","nameKo":"옌청 시","ascii":"Yancheng","lat":33.3575,"lon":120.1573,"population":1615717},{"id":1793505,"name":"Taizhou","nameKo":"타이저우 시","ascii":"Taizhou","lat":32.49069,"lon":119.90812,"population":1607108},{"id":2037860,"name":"Daqing","nameKo":"다칭 시","ascii":"Daqing","lat":46.58333,"lon":125,"population":1604027},{"id":1791236,"name":"Wuhu","nameKo":"우후 시","ascii":"Wuhu","lat":31.35259,"lon":118.42947,"population":1598165},{"id":1813325,"name":"Dazhou","nameKo":"다저우 시","ascii":"Dazhou","lat":31.2106,"lon":107.46308,"population":1589435},{"id":1787227,"name":"Yangzhou","nameKo":"양저우 시","ascii":"Yangzhou","lat":32.39722,"lon":119.43583,"population":1584237},{"id":1809498,"name":"Guilin","nameKo":"구이린 시","ascii":"Guilin","lat":25.28022,"lon":110.29639,"population":1572300},{"id":1784853,"name":"Zhaoqing","nameKo":"자오칭 시","ascii":"Zhaoqing","lat":23.04893,"lon":112.46091,"population":1553109},{"id":1800627,"name":"Mianyang","nameKo":"몐양 시","ascii":"Mianyang","lat":31.46784,"lon":104.68168,"population":1550000},{"id":12358576,"name":"Wanzhou","ascii":"Wanzhou","lat":30.76451,"lon":108.39586,"population":1545900},{"id":1798449,"name":"Putian","nameKo":"푸톈 시","ascii":"Putian","lat":25.43944,"lon":119.01028,"population":1539389},{"id":1783934,"name":"Shangqiu","nameKo":"상추 시","ascii":"Shangqiu","lat":34.45,"lon":115.65,"population":1536392},{"id":1786657,"name":"Yinchuan","nameKo":"인촨 시","ascii":"Yinchuan","lat":38.46806,"lon":106.27306,"population":1487579},{"id":8400694,"name":"Taizhou","nameKo":"타이저우 시","ascii":"Taizhou","lat":28.66266,"lon":121.43312,"population":1485502},{"id":1814870,"name":"Yiwu","ascii":"Yiwu","lat":29.31506,"lon":120.07676,"population":1481384},{"id":1797353,"name":"Quanzhou","nameKo":"취안저우 시","ascii":"Quanzhou","lat":24.91389,"lon":118.58583,"population":1469157},{"id":1805528,"name":"Jinhua","nameKo":"진화 시","ascii":"Jinhua","lat":29.10678,"lon":119.64421,"population":1463990},{"id":1806602,"name":"Cixi","ascii":"Cixi","lat":30.1764,"lon":121.2457,"population":1457510},{"id":1791121,"name":"Changde","nameKo":"창더 시","ascii":"Changde","lat":29.03205,"lon":111.69844,"population":1457419},{"id":1804879,"name":"Kaifeng","nameKo":"카이펑 시","ascii":"Kaifeng","lat":34.7986,"lon":114.30742,"population":1451741},{"id":2038632,"name":"Anshan","nameKo":"안산 시","ascii":"Anshan","lat":41.12361,"lon":122.99,"population":1450000},{"id":10942359,"name":"Baoji","nameKo":"바오지 시","ascii":"Baoji","lat":34.36775,"lon":107.23705,"population":1437802},{"id":1793771,"name":"Suqian","ascii":"Suqian","lat":33.94917,"lon":118.29583,"population":1437685},{"id":1803300,"name":"Liuzhou","nameKo":"류저우시","ascii":"Liuzhou","lat":24.32405,"lon":109.40698,"population":1436599},{"id":1787331,"name":"Zhangjiagang","ascii":"Zhangjiagang","lat":31.865,"lon":120.53889,"population":1432044},{"id":1797658,"name":"Jinjiang","nameKo":"진장 시","ascii":"Jinjiang","lat":24.81978,"lon":118.57415,"population":1416151},{"id":1816234,"name":"Bozhou","nameKo":"보저우 시","ascii":"Bozhou","lat":33.87722,"lon":115.77028,"population":1409436},{"id":1797318,"name":"Qujing","nameKo":"취징 시","ascii":"Qujing","lat":25.48333,"lon":103.78333,"population":1408500},{"id":1784990,"name":"Zhanjiang","ascii":"Zhanjiang","lat":21.23391,"lon":110.38749,"population":1400709},{"id":2037355,"name":"Fushun","nameKo":"푸순 시","ascii":"Fushun","lat":41.88669,"lon":123.94363,"population":1400646},{"id":1801792,"name":"Luoyang","nameKo":"뤄양 시","ascii":"Luoyang","lat":34.67345,"lon":112.43684,"population":1390581},{"id":1802875,"name":"Guankou","ascii":"Guankou","lat":28.15861,"lon":113.62709,"population":1380000},{"id":1808963,"name":"Handan","nameKo":"한단 시","ascii":"Handan","lat":36.60999,"lon":114.48764,"population":1358318},{"id":1786764,"name":"Yichang","nameKo":"이창 시","ascii":"Yichang","lat":30.71444,"lon":111.28472,"population":1350150},{"id":1808198,"name":"Heze","nameKo":"허쩌 시","ascii":"Heze","lat":35.23929,"lon":115.47358,"population":1346717},{"id":8533133,"name":"Liupanshui","nameKo":"류판수이 시","ascii":"Liupanshui","lat":26.59444,"lon":104.83333,"population":1320825},{"id":1801180,"name":"Maoming","nameKo":"마오밍 시","ascii":"Maoming","lat":21.66625,"lon":110.91364,"population":1307802},{"id":1797551,"name":"Qinzhou","nameKo":"친저우 시","ascii":"Qinzhou","lat":21.98247,"lon":108.65061,"population":1296300},{"id":1801934,"name":"Luohe","nameKo":"뤄허 시","ascii":"Luohe","lat":33.56394,"lon":114.04272,"population":1294974},{"id":1790587,"name":"Xiangyang","nameKo":"샹양시","ascii":"Xiangyang","lat":32.0422,"lon":112.14479,"population":1294733},{"id":1806408,"name":"Yangjiang","nameKo":"양장 시","ascii":"Yangjiang","lat":21.85563,"lon":111.96272,"population":1292987},{"id":1786760,"name":"Yixing","ascii":"Yixing","lat":31.36059,"lon":119.82016,"population":1285785},{"id":1788046,"name":"Xuchang","ascii":"Xuchang","lat":34.03189,"lon":113.86299,"population":1265536},{"id":1783745,"name":"Zigong","nameKo":"쯔궁 시","ascii":"Zigong","lat":29.34162,"lon":104.77689,"population":1262064},{"id":10630003,"name":"Xuzhou","nameKo":"쉬저우 시","ascii":"Xuzhou","lat":34.20442,"lon":117.28386,"population":1253991},{"id":1799491,"name":"Neijiang","nameKo":"네이장 시","ascii":"Neijiang","lat":29.58354,"lon":105.06216,"population":1251095},{"id":1808316,"name":"Heshan","ascii":"Heshan","lat":28.56938,"lon":112.34733,"population":1249807},{"id":1805518,"name":"Jining","nameKo":"지닝 시","ascii":"Jining","lat":35.405,"lon":116.58139,"population":1241012},{"id":1788534,"name":"Xinyang","nameKo":"신양 시","ascii":"Xinyang","lat":32.12278,"lon":114.06556,"population":1230042},{"id":1803834,"name":"Liaocheng","nameKo":"랴오청 시","ascii":"Liaocheng","lat":36.45064,"lon":116.00247,"population":1229768},{"id":10942283,"name":"Jinzhong","ascii":"Jinzhong","lat":37.68403,"lon":112.75471,"population":1226617},{"id":1808956,"name":"Changzhi","nameKo":"창즈 시","ascii":"Changzhi","lat":36.18389,"lon":113.10528,"population":1214940},{"id":1792892,"name":"Tianshui","ascii":"Tianshui","lat":34.57952,"lon":105.74238,"population":1212791},{"id":1791636,"name":"Weinan","nameKo":"웨이난 시","ascii":"Weinan","lat":34.50355,"lon":109.50891,"population":1199290},{"id":1805953,"name":"Jiaxing","nameKo":"자싱 시","ascii":"Jiaxing","lat":30.7522,"lon":120.75,"population":1180000},{"id":1805179,"name":"Jiujiang","nameKo":"주장 시","ascii":"Jiujiang","lat":29.70475,"lon":116.00206,"population":1164268},{"id":1785294,"name":"Anyang","nameKo":"안양 시","ascii":"Anyang","lat":36.096,"lon":114.38278,"population":1146839},{"id":13405906,"name":"Luohu District","ascii":"Luohu District","lat":22.54721,"lon":114.13149,"population":1143801},{"id":1816373,"name":"Bijie","nameKo":"비제 시","ascii":"Bijie","lat":27.30193,"lon":105.28627,"population":1137383},{"id":1783763,"name":"Zhuzhou","nameKo":"주저우 시","ascii":"Zhuzhou","lat":27.83333,"lon":113.15,"population":1129687},{"id":1787858,"name":"Shangrao","nameKo":"상라오 시","ascii":"Shangrao","lat":28.45179,"lon":117.94287,"population":1116486},{"id":1807700,"name":"Huaibei","nameKo":"화이베이 시","ascii":"Huaibei","lat":33.97444,"lon":116.79167,"population":1113321},{"id":1800818,"name":"Meishan","nameKo":"메이산 시","ascii":"Meishan","lat":30.04392,"lon":103.83696,"population":1107742},{"id":1810820,"name":"Fuzhou","nameKo":"푸저우 시","ascii":"Fuzhou","lat":27.95999,"lon":116.33333,"population":1089888},{"id":1809532,"name":"Guigang","nameKo":"구이강 시","ascii":"Guigang","lat":23.11603,"lon":109.59472,"population":1086327},{"id":1808370,"name":"Hengyang","nameKo":"헝양 시","ascii":"Hengyang","lat":26.88946,"lon":112.61888,"population":1075516},{"id":1785781,"name":"Yulin","nameKo":"위린 시","ascii":"Yulin","lat":22.6305,"lon":110.14686,"population":1056743},{"id":1805540,"name":"Jingzhou","nameKo":"징저우 시","ascii":"Jingzhou","lat":30.35028,"lon":112.19028,"population":1052282},{"id":1788572,"name":"Xinxiang","ascii":"Xinxiang","lat":35.19033,"lon":113.80151,"population":1047088},{"id":1786746,"name":"Yichun","nameKo":"이춘 시","ascii":"Yichun","lat":27.83333,"lon":114.4,"population":1045952},{"id":1790353,"name":"Xianyang","nameKo":"셴양 시","ascii":"Xianyang","lat":34.33778,"lon":108.70261,"population":1034081},{"id":1796556,"name":"Sanya","nameKo":"싼야 시","ascii":"Sanya","lat":18.25435,"lon":109.50947,"population":1031396},{"id":1795874,"name":"Shaoguan","nameKo":"사오관 시","ascii":"Shaoguan","lat":24.8,"lon":113.58333,"population":1028460},{"id":1802276,"name":"Longyan","nameKo":"룽옌 시","ascii":"Longyan","lat":25.07485,"lon":117.01775,"population":1025087},{"id":1786217,"name":"Yongzhou","nameKo":"융저우 시","ascii":"Yongzhou","lat":26.42389,"lon":111.61306,"population":1020715},{"id":1806535,"name":"Huzhou","ascii":"Huzhou","lat":30.8703,"lon":120.0933,"population":1015937},{"id":1803936,"name":"Wuwei","ascii":"Wuwei","lat":37.92672,"lon":102.63202,"population":1010295},{"id":1808857,"name":"Hanzhong","nameKo":"한중 시","ascii":"Hanzhong","lat":33.07507,"lon":107.02214,"population":1006557},{"id":7576887,"name":"Hezhou","nameKo":"허저우 시","ascii":"Hezhou","lat":24.40357,"lon":111.56675,"population":1005490},{"id":7602670,"name":"Zhu Cheng City","ascii":"Zhu Cheng City","lat":35.99502,"lon":119.40259,"population":1000000},{"id":1812101,"name":"Dongying","nameKo":"둥잉 시","ascii":"Dongying","lat":37.46271,"lon":118.49165,"population":998968},{"id":1801640,"name":"Luzhou","nameKo":"루저우 시","ascii":"Luzhou","lat":28.8903,"lon":105.42575,"population":998900},{"id":1800779,"name":"Meizhou","nameKo":"메이저우 시","ascii":"Meizhou","lat":24.28859,"lon":116.11768,"population":992351},{"id":1927639,"name":"Yueyang","nameKo":"웨양 시","ascii":"Yueyang","lat":29.37455,"lon":113.09481,"population":991465},{"id":1804591,"name":"Laiwu","nameKo":"라이우 시","ascii":"Laiwu","lat":36.19278,"lon":117.65694,"population":989535},{"id":2038300,"name":"Benxi","nameKo":"번시 시","ascii":"Benxi","lat":41.28861,"lon":123.765,"population":987717},{"id":1798827,"name":"Pingdingshan","nameKo":"핑딩산 시","ascii":"Pingdingshan","lat":33.73091,"lon":113.31554,"population":979130},{"id":1816440,"name":"Bengbu","nameKo":"벙부 시","ascii":"Bengbu","lat":32.94083,"lon":117.36083,"population":972784},{"id":1796823,"name":"Sanhe","ascii":"Sanhe","lat":39.98049,"lon":117.06887,"population":965075},{"id":1790492,"name":"Xiangtan","nameKo":"샹탄 시","ascii":"Xiangtan","lat":27.85,"lon":112.9,"population":959303},{"id":1803567,"name":"Linfen","nameKo":"린펀 시","ascii":"Linfen","lat":36.08889,"lon":111.51889,"population":959198},{"id":1784642,"name":"Zhenjiang","ascii":"Zhenjiang","lat":32.21086,"lon":119.45508,"population":950516},{"id":2036662,"name":"Huludao","ascii":"Huludao","lat":40.75243,"lon":120.83552,"population":944495},{"id":1281673,"name":"Baoshan","nameKo":"바오산 시","ascii":"Baoshan","lat":25.11626,"lon":99.16366,"population":935618},{"id":1797063,"name":"Rui’an","ascii":"Rui'an","lat":27.77605,"lon":120.65859,"population":927383},{"id":1804609,"name":"Laibin","nameKo":"라이빈 시","ascii":"Laibin","lat":23.74743,"lon":109.22222,"population":910282},{"id":1790254,"name":"Xiaogan","nameKo":"샤오간 시","ascii":"Xiaogan","lat":30.92689,"lon":113.92221,"population":908266},{"id":1783683,"name":"Ziyang","ascii":"Ziyang","lat":30.12108,"lon":104.64811,"population":905729},{"id":1797264,"name":"Quzhou","nameKo":"취저우 시","ascii":"Quzhou","lat":28.95944,"lon":118.86861,"population":902767},{"id":1785453,"name":"Zaozhuang","nameKo":"짜오좡 시","ascii":"Zaozhuang","lat":34.86472,"lon":117.55417,"population":899753},{"id":1798654,"name":"Pingxiang","nameKo":"핑샹 시","ascii":"Pingxiang","lat":27.61672,"lon":113.85353,"population":893550},{"id":1886762,"name":"Zhoushan","ascii":"Zhoushan","lat":29.98869,"lon":122.20488,"population":882932},{"id":2035265,"name":"Qiqihar","nameKo":"치치하얼 시","ascii":"Qiqihar","lat":47.33922,"lon":123.96154,"population":882364},{"id":1802940,"name":"Puning","nameKo":"푸닝 시","ascii":"Puning","lat":23.31072,"lon":116.16869,"population":874954},{"id":1789065,"name":"Ankang","ascii":"Ankang","lat":32.68,"lon":109.01722,"population":870126},{"id":1804540,"name":"Langfang","ascii":"Langfang","lat":39.52079,"lon":116.71471,"population":868066},{"id":1805987,"name":"Jiaozuo","nameKo":"자오쭤 시","ascii":"Jiaozuo","lat":35.23925,"lon":113.23914,"population":865413},{"id":1791748,"name":"Wanxian","ascii":"Wanxian","lat":30.81601,"lon":108.37407,"population":859662},{"id":1799194,"name":"Guang’an","ascii":"Guang'an","lat":30.47413,"lon":106.63696,"population":858159},{"id":1791673,"name":"Weihai","nameKo":"웨이하이 시","ascii":"Weihai","lat":37.50914,"lon":122.11356,"population":844310},{"id":1785412,"name":"Zhabei","ascii":"Zhabei","lat":31.25861,"lon":121.45972,"population":840000},{"id":1788508,"name":"Xinyu","nameKo":"신위 시","ascii":"Xinyu","lat":27.80429,"lon":114.93335,"population":839488},{"id":1786770,"name":"Yibin","nameKo":"이빈 시","ascii":"Yibin","lat":28.7593,"lon":104.63994,"population":836340},{"id":1793703,"name":"Taicang","ascii":"Taicang","lat":31.44778,"lon":121.09389,"population":831113},{"id":1815059,"name":"Chenzhou","ascii":"Chenzhou","lat":25.8,"lon":113.03333,"population":822534},{"id":1817993,"name":"Anqing","nameKo":"안칭 시","ascii":"Anqing","lat":30.51365,"lon":117.04723,"population":804493},{"id":1788927,"name":"Xingtai","nameKo":"싱타이 시","ascii":"Xingtai","lat":37.06217,"lon":114.49272,"population":798770},{"id":1784841,"name":"Zhaotong","nameKo":"자오퉁 시","ascii":"Zhaotong","lat":27.31667,"lon":103.71667,"population":787845},{"id":6929460,"name":"Panzhihua","ascii":"Panzhihua","lat":26.58509,"lon":101.71276,"population":787177},{"id":1814757,"name":"Chuzhou","nameKo":"추저우 시","ascii":"Chuzhou","lat":32.32194,"lon":118.29778,"population":782671},{"id":1788081,"name":"Xuancheng","ascii":"Xuancheng","lat":30.9525,"lon":118.75528,"population":774332},{"id":1817720,"name":"Shangyu","ascii":"Shangyu","lat":30.01556,"lon":120.87111,"population":770000},{"id":1817968,"name":"Anshun","nameKo":"안순 시","ascii":"Anshun","lat":26.25,"lon":105.93333,"population":765313},{"id":1790840,"name":"Wuzhou","nameKo":"우저우 시","ascii":"Wuzhou","lat":23.48054,"lon":111.28848,"population":761948},{"id":1797595,"name":"Qinhuangdao","nameKo":"친황다오 시","ascii":"Qinhuangdao","lat":39.94104,"lon":119.58936,"population":759718},{"id":1816920,"name":"Shaoyang","nameKo":"사오양 시","ascii":"Shaoyang","lat":27.23818,"lon":111.46214,"population":753194},{"id":2036986,"name":"Hegang","nameKo":"허강 시","ascii":"Hegang","lat":47.34727,"lon":130.29033,"population":743307},{"id":1801620,"name":"Ma’anshan","ascii":"Ma'anshan","lat":31.68579,"lon":118.51008,"population":741531},{"id":12324556,"name":"Shizuishan","ascii":"Shizuishan","lat":38.98082,"lon":106.3892,"population":739400},{"id":1812961,"name":"Deyang","nameKo":"더양 시","ascii":"Deyang","lat":31.13019,"lon":104.38198,"population":735070},{"id":1787351,"name":"Yangquan","nameKo":"양취안 시","ascii":"Yangquan","lat":37.8575,"lon":113.56333,"population":731228},{"id":1783873,"name":"Zhumadian","ascii":"Zhumadian","lat":32.97944,"lon":114.02944,"population":721670},{"id":1815463,"name":"Changzhi","ascii":"Changzhi","lat":35.20889,"lon":111.73861,"population":699514},{"id":2033196,"name":"Zhangjiakou","nameKo":"장자커우 시","ascii":"Zhangjiakou","lat":40.78341,"lon":114.87139,"population":692602},{"id":2037346,"name":"Fuxin","nameKo":"푸신 시","ascii":"Fuxin","lat":42.01556,"lon":121.65889,"population":689050},{"id":1796989,"name":"Changsha","ascii":"Changsha","lat":22.38124,"lon":112.68492,"population":688242},{"id":1807234,"name":"Huangshi","nameKo":"황스 시","ascii":"Huangshi","lat":30.24706,"lon":115.04814,"population":688090},{"id":2036113,"name":"Liaoyang","nameKo":"랴오양 시","ascii":"Liaoyang","lat":41.27194,"lon":123.17306,"population":687890},{"id":1816269,"name":"Baise","ascii":"Baise","lat":23.89013,"lon":106.62684,"population":686078},{"id":1816336,"name":"Binzhou","nameKo":"빈저우 시","ascii":"Binzhou","lat":37.36667,"lon":118.01667,"population":682717},{"id":1785738,"name":"Yuncheng","nameKo":"윈청 시","ascii":"Yuncheng","lat":35.02306,"lon":110.99278,"population":680036},{"id":1812955,"name":"Dezhou","nameKo":"더저우 시","ascii":"Dezhou","lat":37.44661,"lon":116.36706,"population":679535},{"id":1796669,"name":"Sanmenxia","nameKo":"싼먼샤 시","ascii":"Sanmenxia","lat":34.78081,"lon":111.19287,"population":669307},{"id":6642286,"name":"E’zhou","ascii":"E'zhou","lat":30.39607,"lon":114.88655,"population":668727},{"id":2035715,"name":"Mudanjiang","nameKo":"무단장 시","ascii":"Mudanjiang","lat":44.54804,"lon":129.62594,"population":665915},{"id":1804153,"name":"Leshan","nameKo":"러산 시","ascii":"Leshan","lat":29.56227,"lon":103.76386,"population":662814},{"id":9072919,"name":"Rizhao","nameKo":"르자오 시","ascii":"Rizhao","lat":35.41414,"lon":119.52908,"population":661943},{"id":1793900,"name":"Suining","nameKo":"쑤이닝 시","ascii":"Suining","lat":30.50802,"lon":105.57332,"population":656760},{"id":9181182,"name":"Puyang","nameKo":"푸양 시","ascii":"Puyang","lat":35.75641,"lon":115.04363,"population":655674},{"id":1808770,"name":"Hebi","nameKo":"허비 시","ascii":"Hebi","lat":35.73231,"lon":114.28616,"population":634721},{"id":1805611,"name":"Jingmen","nameKo":"징먼 시","ascii":"Jingmen","lat":31.03361,"lon":112.20472,"population":632954},{"id":2037886,"name":"Dandong","nameKo":"단둥 시","ascii":"Dandong","lat":40.12917,"lon":124.39472,"population":631973},{"id":2035513,"name":"Panshan","ascii":"Panshan","lat":41.18806,"lon":122.04944,"population":625040},{"id":1806096,"name":"Jiaozhou","ascii":"Jiaozhou","lat":36.28389,"lon":120.00333,"population":619266},{"id":1793879,"name":"Suizhou","nameKo":"쑤이저우 시","ascii":"Suizhou","lat":31.71111,"lon":113.36306,"population":618582},{"id":1814934,"name":"Chizhou","ascii":"Chizhou","lat":30.66134,"lon":117.47783,"population":615274},{"id":1787816,"name":"Ya'an","ascii":"Ya'an","lat":29.98521,"lon":102.999,"population":612056},{"id":2036427,"name":"Jinzhou","nameKo":"진저우 시","ascii":"Jinzhou","lat":41.10778,"lon":121.14167,"population":604269},{"id":1796663,"name":"Sanming","nameKo":"싼밍 시","ascii":"Sanming","lat":26.24861,"lon":117.61861,"population":602166},{"id":2034786,"name":"Shuangyashan","nameKo":"솽야산 시","ascii":"Shuangyashan","lat":46.67686,"lon":131.13273,"population":600000},{"id":1802204,"name":"Luancheng","ascii":"Luancheng","lat":37.88452,"lon":114.64629,"population":597130},{"id":13512502,"name":"Mengzi","ascii":"Mengzi","lat":23.36779,"lon":103.38212,"population":595100},{"id":2033370,"name":"Yingkou","nameKo":"잉커우 시","ascii":"Yingkou","lat":40.66472,"lon":122.23176,"population":591159},{"id":1785018,"name":"Zhangzhou","nameKo":"장저우 시","ascii":"Zhangzhou","lat":24.51333,"lon":117.65556,"population":589831},{"id":1529195,"name":"Shihezi","nameKo":"스허즈","ascii":"Shihezi","lat":44.3023,"lon":86.03694,"population":572772},{"id":1791544,"name":"Wenchang","nameKo":"원창 시","ascii":"Wenchang","lat":19.55158,"lon":110.80279,"population":560894},{"id":2034714,"name":"Siping","nameKo":"쓰핑 시","ascii":"Siping","lat":43.16143,"lon":124.37785,"population":555609},{"id":1814760,"name":"Chuxiong","ascii":"Chuxiong","lat":25.03639,"lon":101.54556,"population":555081},{"id":1807689,"name":"Huaihua","nameKo":"화이화 시","ascii":"Huaihua","lat":27.56337,"lon":110.00404,"population":552622},{"id":8335361,"name":"Ulanqab","ascii":"Ulanqab","lat":40.993,"lon":113.133,"population":550231},{"id":2036581,"name":"Jiamusi","nameKo":"자무쓰 시","ascii":"Jiamusi","lat":46.79711,"lon":130.31118,"population":549549},{"id":1529376,"name":"Korla","nameKo":"쿠얼러 시","ascii":"Korla","lat":41.76055,"lon":86.15231,"population":549324},{"id":1791779,"name":"Wanning","nameKo":"완닝 시","ascii":"Wanning","lat":18.79931,"lon":110.3841,"population":545992},{"id":1788450,"name":"Xinzhou","nameKo":"신저우 시","ascii":"Xinzhou","lat":38.40917,"lon":112.73333,"population":544683},{"id":1798821,"name":"Pingdu","ascii":"Pingdu","lat":36.78444,"lon":119.94639,"population":542234},{"id":1806445,"name":"Ji’an","ascii":"Ji'an","lat":27.11716,"lon":114.97927,"population":538699},{"id":1809412,"name":"Guli","ascii":"Guli","lat":28.88162,"lon":120.03308,"population":536000},{"id":1529660,"name":"Aqsu","nameKo":"아커쑤 시","ascii":"Aqsu","lat":41.18418,"lon":80.27921,"population":535657},{"id":1793424,"name":"Tanggu","ascii":"Tanggu","lat":39.02111,"lon":117.64694,"population":535298},{"id":1796068,"name":"Shangluo","ascii":"Shangluo","lat":33.86667,"lon":109.93056,"population":531696},{"id":1806488,"name":"Qionghai","nameKo":"충하이 시","ascii":"Qionghai","lat":19.2425,"lon":110.46417,"population":528238},{"id":1816080,"name":"Cangzhou","nameKo":"창저우 시","ascii":"Cangzhou","lat":38.31124,"lon":116.85334,"population":527681},{"id":1816705,"name":"Beihai","nameKo":"베이하이 시","ascii":"Beihai","lat":21.48349,"lon":109.11549,"population":525329},{"id":1808392,"name":"Hengshui","nameKo":"헝수이 시","ascii":"Hengshui","lat":37.73908,"lon":115.68348,"population":522147},{"id":1806466,"name":"Guangyuan","nameKo":"광위안 시","ascii":"Guangyuan","lat":32.44201,"lon":105.823,"population":516424},{"id":1790396,"name":"Xianning","ascii":"Xianning","lat":29.84347,"lon":114.32201,"population":512517},{"id":12492662,"name":"Mianzhu, Deyang, Sichuan","ascii":"Mianzhu, Deyang, Sichuan","lat":31.33786,"lon":104.22057,"population":510000},{"id":2034414,"name":"Tonghua","nameKo":"퉁화 시","ascii":"Tonghua","lat":41.71972,"lon":125.92639,"population":510000},{"id":1909733,"name":"Banan","ascii":"Banan","lat":29.37861,"lon":106.54,"population":508703},{"id":1785036,"name":"Zhangye","nameKo":"장예 시","ascii":"Zhangye","lat":38.93417,"lon":100.45167,"population":507433},{"id":1280849,"name":"Kashgar","nameKo":"카스 시","ascii":"Kashgar","lat":39.46718,"lon":75.98675,"population":506640},{"id":1784130,"name":"Zhoukou","nameKo":"저우커우 시","ascii":"Zhoukou","lat":33.63333,"lon":114.63333,"population":505171},{"id":1798760,"name":"Pingliang","nameKo":"핑량 시","ascii":"Pingliang","lat":35.53917,"lon":106.68611,"population":504848},{"id":1783988,"name":"Zhucheng","ascii":"Zhucheng","lat":35.99472,"lon":119.3975,"population":499285},{"id":1802238,"name":"Loudi","nameKo":"뤄디 시","ascii":"Loudi","lat":27.73444,"lon":111.99444,"population":497171},{"id":1795928,"name":"Shanwei","nameKo":"산웨이 시","ascii":"Shanwei","lat":22.78199,"lon":115.3475,"population":491766},{"id":9931406,"name":"Jianshui","ascii":"Jianshui","lat":24.2774,"lon":101.224,"population":490000},{"id":1789647,"name":"Xichang","nameKo":"시창","ascii":"Xichang","lat":27.89642,"lon":102.26341,"population":481796},{"id":13527052,"name":"Chéngguān Qū","ascii":"Chengguan Qu","lat":29.63842,"lon":91.04441,"population":478275},{"id":1805741,"name":"Jincheng","nameKo":"진청 시","ascii":"Jincheng","lat":35.50222,"lon":112.83278,"population":476945},{"id":1787765,"name":"Yan’an","nameKo":"옌안 시","ascii":"Yan'an","lat":36.59889,"lon":109.49167,"population":475234},{"id":1794794,"name":"Shouguang","ascii":"Shouguang","lat":36.88,"lon":118.7375,"population":473620},{"id":1805680,"name":"Jingdezhen","ascii":"Jingdezhen","lat":29.2947,"lon":117.20789,"population":473561},{"id":1809061,"name":"Jiaojiang","ascii":"Jiaojiang","lat":28.69844,"lon":121.47331,"population":470804},{"id":1799846,"name":"Nanping","nameKo":"난핑 시","ascii":"Nanping","lat":26.645,"lon":118.17361,"population":467875},{"id":2036109,"name":"Longshan","nameKo":"랴오위안 시","ascii":"Longshan","lat":42.88545,"lon":125.1367,"population":465249},{"id":1786112,"name":"Heyuan","nameKo":"허위안 시","ascii":"Heyuan","lat":23.73333,"lon":114.68333,"population":463907},{"id":1792359,"name":"Huangshan","nameKo":"황산 시","ascii":"Huangshan","lat":29.71139,"lon":118.3125,"population":460786},{"id":1792260,"name":"Wafangdian","ascii":"Wafangdian","lat":39.61833,"lon":122.00806,"population":454338},{"id":1803245,"name":"Lishui","nameKo":"리수이 시","ascii":"Lishui","lat":28.46042,"lon":119.91029,"population":451418},{"id":8505006,"name":"Wenshan City","nameKo":"원산 시","ascii":"Wenshan City","lat":23.36306,"lon":104.25047,"population":450000},{"id":2038087,"name":"Chengde","nameKo":"청더 시","ascii":"Chengde","lat":40.9519,"lon":117.95883,"population":449325},{"id":1816858,"name":"Basuo","ascii":"Basuo","lat":19.10267,"lon":108.66565,"population":444458},{"id":1813171,"name":"Zhangjiajie","nameKo":"장자제 시","ascii":"Zhangjiajie","lat":29.12944,"lon":110.47833,"population":441804},{"id":2038365,"name":"Bei’an","ascii":"Bei'an","lat":48.26667,"lon":126.6,"population":436444},{"id":1806097,"name":"Ningde","ascii":"Ningde","lat":26.66167,"lon":119.52278,"population":429260},{"id":1279945,"name":"Jiuquan","nameKo":"주취안 시","ascii":"Jiuquan","lat":39.74318,"lon":98.51736,"population":428346},{"id":1812749,"name":"Dingxi","ascii":"Dingxi","lat":35.57088,"lon":104.62303,"population":420614},{"id":7064006,"name":"Tongchuan","ascii":"Tongchuan","lat":34.8988,"lon":108.95056,"population":417740},{"id":1809152,"name":"Guyuan","nameKo":"구위안 시","ascii":"Guyuan","lat":36.00667,"lon":106.28083,"population":411854},{"id":2038120,"name":"Chaoyang","nameKo":"차오양 시","ascii":"Chaoyang","lat":41.57028,"lon":120.45861,"population":410005},{"id":1281019,"name":"Gujangbagh","nameKo":"허톈 시","ascii":"Gujangbagh","lat":37.10927,"lon":79.93433,"population":408894},{"id":2036389,"name":"Jixi","nameKo":"지시 시","ascii":"Jixi","lat":45.29322,"lon":130.96217,"population":403759},{"id":1792621,"name":"Tongling","ascii":"Tongling","lat":30.95,"lon":117.78333,"population":402062},{"id":1810458,"name":"Gaomi","ascii":"Gaomi","lat":36.38333,"lon":119.75278,"population":391986},{"id":12159964,"name":"Chongzuo","ascii":"Chongzuo","lat":22.38161,"lon":107.3683,"population":384905},{"id":1913154,"name":"Tanzhou","ascii":"Tanzhou","lat":22.25503,"lon":113.46692,"population":382445},{"id":1808212,"name":"Hechuan","ascii":"Hechuan","lat":29.99228,"lon":106.26461,"population":377213},{"id":2033574,"name":"Xuanhua","ascii":"Xuanhua","lat":40.61205,"lon":115.06463,"population":373422},{"id":7304020,"name":"Fenghuang","ascii":"Fenghuang","lat":27.93557,"lon":109.59961,"population":370000},{"id":8537264,"name":"Huanggang","nameKo":"황강 시","ascii":"Huanggang","lat":30.45143,"lon":114.87035,"population":366769},{"id":1817990,"name":"Anqiu","ascii":"Anqiu","lat":36.43417,"lon":119.1925,"population":364208},{"id":1805029,"name":"Jizhou","ascii":"Jizhou","lat":37.55054,"lon":115.56871,"population":362013},{"id":11694038,"name":"Huocheng","ascii":"Huocheng","lat":44.05305,"lon":80.87173,"population":360000},{"id":8067345,"name":"Lhoka","ascii":"Lhoka","lat":29.24301,"lon":91.77239,"population":353700},{"id":1798900,"name":"Pengze","ascii":"Pengze","lat":29.89885,"lon":116.54572,"population":350000},{"id":8054802,"name":"Xilinhot","ascii":"Xilinhot","lat":43.93889,"lon":116.07021,"population":349953},{"id":12548253,"name":"Hulunbuir","ascii":"Hulunbuir","lat":49.21141,"lon":119.75582,"population":349400},{"id":1813206,"name":"Daye","ascii":"Daye","lat":30.08333,"lon":114.95,"population":347406},{"id":2038067,"name":"Chifeng","nameKo":"츠펑 시","ascii":"Chifeng","lat":42.26833,"lon":118.96361,"population":346654},{"id":12277239,"name":"Yunlong","ascii":"Yunlong","lat":34.25281,"lon":117.25167,"population":345393},{"id":2035261,"name":"Qitaihe","ascii":"Qitaihe","lat":45.768,"lon":130.9953,"population":345033},{"id":1785716,"name":"Pizhou","ascii":"Pizhou","lat":34.31139,"lon":117.95028,"population":343421},{"id":1795060,"name":"Shiqi","ascii":"Shiqi","lat":22.51682,"lon":113.38521,"population":342306},{"id":1794479,"name":"Laixi","ascii":"Laixi","lat":36.85917,"lon":120.52694,"population":341470},{"id":2034439,"name":"Tieling","nameKo":"톄링 시","ascii":"Tieling","lat":42.29306,"lon":123.84139,"population":333907},{"id":12358476,"name":"Hechi","ascii":"Hechi","lat":24.69285,"lon":108.08376,"population":330131},{"id":1787824,"name":"Tongshan","nameKo":"쉬저우 시","ascii":"Tongshan","lat":34.18045,"lon":117.15707,"population":329661},{"id":2033467,"name":"Yanji","nameKo":"옌지 시","ascii":"Yanji","lat":42.88825,"lon":129.50241,"population":326957},{"id":1803590,"name":"Lincang","ascii":"Lincang","lat":23.87972,"lon":100.09455,"population":323708},{"id":1807566,"name":"Xingyi","ascii":"Xingyi","lat":25.09617,"lon":104.90639,"population":322890},{"id":6958518,"name":"Tantou","ascii":"Tantou","lat":22.75121,"lon":113.83496,"population":320304},{"id":2038569,"name":"Baicheng","nameKo":"바이청 시","ascii":"Baicheng","lat":45.61751,"lon":122.83302,"population":316970},{"id":2036434,"name":"Lianshan","ascii":"Lianshan","lat":40.76432,"lon":120.85327,"population":313247},{"id":1815482,"name":"Changyi","ascii":"Changyi","lat":36.85361,"lon":119.39083,"population":302072},{"id":1789262,"name":"Xinyi","ascii":"Xinyi","lat":34.38424,"lon":118.34617,"population":300511},{"id":1787323,"name":"Yangshuo","ascii":"Yangshuo","lat":24.78081,"lon":110.48967,"population":300000},{"id":1803364,"name":"Linqu","ascii":"Linqu","lat":36.51556,"lon":118.53972,"population":299646},{"id":1794209,"name":"Simao","ascii":"Simao","lat":22.78863,"lon":100.97481,"population":296565},{"id":1817240,"name":"Baiyin","nameKo":"바이인 시","ascii":"Baiyin","lat":36.54696,"lon":104.17023,"population":294400},{"id":1810295,"name":"Gaozhou","ascii":"Gaozhou","lat":21.91965,"lon":110.85678,"population":292164},{"id":1788245,"name":"Xiuying","ascii":"Xiuying","lat":20.00073,"lon":110.29359,"population":290000},{"id":1812990,"name":"Dengzhou","ascii":"Dengzhou","lat":32.68273,"lon":112.08873,"population":285032},{"id":1281743,"name":"Artux","ascii":"Artux","lat":39.70842,"lon":76.17971,"population":285000},{"id":1798097,"name":"Qibao","ascii":"Qibao","lat":31.15267,"lon":121.35688,"population":283352},{"id":1529046,"name":"Xinyuan","ascii":"Xinyuan","lat":43.42649,"lon":83.24959,"population":282718},{"id":1811720,"name":"Enshi","ascii":"Enshi","lat":30.3,"lon":109.48333,"population":279185},{"id":1793419,"name":"Binhe","ascii":"Binhe","lat":32.68833,"lon":112.8275,"population":278055},{"id":1783633,"name":"Zoucheng","nameKo":"쩌우청 시","ascii":"Zoucheng","lat":35.40056,"lon":116.96556,"population":277400},{"id":12269572,"name":"Fangchenggang","ascii":"Fangchenggang","lat":21.76945,"lon":108.35661,"population":276315},{"id":1804866,"name":"Kaili","ascii":"Kaili","lat":26.58583,"lon":107.97972,"population":275745},{"id":8594670,"name":"Xingning","ascii":"Xingning","lat":24.1483,"lon":115.72272,"population":274499},{"id":1803331,"name":"Linxia Chengguanzhen","ascii":"Linxia Chengguanzhen","lat":35.60028,"lon":103.20639,"population":274466},{"id":1529114,"name":"Turpan","nameKo":"투루판 시","ascii":"Turpan","lat":42.94769,"lon":89.17886,"population":273385},{"id":12492660,"name":"Longling County","ascii":"Longling County","lat":24.58663,"lon":98.68934,"population":270000},{"id":1529435,"name":"Ghulja","ascii":"Ghulja","lat":43.91515,"lon":81.32151,"population":269158},{"id":1810979,"name":"Fuling","ascii":"Fuling","lat":29.70997,"lon":107.39391,"population":268658},{"id":1786640,"name":"Chengzhong","ascii":"Chengzhong","lat":30.94454,"lon":113.55284,"population":265886},{"id":2036670,"name":"Hulan Ergi","ascii":"Hulan Ergi","lat":47.20417,"lon":123.63333,"population":265344},{"id":1812521,"name":"Donghai","ascii":"Donghai","lat":22.94593,"lon":115.64204,"population":264709},{"id":1812228,"name":"Dongtai","ascii":"Dongtai","lat":32.85231,"lon":120.30947,"population":262873},{"id":1529401,"name":"Karamay","nameKo":"커라마이 시","ascii":"Karamay","lat":45.58473,"lon":84.88724,"population":261445},{"id":2034400,"name":"Tongliao","nameKo":"퉁랴오 시","ascii":"Tongliao","lat":43.6125,"lon":122.26528,"population":261110},{"id":1799471,"name":"Nianbo","ascii":"Nianbo","lat":36.48,"lon":102.41639,"population":260184},{"id":1815669,"name":"Changle","ascii":"Changle","lat":36.70583,"lon":118.8275,"population":259161},{"id":2036458,"name":"Jining","ascii":"Jining","lat":41.0275,"lon":113.10583,"population":258757},{"id":10942183,"name":"Rugao","ascii":"Rugao","lat":32.37035,"lon":120.57649,"population":257400},{"id":1793899,"name":"Suicheng","ascii":"Suicheng","lat":33.8963,"lon":117.93307,"population":256665},{"id":1800234,"name":"Nada","ascii":"Nada","lat":19.52134,"lon":109.57895,"population":256652},{"id":1787031,"name":"Yanzhou","ascii":"Yanzhou","lat":35.55278,"lon":116.82861,"population":254788},{"id":1804386,"name":"Laohekou","ascii":"Laohekou","lat":32.38583,"lon":111.66778,"population":253112},{"id":2034655,"name":"Suihua","nameKo":"쑤이화 시","ascii":"Suihua","lat":46.64814,"lon":126.96656,"population":252245},{"id":1816790,"name":"Beibei","ascii":"Beibei","lat":29.82739,"lon":106.43645,"population":247702},{"id":1916862,"name":"Shijie","ascii":"Shijie","lat":23.09546,"lon":113.79195,"population":246960},{"id":1529484,"name":"Hami","nameKo":"하미","ascii":"Hami","lat":42.83393,"lon":93.50601,"population":246373},{"id":1806988,"name":"Huayin","ascii":"Huayin","lat":34.56528,"lon":110.06639,"population":242488},{"id":1805012,"name":"Jiyuan","ascii":"Jiyuan","lat":35.08912,"lon":112.58815,"population":242143},{"id":1790371,"name":"Xiantao","ascii":"Xiantao","lat":30.3708,"lon":113.44294,"population":239406},{"id":1786731,"name":"Qingzhou","ascii":"Qingzhou","lat":36.69667,"lon":118.47972,"population":236406},{"id":1785974,"name":"Yuci","ascii":"Yuci","lat":37.68028,"lon":112.73194,"population":235929},{"id":8521718,"name":"Bole","ascii":"Bole","lat":44.89334,"lon":82.06993,"population":235585},{"id":1814093,"name":"Dali","ascii":"Dali","lat":25.58474,"lon":100.21229,"population":235305},{"id":1280957,"name":"Jiayuguan","nameKo":"자위관 시","ascii":"Jiayuguan","lat":39.81121,"lon":98.28618,"population":231853},{"id":7843638,"name":"Changzheng","ascii":"Changzheng","lat":31.23913,"lon":121.36779,"population":229925},{"id":1805733,"name":"Jinchang","nameKo":"진창 시","ascii":"Jinchang","lat":38.50062,"lon":102.19379,"population":228561},{"id":2035225,"name":"Fendou","ascii":"Fendou","lat":46.64142,"lon":124.86283,"population":226298},{"id":1807508,"name":"Huanggang","ascii":"Huanggang","lat":23.67704,"lon":116.99961,"population":225956},{"id":1805618,"name":"Jingling","ascii":"Jingling","lat":30.65,"lon":113.1,"population":224871},{"id":2036973,"name":"Heihe","nameKo":"헤이허 시","ascii":"Heihe","lat":50.24413,"lon":127.49016,"population":223832},{"id":1795196,"name":"Tongchuanshi","nameKo":"퉁촨 시","ascii":"Tongchuanshi","lat":35.07474,"lon":109.08495,"population":223603},{"id":1788618,"name":"Xintai","ascii":"Xintai","lat":35.90056,"lon":117.75194,"population":222459},{"id":1790894,"name":"Wuxue","ascii":"Wuxue","lat":29.85058,"lon":115.5525,"population":220661},{"id":1791249,"name":"Wuhai","nameKo":"우하이 시","ascii":"Wuhai","lat":39.68442,"lon":106.81583,"population":218427},{"id":12358616,"name":"Yintai","ascii":"Yintai","lat":35.11524,"lon":109.09702,"population":217509},{"id":1805298,"name":"Jinzhou","ascii":"Jinzhou","lat":39.1,"lon":121.71667,"population":215386},{"id":1802656,"name":"Longgang","nameKo":"룽강 구","ascii":"Longgang","lat":22.72289,"lon":114.26326,"population":215273},{"id":1786577,"name":"Yingtan","nameKo":"잉탄 시","ascii":"Yingtan","lat":28.23333,"lon":117,"population":214229},{"id":1783700,"name":"Zitong","ascii":"Zitong","lat":30.1782,"lon":105.82991,"population":212819},{"id":1801909,"name":"Luojiang","ascii":"Luojiang","lat":31.30497,"lon":104.50484,"population":212186},{"id":1813253,"name":"Lijiang","nameKo":"리장 시","ascii":"Lijiang","lat":26.86879,"lon":100.22072,"population":211151},{"id":2037078,"name":"Hailar","ascii":"Hailar","lat":49.2,"lon":119.7,"population":211066},{"id":1814082,"name":"Daliang","ascii":"Daliang","lat":22.84067,"lon":113.2503,"population":210411},{"id":1817848,"name":"Bachuan","ascii":"Bachuan","lat":29.84863,"lon":106.05046,"population":208520},{"id":1808931,"name":"Hangu","ascii":"Hangu","lat":39.24889,"lon":117.78917,"population":208369},{"id":1809380,"name":"Gunan","ascii":"Gunan","lat":29.0231,"lon":106.648,"population":208010},{"id":1785710,"name":"Jinghong","ascii":"Jinghong","lat":22.00265,"lon":100.7697,"population":205523},{"id":6958503,"name":"Gongheyong","ascii":"Gongheyong","lat":22.75923,"lon":113.79452,"population":204881},{"id":8544703,"name":"Nanchuan","ascii":"Nanchuan","lat":29.15201,"lon":107.10335,"population":204775},{"id":1816329,"name":"Bishan","ascii":"Bishan","lat":29.59491,"lon":106.22476,"population":204702},{"id":1810437,"name":"Gaoping","ascii":"Gaoping","lat":30.77576,"lon":106.10294,"population":204368},{"id":13512708,"name":"Nyingchi","ascii":"Nyingchi","lat":29.64885,"lon":94.35509,"population":200000},{"id":1803551,"name":"Beiliu","ascii":"Beiliu","lat":22.70722,"lon":110.34917,"population":199769},{"id":1529569,"name":"Changji","ascii":"Changji","lat":44.00782,"lon":87.30461,"population":198776},{"id":1811764,"name":"Duyun","ascii":"Duyun","lat":26.26667,"lon":107.51667,"population":198516},{"id":1804850,"name":"Kaiyuan","ascii":"Kaiyuan","lat":23.69767,"lon":103.30372,"population":198423},{"id":1800657,"name":"Mentougou","ascii":"Mentougou","lat":39.93819,"lon":116.09307,"population":197772},{"id":13512503,"name":"Lushui","ascii":"Lushui","lat":25.8232,"lon":98.85853,"population":197000},{"id":1805798,"name":"Jijiang","ascii":"Jijiang","lat":29.28993,"lon":106.25001,"population":196787},{"id":1808950,"name":"Hanfeng","ascii":"Hanfeng","lat":31.16946,"lon":108.4031,"population":196528},{"id":1798972,"name":"Peicheng","ascii":"Peicheng","lat":34.73611,"lon":116.92472,"population":195363},{"id":1811619,"name":"Ezhou","ascii":"Ezhou","lat":30.4,"lon":114.83333,"population":193652},{"id":1784712,"name":"Zhengding","ascii":"Zhengding","lat":38.14501,"lon":114.56556,"population":193524},{"id":1786378,"name":"Yongchuan","ascii":"Yongchuan","lat":29.35376,"lon":105.89392,"population":192954},{"id":1803842,"name":"Hepu","ascii":"Hepu","lat":21.65921,"lon":109.20011,"population":192813},{"id":2038670,"name":"Aihui","ascii":"Aihui","lat":49.97946,"lon":127.48119,"population":192764},{"id":1792585,"name":"Fuding","ascii":"Fuding","lat":27.32734,"lon":120.21399,"population":192352},{"id":1806696,"name":"Humen","ascii":"Humen","lat":22.81899,"lon":113.67306,"population":191891},{"id":2037086,"name":"Haicheng","ascii":"Haicheng","lat":40.85158,"lon":122.74754,"population":191651},{"id":2038342,"name":"Beipiao","ascii":"Beipiao","lat":41.79194,"lon":120.77917,"population":190315},{"id":1529651,"name":"Jinshanlu","nameKo":"아러타이","ascii":"Jinshanlu","lat":47.8505,"lon":88.13286,"population":190064},{"id":1809467,"name":"Guixi","ascii":"Guixi","lat":30.33355,"lon":107.34545,"population":188980},{"id":1804578,"name":"Laizhou","ascii":"Laizhou","lat":37.18073,"lon":119.94217,"population":188000},{"id":8416933,"name":"Huixing","ascii":"Huixing","lat":29.68403,"lon":106.61486,"population":186972},{"id":1815477,"name":"Changyuan","ascii":"Changyuan","lat":29.40499,"lon":105.58827,"population":186653},{"id":7910932,"name":"Shangri-La","ascii":"Shangri-La","lat":27.82511,"lon":99.70779,"population":186400},{"id":8417605,"name":"Yangcheng","ascii":"Yangcheng","lat":29.99968,"lon":106.25604,"population":186242},{"id":1529531,"name":"Dunhuang","nameKo":"둔황 시","ascii":"Dunhuang","lat":40.16667,"lon":94.68333,"population":186027},{"id":1805704,"name":"Jing’an","ascii":"Jing'an","lat":22.21072,"lon":113.29218,"population":186000},{"id":1785462,"name":"Zaoyang","ascii":"Zaoyang","lat":32.12722,"lon":112.75417,"population":184509},{"id":2038584,"name":"Baishan","nameKo":"바이산 시","ascii":"Baishan","lat":41.93853,"lon":126.41965,"population":183880},{"id":1784617,"name":"Zhenping","ascii":"Zhenping","lat":33.03457,"lon":112.22763,"population":181528},{"id":2038650,"name":"Anda","ascii":"Anda","lat":46.44867,"lon":125.30161,"population":181271},{"id":12492669,"name":"Pingwu County","ascii":"Pingwu County","lat":32.40732,"lon":104.52738,"population":180000},{"id":1786067,"name":"Qianjiang","ascii":"Qianjiang","lat":30.421,"lon":112.8919,"population":179079},{"id":1784580,"name":"Zhenzhou","ascii":"Zhenzhou","lat":32.28034,"lon":119.16999,"population":176006},{"id":1789137,"name":"Xindi","ascii":"Xindi","lat":29.81667,"lon":113.46667,"population":175761},{"id":8416626,"name":"Fengcheng","ascii":"Fengcheng","lat":29.82587,"lon":107.06019,"population":175576},{"id":2036401,"name":"Jiutai","ascii":"Jiutai","lat":44.15127,"lon":125.82975,"population":175115},{"id":1803791,"name":"Licheng","ascii":"Licheng","lat":23.29549,"lon":113.82465,"population":172775},{"id":2037620,"name":"Dongling","ascii":"Dongling","lat":41.81444,"lon":123.57583,"population":171454},{"id":1804586,"name":"Laiyang","ascii":"Laiyang","lat":36.97583,"lon":120.71361,"population":169594},{"id":2034312,"name":"Ulanhot","ascii":"Ulanhot","lat":46.08333,"lon":122.08333,"population":165846},{"id":1794060,"name":"Songcheng","ascii":"Songcheng","lat":26.88194,"lon":120.00111,"population":165730},{"id":2036920,"name":"Hengshan","ascii":"Hengshan","lat":45.20837,"lon":130.89808,"population":164844},{"id":1792520,"name":"Tongzhou","ascii":"Tongzhou","lat":39.90395,"lon":116.66183,"population":163326},{"id":1818116,"name":"Anbu","ascii":"Anbu","lat":23.44895,"lon":116.68092,"population":162964},{"id":1799389,"name":"Ning’er","ascii":"Ning'er","lat":23.04053,"lon":101.03683,"population":162711},{"id":1811200,"name":"Fengcheng","ascii":"Fengcheng","lat":34.70388,"lon":116.58717,"population":161850},{"id":1529167,"name":"Tacheng","ascii":"Tacheng","lat":46.74535,"lon":82.95847,"population":161037},{"id":1784554,"name":"Zhicheng","ascii":"Zhicheng","lat":30.29556,"lon":111.50472,"population":159383},{"id":2035644,"name":"Nanpiao","ascii":"Nanpiao","lat":41.09822,"lon":120.74792,"population":157044},{"id":8416218,"name":"Lizhi","ascii":"Lizhi","lat":29.70317,"lon":107.39521,"population":156753},{"id":1797632,"name":"Yizhou","ascii":"Yizhou","lat":24.5,"lon":108.66667,"population":155872},{"id":2033413,"name":"Yichun","nameKo":"이춘 시","ascii":"Yichun","lat":47.72143,"lon":128.87529,"population":155762},{"id":1919014,"name":"Lianghu","ascii":"Lianghu","lat":29.99152,"lon":120.89845,"population":155000},{"id":1809879,"name":"Guangshui","ascii":"Guangshui","lat":31.6199,"lon":113.9978,"population":154771},{"id":1808872,"name":"Fu’an","ascii":"Fu'an","lat":27.09131,"lon":119.64446,"population":154439},{"id":2033168,"name":"Zhaodong","ascii":"Zhaodong","lat":46.05223,"lon":125.9552,"population":154406},{"id":1529085,"name":"Wujiaqu","ascii":"Wujiaqu","lat":44.16279,"lon":87.52174,"population":154400},{"id":1789273,"name":"Sanshui","ascii":"Sanshui","lat":23.15486,"lon":112.89161,"population":153714},{"id":1816265,"name":"Boshan","ascii":"Boshan","lat":36.48333,"lon":117.83333,"population":153596},{"id":1814786,"name":"Yangchun","ascii":"Yangchun","lat":22.16667,"lon":111.78333,"population":153547},{"id":1812728,"name":"Dingzhou","ascii":"Dingzhou","lat":38.51473,"lon":114.9868,"population":152934},{"id":1798919,"name":"Pengpu","ascii":"Pengpu","lat":31.2855,"lon":121.4367,"population":152725},{"id":1815302,"name":"Chenghua","ascii":"Chenghua","lat":23.46132,"lon":116.77007,"population":152453},{"id":2035980,"name":"Longfeng","ascii":"Longfeng","lat":46.53168,"lon":125.1038,"population":152074},{"id":2037201,"name":"Beining","ascii":"Beining","lat":41.59556,"lon":121.79278,"population":152033},{"id":2037534,"name":"Dunhua","ascii":"Dunhua","lat":43.36954,"lon":128.22861,"population":148844},{"id":2034638,"name":"Sujiatun","ascii":"Sujiatun","lat":41.65917,"lon":123.33917,"population":148113},{"id":2036876,"name":"Honggang","ascii":"Honggang","lat":46.3974,"lon":124.88447,"population":147977},{"id":1793092,"name":"Taozhou","ascii":"Taozhou","lat":30.90641,"lon":119.40865,"population":146610},{"id":1788816,"name":"Xinji","ascii":"Xinji","lat":37.92595,"lon":115.21907,"population":145911},{"id":1793700,"name":"Taishan","nameKo":"타이산 시","ascii":"Taishan","lat":22.25135,"lon":112.7799,"population":145440},{"id":2038679,"name":"Acheng","ascii":"Acheng","lat":45.54558,"lon":126.95191,"population":144665},{"id":2037075,"name":"Hailin","ascii":"Hailin","lat":44.57149,"lon":129.38539,"population":144443},{"id":1786395,"name":"Yong’an","ascii":"Yong'an","lat":31.01894,"lon":109.45949,"population":144314},{"id":8417607,"name":"Nanjin","ascii":"Nanjin","lat":29.98497,"lon":106.26529,"population":143766},{"id":8408334,"name":"Qianjiang","ascii":"Qianjiang","lat":29.53284,"lon":108.77478,"population":143727},{"id":1805844,"name":"Jieshou","ascii":"Jieshou","lat":33.26338,"lon":115.36108,"population":141993},{"id":1281105,"name":"Yushu","ascii":"Yushu","lat":33.00118,"lon":97.00893,"population":141308},{"id":8406214,"name":"Sanhe","ascii":"Sanhe","lat":29.86864,"lon":107.73027,"population":140954},{"id":2037222,"name":"Gongzhuling","ascii":"Gongzhuling","lat":43.50075,"lon":124.81979,"population":140909},{"id":1794371,"name":"Shuizhai","ascii":"Shuizhai","lat":23.92961,"lon":115.76499,"population":140493},{"id":2034996,"name":"Shanhaiguan","ascii":"Shanhaiguan","lat":40.00119,"lon":119.75395,"population":140000},{"id":2036776,"name":"Huadian","ascii":"Huadian","lat":42.97213,"lon":126.74107,"population":139047},{"id":10020191,"name":"Liuzhi","ascii":"Liuzhi","lat":26.2342,"lon":105.426,"population":138826},{"id":2037335,"name":"Fuyu","ascii":"Fuyu","lat":45.18333,"lon":124.81667,"population":138704},{"id":1815427,"name":"Chaohu","ascii":"Chaohu","lat":31.6,"lon":117.86667,"population":138463},{"id":12489673,"name":"Liangping","ascii":"Liangping","lat":30.66108,"lon":107.7661,"population":137620},{"id":6559683,"name":"Doilungdêqên","ascii":"Doilungdeqen","lat":29.65505,"lon":90.99177,"population":137451},{"id":1805857,"name":"Jieshi","ascii":"Jieshi","lat":22.81027,"lon":115.83058,"population":137444},{"id":1808612,"name":"Hejiang","ascii":"Hejiang","lat":28.81161,"lon":105.83359,"population":137437},{"id":1922014,"name":"Wuyishan","nameKo":"우이산 시","ascii":"Wuyishan","lat":27.75995,"lon":118.03066,"population":137133},{"id":7303248,"name":"Jiashan","ascii":"Jiashan","lat":30.84918,"lon":120.92583,"population":137112},{"id":1794806,"name":"Huinong","ascii":"Huinong","lat":39.23333,"lon":106.76944,"population":136570},{"id":1810240,"name":"Gejiu","ascii":"Gejiu","lat":23.36085,"lon":103.15372,"population":136135},{"id":2036597,"name":"Jiagedaqi","nameKo":"자거다치 구","ascii":"Jiagedaqi","lat":50.41667,"lon":124.11667,"population":135760},{"id":12022102,"name":"Tumxuk","ascii":"Tumxuk","lat":39.86984,"lon":79.06118,"population":135727},{"id":1795055,"name":"Shiqiao","ascii":"Shiqiao","lat":22.9464,"lon":113.35769,"population":135308},{"id":8419424,"name":"Shenglilu","ascii":"Shenglilu","lat":29.35048,"lon":105.8775,"population":134218},{"id":1805962,"name":"Jiawang","ascii":"Jiawang","lat":34.43278,"lon":117.44194,"population":133861},{"id":1798473,"name":"Puqi","ascii":"Puqi","lat":29.71667,"lon":113.88333,"population":132891},{"id":1791272,"name":"Wugang","ascii":"Wugang","lat":26.7279,"lon":110.63198,"population":132457},{"id":2033225,"name":"Zhalantun","ascii":"Zhalantun","lat":48.00945,"lon":122.73651,"population":132224},{"id":1811028,"name":"Fuji","ascii":"Fuji","lat":29.14819,"lon":105.37391,"population":131927},{"id":1813344,"name":"Dawukou","ascii":"Dawukou","lat":39.04194,"lon":106.39583,"population":131880},{"id":1801401,"name":"Majie","ascii":"Majie","lat":25.0319,"lon":102.638,"population":131696},{"id":1808336,"name":"Hepo","ascii":"Hepo","lat":23.43077,"lon":115.82991,"population":131238},{"id":2035002,"name":"Shangzhi","ascii":"Shangzhi","lat":45.20562,"lon":128.00242,"population":131006},{"id":2034834,"name":"Shuangcheng","ascii":"Shuangcheng","lat":45.3798,"lon":126.30711,"population":130710},{"id":1791056,"name":"Dongyang","ascii":"Dongyang","lat":29.26778,"lon":120.22528,"population":130387},{"id":1913126,"name":"Nantou","ascii":"Nantou","lat":22.72171,"lon":113.29261,"population":130370},{"id":1805935,"name":"Jiazi","ascii":"Jiazi","lat":22.87932,"lon":116.07318,"population":130298},{"id":1794035,"name":"Songjiang","ascii":"Songjiang","lat":31.03443,"lon":121.22326,"population":130218},{"id":1791325,"name":"Wuda","ascii":"Wuda","lat":39.49944,"lon":106.71167,"population":129922},{"id":1798655,"name":"Pingxiang","ascii":"Pingxiang","lat":22.09694,"lon":106.75667,"population":129843},{"id":13527315,"name":"Santo António","ascii":"Santo Antonio","lat":22.20208,"lon":113.54394,"population":129800},{"id":1804208,"name":"Leiyang","ascii":"Leiyang","lat":26.40238,"lon":112.85908,"population":129116},{"id":12450887,"name":"Shuanglonghu","ascii":"Shuanglonghu","lat":29.71617,"lon":106.60684,"population":128563},{"id":1280037,"name":"Shache","ascii":"Shache","lat":38.41667,"lon":77.24056,"population":128145},{"id":1885823,"name":"Jiangyou","ascii":"Jiangyou","lat":31.76667,"lon":104.71667,"population":127225},{"id":1279891,"name":"Tengyue","ascii":"Tengyue","lat":24.99492,"lon":98.51276,"population":127133},{"id":1796376,"name":"Shajing","ascii":"Shajing","lat":22.74628,"lon":113.81903,"population":127089},{"id":1790251,"name":"Jinfeng","ascii":"Jinfeng","lat":28.2385,"lon":116.60054,"population":127076},{"id":1805543,"name":"Jingzhi","ascii":"Jingzhi","lat":36.31,"lon":119.3875,"population":126703},{"id":1813812,"name":"Danshui","ascii":"Danshui","lat":22.7984,"lon":114.46716,"population":126701},{"id":1801582,"name":"Macheng","nameKo":"마청 시","ascii":"Macheng","lat":31.18013,"lon":115.02213,"population":126366},{"id":1529641,"name":"Ālā'ĕr","ascii":"Ala'er","lat":40.54184,"lon":81.26566,"population":126259},{"id":13527308,"name":"Nossa Senhora de Fátima","ascii":"Nossa Senhora de Fatima","lat":22.20769,"lon":113.54831,"population":126000},{"id":1806881,"name":"Huicheng","ascii":"Huicheng","lat":23.03845,"lon":116.28988,"population":125919},{"id":1789703,"name":"Xiazhen","ascii":"Xiazhen","lat":34.80222,"lon":117.11167,"population":125667},{"id":1809062,"name":"Haimen","ascii":"Haimen","lat":23.19346,"lon":116.61219,"population":125427},{"id":1796421,"name":"Shahecheng","ascii":"Shahecheng","lat":36.93833,"lon":114.50583,"population":125132},{"id":2033242,"name":"Yushu","ascii":"Yushu","lat":44.82751,"lon":126.54063,"population":124736},{"id":1804252,"name":"Lecheng","ascii":"Lecheng","lat":25.128,"lon":113.35041,"population":124268},{"id":1800130,"name":"Nancun","ascii":"Nancun","lat":36.53278,"lon":120.13389,"population":124210},{"id":2036403,"name":"Jiupu","ascii":"Jiupu","lat":41.06667,"lon":122.95,"population":123843},{"id":2038438,"name":"Baoshan","ascii":"Baoshan","lat":46.57472,"lon":131.39318,"population":123791},{"id":1801799,"name":"Luoyang","ascii":"Luoyang","lat":23.16244,"lon":114.27342,"population":123144},{"id":2036536,"name":"Jiaohe","ascii":"Jiaohe","lat":43.72133,"lon":127.33473,"population":123018},{"id":1807112,"name":"Huangzhou","ascii":"Huangzhou","lat":30.45,"lon":114.8,"population":122563},{"id":1788268,"name":"Xiulin","ascii":"Xiulin","lat":29.71667,"lon":112.4,"population":122411},{"id":1784178,"name":"Zhoucun","ascii":"Zhoucun","lat":36.81667,"lon":117.81667,"population":122402},{"id":1790442,"name":"Xiangcheng","ascii":"Xiangcheng","lat":25.46687,"lon":100.56248,"population":121959},{"id":1802420,"name":"Longshui","ascii":"Longshui","lat":29.56555,"lon":105.76205,"population":121609},{"id":2035669,"name":"Lianhe","ascii":"Lianhe","lat":47.13333,"lon":129.27426,"population":121367},{"id":2033824,"name":"Xilin Hot","ascii":"Xilin Hot","lat":43.96667,"lon":116.03333,"population":120965},{"id":1803782,"name":"Lichuan","ascii":"Lichuan","lat":30.3,"lon":108.85,"population":120587},{"id":2037411,"name":"Fengcheng","ascii":"Fengcheng","lat":40.45361,"lon":124.07167,"population":120514},{"id":13308659,"name":"Bao'an Centre","ascii":"Bao'an Centre","lat":22.57953,"lon":113.9163,"population":120170},{"id":1784953,"name":"Zhaoyuan","ascii":"Zhaoyuan","lat":37.36497,"lon":120.40997,"population":120000},{"id":1280737,"name":"Lhasa","nameKo":"라싸 시","ascii":"Lhasa","lat":29.65,"lon":91.1,"population":118721},{"id":1787901,"name":"Xunchang","ascii":"Xunchang","lat":28.45433,"lon":104.71498,"population":118664},{"id":1800175,"name":"Nanbin","ascii":"Nanbin","lat":29.9994,"lon":108.10913,"population":118597},{"id":1795860,"name":"Shaoshan","ascii":"Shaoshan","lat":27.91667,"lon":112.51667,"population":118000},{"id":1790920,"name":"Wushan","ascii":"Wushan","lat":31.07749,"lon":109.87639,"population":117873},{"id":2034754,"name":"Shunyi","ascii":"Shunyi","lat":40.12175,"lon":116.64783,"population":117623},{"id":2035966,"name":"Longjing","ascii":"Longjing","lat":42.77131,"lon":129.42307,"population":117185},{"id":1809408,"name":"Gulin","ascii":"Gulin","lat":28.04223,"lon":105.81038,"population":116527},{"id":1815276,"name":"Chenggu","ascii":"Chenggu","lat":33.14917,"lon":107.32583,"population":116375},{"id":1807301,"name":"Dasha","ascii":"Dasha","lat":23.11037,"lon":113.4418,"population":116307},{"id":2033536,"name":"Yakeshi","ascii":"Yakeshi","lat":49.28333,"lon":120.73333,"population":116284},{"id":1817441,"name":"Baisha","ascii":"Baisha","lat":29.06226,"lon":106.1189,"population":115761},{"id":1818020,"name":"Anliu","ascii":"Anliu","lat":23.69824,"lon":115.67953,"population":115560},{"id":1804169,"name":"Lengshuijiang","nameKo":"렁수이장 시","ascii":"Lengshuijiang","lat":27.68806,"lon":111.42944,"population":115399},{"id":1791536,"name":"Tianfu","ascii":"Tianfu","lat":37.26366,"lon":122.05228,"population":115370},{"id":1800498,"name":"Mingshui","ascii":"Mingshui","lat":36.71667,"lon":117.5,"population":114858},{"id":1798131,"name":"Qiaotou","ascii":"Qiaotou","lat":36.935,"lon":101.67361,"population":114712},{"id":1785545,"name":"Yuyao","ascii":"Yuyao","lat":30.05,"lon":121.14944,"population":114177},{"id":2033147,"name":"Zhaozhou","ascii":"Zhaozhou","lat":45.70595,"lon":125.26606,"population":114009},{"id":1791765,"name":"Wansheng","ascii":"Wansheng","lat":28.9629,"lon":106.92844,"population":113751},{"id":1791706,"name":"Wayaobu","ascii":"Wayaobu","lat":37.13611,"lon":109.65972,"population":113698},{"id":1798713,"name":"Pingshan","ascii":"Pingshan","lat":22.99376,"lon":114.71311,"population":113631},{"id":2035399,"name":"Songyuan","nameKo":"쑹위안 시","ascii":"Songyuan","lat":45.12902,"lon":124.82769,"population":113611},{"id":1801615,"name":"Maba","ascii":"Maba","lat":24.68413,"lon":113.59839,"population":113609},{"id":2034497,"name":"Taonan","ascii":"Taonan","lat":45.33319,"lon":122.78464,"population":112819},{"id":1809077,"name":"Haikou","ascii":"Haikou","lat":24.77985,"lon":102.57548,"population":112644},{"id":1795857,"name":"Shaowu","ascii":"Shaowu","lat":27.34089,"lon":117.4831,"population":112585},{"id":1280570,"name":"Mengmao","ascii":"Mengmao","lat":24.00139,"lon":97.86499,"population":112578},{"id":2036337,"name":"Kaiyuan","ascii":"Kaiyuan","lat":42.53306,"lon":124.04028,"population":112462},{"id":1916012,"name":"Wuzhishan","ascii":"Wuzhishan","lat":18.78229,"lon":109.5013,"population":112269},{"id":1789496,"name":"Xigang","ascii":"Xigang","lat":38.55258,"lon":106.34805,"population":112061},{"id":1814928,"name":"Chóngfú","ascii":"Chongfu","lat":30.53113,"lon":120.4309,"population":112060},{"id":1811729,"name":"Encheng","ascii":"Encheng","lat":22.18659,"lon":112.30424,"population":110921},{"id":1783940,"name":"Zhuji","ascii":"Zhuji","lat":29.71877,"lon":120.24233,"population":110721},{"id":1813425,"name":"Datun","ascii":"Datun","lat":34.80923,"lon":116.90174,"population":110258},{"id":1803367,"name":"Qingnian","ascii":"Qingnian","lat":36.84092,"lon":115.71087,"population":110046},{"id":1803352,"name":"Linshui","ascii":"Linshui","lat":36.42472,"lon":114.20472,"population":109955},{"id":2037069,"name":"Hailun","ascii":"Hailun","lat":47.44663,"lon":126.92475,"population":109881},{"id":1795184,"name":"Shilong","ascii":"Shilong","lat":23.11444,"lon":113.84722,"population":109733},{"id":2037685,"name":"Didao","ascii":"Didao","lat":45.34725,"lon":130.83693,"population":109561},{"id":1806439,"name":"Jianchang","ascii":"Jianchang","lat":27.55831,"lon":116.63978,"population":109108},{"id":2036671,"name":"Hulan","ascii":"Hulan","lat":45.89326,"lon":126.57836,"population":109104},{"id":1786546,"name":"Zhongxiang","ascii":"Zhongxiang","lat":31.16611,"lon":112.58306,"population":108883},{"id":2037712,"name":"Dehui","ascii":"Dehui","lat":44.53674,"lon":125.69427,"population":108818},{"id":1808916,"name":"Hanjia","ascii":"Hanjia","lat":29.29524,"lon":108.16132,"population":108430},{"id":8403612,"name":"Taibai","ascii":"Taibai","lat":30.82482,"lon":108.35783,"population":108387},{"id":1787828,"name":"Xuyong","ascii":"Xuyong","lat":28.16992,"lon":105.43452,"population":108352},{"id":2035610,"name":"Nehe","ascii":"Nehe","lat":48.4793,"lon":124.87016,"population":108253},{"id":2036595,"name":"Jalai Nur","ascii":"Jalai Nur","lat":49.45,"lon":117.7,"population":107828},{"id":2034440,"name":"Tieli","ascii":"Tieli","lat":46.97544,"lon":128.04804,"population":107621},{"id":1795842,"name":"Shaping","ascii":"Shaping","lat":22.77019,"lon":112.95776,"population":107589},{"id":1803886,"name":"Anning","ascii":"Anning","lat":24.92271,"lon":102.48496,"population":106795},{"id":2035970,"name":"Longjiang","ascii":"Longjiang","lat":47.33601,"lon":123.196,"population":106384},{"id":1816221,"name":"Buhe","ascii":"Buhe","lat":30.28757,"lon":112.22979,"population":106347},{"id":1784820,"name":"Xinghua","ascii":"Xinghua","lat":32.93917,"lon":119.83417,"population":105918},{"id":1793036,"name":"Chengtangcun","ascii":"Chengtangcun","lat":35.08357,"lon":117.19071,"population":105456},{"id":12324302,"name":"Yidu","ascii":"Yidu","lat":36.77121,"lon":118.42454,"population":105070},{"id":1784393,"name":"Zhonghe","ascii":"Zhonghe","lat":28.45049,"lon":108.98901,"population":105003},{"id":1798422,"name":"Puyang Chengguanzhen","ascii":"Puyang Chengguanzhen","lat":35.70622,"lon":115.0279,"population":104994},{"id":1807544,"name":"Daxing","ascii":"Daxing","lat":39.74025,"lon":116.32693,"population":104904},{"id":1786778,"name":"Yezhou","ascii":"Yezhou","lat":30.60369,"lon":109.72333,"population":104839},{"id":8403616,"name":"Pailou","ascii":"Pailou","lat":30.79641,"lon":108.3858,"population":104351},{"id":1798490,"name":"Pulandian","ascii":"Pulandian","lat":39.39528,"lon":121.96694,"population":104277},{"id":1800829,"name":"Wuchuan","ascii":"Wuchuan","lat":21.45713,"lon":110.76591,"population":104168},{"id":2035196,"name":"Salaqi","ascii":"Salaqi","lat":40.54139,"lon":110.51083,"population":104090},{"id":2036418,"name":"Jishu","ascii":"Jishu","lat":44.31667,"lon":126.8,"population":103988},{"id":1784185,"name":"Yuxi","nameKo":"위시 시","ascii":"Yuxi","lat":24.355,"lon":102.54222,"population":103829},{"id":1816865,"name":"Bashan","ascii":"Bashan","lat":27.76823,"lon":116.05017,"population":103748},{"id":1797091,"name":"Tongren","ascii":"Tongren","lat":35.51483,"lon":102.016,"population":103700},{"id":1810724,"name":"Gangu Chengguanzhen","ascii":"Gangu Chengguanzhen","lat":34.73564,"lon":105.32632,"population":103589},{"id":1529363,"name":"Xincheng","ascii":"Xincheng","lat":41.71497,"lon":82.93249,"population":102752},{"id":1805270,"name":"Jishou","ascii":"Jishou","lat":28.31925,"lon":109.73346,"population":102332},{"id":6648023,"name":"Shuifu","ascii":"Shuifu","lat":28.63215,"lon":104.40783,"population":102143},{"id":1997228,"name":"Hedong","ascii":"Hedong","lat":23.9196,"lon":115.7801,"population":101825},{"id":1807738,"name":"Huacheng","ascii":"Huacheng","lat":24.06703,"lon":115.61309,"population":101165},{"id":1804120,"name":"Lianjiang","ascii":"Lianjiang","lat":21.64673,"lon":110.28172,"population":100341},{"id":1803334,"name":"Linxi","ascii":"Linxi","lat":39.71183,"lon":118.44954,"population":100316},{"id":1788492,"name":"Xinzhai","ascii":"Xinzhai","lat":36.4,"lon":118.61667,"population":100168},{"id":1802171,"name":"Kangding","ascii":"Kangding","lat":30.00222,"lon":101.9569,"population":100000},{"id":1797959,"name":"Qincheng","ascii":"Qincheng","lat":27.2127,"lon":116.53008,"population":99987},{"id":12358512,"name":"Menghuan","ascii":"Menghuan","lat":24.43532,"lon":98.58375,"population":99970},{"id":1788207,"name":"Xixiang","ascii":"Xixiang","lat":32.98703,"lon":107.764,"population":99867},{"id":1812256,"name":"Dongsheng","ascii":"Dongsheng","lat":39.81609,"lon":109.97763,"population":99809},{"id":2034228,"name":"Wangkui","ascii":"Wangkui","lat":46.83214,"lon":126.47657,"population":99617},{"id":2035801,"name":"Meihekou","ascii":"Meihekou","lat":42.52869,"lon":125.67876,"population":99419},{"id":1812647,"name":"Xinle","ascii":"Xinle","lat":38.34898,"lon":114.68531,"population":99347},{"id":1803522,"name":"Linghe","ascii":"Linghe","lat":36.36417,"lon":119.07694,"population":99069},{"id":2033766,"name":"Xingcheng","ascii":"Xingcheng","lat":40.61667,"lon":120.71667,"population":98968},{"id":1797181,"name":"Renqiu","ascii":"Renqiu","lat":38.70941,"lon":116.10086,"population":98569},{"id":2034657,"name":"Suifenhe","ascii":"Suifenhe","lat":44.39982,"lon":131.14775,"population":98561},{"id":1788638,"name":"Xinshi","ascii":"Xinshi","lat":31.04704,"lon":113.14098,"population":98422},{"id":1812057,"name":"Xinyi","ascii":"Xinyi","lat":22.37303,"lon":110.94746,"population":98259},{"id":2038080,"name":"Chengzihe","ascii":"Chengzihe","lat":45.33611,"lon":131.00489,"population":98188},{"id":1803616,"name":"Xishan","ascii":"Xishan","lat":27.66667,"lon":113.5,"population":98162},{"id":1786783,"name":"Yeyuan","ascii":"Yeyuan","lat":36.41667,"lon":118.5,"population":97936},{"id":1809849,"name":"Guanhu","ascii":"Guanhu","lat":34.42528,"lon":117.99528,"population":97705},{"id":1805220,"name":"Jiudian","ascii":"Jiudian","lat":36.9918,"lon":120.20412,"population":97604},{"id":1908011,"name":"Xinxing","ascii":"Xinxing","lat":34.77597,"lon":105.32216,"population":97483},{"id":1811542,"name":"Fangshan","ascii":"Fangshan","lat":39.68699,"lon":115.99658,"population":97026},{"id":6644097,"name":"Jinniu","ascii":"Jinniu","lat":25.80062,"lon":100.57435,"population":96883},{"id":1807761,"name":"Houzhen","ascii":"Houzhen","lat":36.99136,"lon":118.96582,"population":96737},{"id":1810136,"name":"Gongguan","ascii":"Gongguan","lat":21.8,"lon":109.6,"population":96492},{"id":1799686,"name":"Nanxi","ascii":"Nanxi","lat":28.84209,"lon":104.97958,"population":96061},{"id":1802177,"name":"Lubu","ascii":"Lubu","lat":23.17233,"lon":112.28298,"population":95820},{"id":1805408,"name":"Jinsha","ascii":"Jinsha","lat":32.08982,"lon":121.07355,"population":95647},{"id":1811929,"name":"Ducheng","ascii":"Ducheng","lat":23.24212,"lon":111.5284,"population":95525},{"id":1795632,"name":"Shenjiamen","ascii":"Shenjiamen","lat":29.95763,"lon":122.29802,"population":95433},{"id":2038274,"name":"Boli","ascii":"Boli","lat":45.7529,"lon":130.58452,"population":95260},{"id":1789998,"name":"Xiaoshan","ascii":"Xiaoshan","lat":30.16746,"lon":120.25883,"population":95234},{"id":1789030,"name":"Xingguo","ascii":"Xingguo","lat":34.85861,"lon":105.66861,"population":95211},{"id":2034141,"name":"Wuchang","ascii":"Wuchang","lat":44.92754,"lon":127.16039,"population":94786},{"id":1816821,"name":"Bayan Hot","ascii":"Bayan Hot","lat":38.83861,"lon":105.66861,"population":94445},{"id":1811844,"name":"Dunhou","ascii":"Dunhou","lat":27.05,"lon":114.9,"population":94445},{"id":1789289,"name":"Ximeicun","ascii":"Ximeicun","lat":24.98773,"lon":118.3858,"population":94326},{"id":1786455,"name":"Yishui","ascii":"Yishui","lat":35.78472,"lon":118.62806,"population":94115},{"id":1784417,"name":"Zhongduo","ascii":"Zhongduo","lat":28.8466,"lon":108.76416,"population":93928},{"id":1811594,"name":"Fangcheng Chengguanzhen","ascii":"Fangcheng Chengguanzhen","lat":33.25322,"lon":113.0012,"population":93808},{"id":1813755,"name":"Daotian","ascii":"Daotian","lat":36.83389,"lon":118.89778,"population":93728},{"id":1529626,"name":"Baijiantan","ascii":"Baijiantan","lat":45.69298,"lon":85.13942,"population":93697},{"id":1785692,"name":"Yunnanyi","ascii":"Yunnanyi","lat":25.4245,"lon":100.689,"population":93671},{"id":2033135,"name":"Shuangliao","ascii":"Shuangliao","lat":43.51067,"lon":123.50069,"population":93666},{"id":2033149,"name":"Zhaoyuan","ascii":"Zhaoyuan","lat":45.51971,"lon":125.07633,"population":93505},{"id":2037930,"name":"Dalai","ascii":"Dalai","lat":45.5,"lon":124.3,"population":93297},{"id":1793315,"name":"Tangwu","ascii":"Tangwu","lat":36.44667,"lon":118.85972,"population":93260},{"id":1805947,"name":"Jiayue","ascii":"Jiayue","lat":36.02361,"lon":119.17611,"population":93228},{"id":2038154,"name":"Changping","ascii":"Changping","lat":40.21612,"lon":116.23471,"population":93174},{"id":1803841,"name":"Lianzhou","ascii":"Lianzhou","lat":24.78186,"lon":112.3712,"population":92827},{"id":12324243,"name":"Yingqiu","ascii":"Yingqiu","lat":36.52663,"lon":118.99285,"population":92564},{"id":1812621,"name":"Dongcun","ascii":"Dongcun","lat":36.77667,"lon":121.15972,"population":92282},{"id":1813828,"name":"Danjiangkou","ascii":"Danjiangkou","lat":32.54278,"lon":111.50861,"population":92008},{"id":8403618,"name":"Bai’anba","ascii":"Bai'anba","lat":30.76283,"lon":108.43717,"population":91947},{"id":1784310,"name":"Zhongshu","ascii":"Zhongshu","lat":24.51667,"lon":103.76667,"population":91750},{"id":1806960,"name":"Huazhou","ascii":"Huazhou","lat":21.63333,"lon":110.58333,"population":91701},{"id":1788944,"name":"Xingren","ascii":"Xingren","lat":25.43333,"lon":105.23333,"population":91579},{"id":1802476,"name":"Longquan","ascii":"Longquan","lat":24.67193,"lon":102.1613,"population":91534},{"id":1786855,"name":"Yatou","ascii":"Yatou","lat":37.1566,"lon":122.43762,"population":91517},{"id":12324474,"name":"Tanfang","ascii":"Tanfang","lat":36.69977,"lon":118.67087,"population":91460},{"id":2036075,"name":"Lingyuan","ascii":"Lingyuan","lat":41.24,"lon":119.40111,"population":91418},{"id":1810309,"name":"Gaoyou","ascii":"Gaoyou","lat":32.78933,"lon":119.44182,"population":90911},{"id":1785777,"name":"Yulinshi","nameKo":"위린 시","ascii":"Yulinshi","lat":38.29181,"lon":109.73753,"population":90870},{"id":1808879,"name":"Hanting","ascii":"Hanting","lat":36.77083,"lon":119.21083,"population":90637},{"id":1792592,"name":"Tongren","ascii":"Tongren","lat":27.71722,"lon":109.18528,"population":90593},{"id":1789462,"name":"Xihe","ascii":"Xihe","lat":31.68635,"lon":113.46585,"population":90422},{"id":1811829,"name":"Duobao","ascii":"Duobao","lat":30.67,"lon":112.68952,"population":90257},{"id":1794140,"name":"Sishui","ascii":"Sishui","lat":35.64889,"lon":117.27583,"population":90175},{"id":1810668,"name":"Gantang","ascii":"Gantang","lat":27.4375,"lon":111.97306,"population":90000},{"id":1801876,"name":"Luomen","ascii":"Luomen","lat":34.75417,"lon":105.02472,"population":89998},{"id":1807695,"name":"Huaidian","ascii":"Huaidian","lat":33.43333,"lon":115.03333,"population":89978},{"id":1817456,"name":"Baisha","ascii":"Baisha","lat":21.71667,"lon":109.68333,"population":89759},{"id":2037375,"name":"Fujin","ascii":"Fujin","lat":47.24723,"lon":132.02957,"population":89442},{"id":1807687,"name":"Huaicheng","ascii":"Huaicheng","lat":23.91952,"lon":112.17629,"population":89294},{"id":1800544,"name":"Micheng","ascii":"Micheng","lat":25.34294,"lon":100.48725,"population":89144},{"id":1802068,"name":"Lucheng","ascii":"Lucheng","lat":31.23357,"lon":117.28057,"population":89119},{"id":1808744,"name":"Hede","ascii":"Hede","lat":33.7722,"lon":120.26176,"population":89107},{"id":8397870,"name":"Chengxiang","ascii":"Chengxiang","lat":31.39798,"lon":109.57063,"population":89080},{"id":8419425,"name":"Nandajie","ascii":"Nandajie","lat":29.33773,"lon":105.89237,"population":88948},{"id":1804162,"name":"Lengshuitan","ascii":"Lengshuitan","lat":26.4111,"lon":111.59559,"population":88935},{"id":2034221,"name":"Wangqing","ascii":"Wangqing","lat":43.31077,"lon":129.76334,"population":88732},{"id":1789691,"name":"Xiazhuang","ascii":"Xiazhuang","lat":36.44917,"lon":119.83556,"population":88710},{"id":1812138,"name":"Dongxing","ascii":"Dongxing","lat":21.55,"lon":107.96667,"population":88607},{"id":1803402,"name":"Linjiacun","ascii":"Linjiacun","lat":35.99389,"lon":119.65028,"population":88509},{"id":8403611,"name":"Zhoujiaba","ascii":"Zhoujiaba","lat":30.84349,"lon":108.36642,"population":88494},{"id":1808133,"name":"Honghe","ascii":"Honghe","lat":36.40278,"lon":118.91806,"population":88458},{"id":1817294,"name":"Baixi","ascii":"Baixi","lat":28.6997,"lon":104.54917,"population":88251},{"id":1803753,"name":"Lidu","ascii":"Lidu","lat":29.73861,"lon":107.29477,"population":88124},{"id":1785566,"name":"Yingchuan","ascii":"Yingchuan","lat":34.16278,"lon":113.46389,"population":87961},{"id":1784450,"name":"Gusong","ascii":"Gusong","lat":28.3133,"lon":105.2377,"population":87882},{"id":1808977,"name":"Hanchuan","ascii":"Hanchuan","lat":30.65,"lon":113.76667,"population":87737},{"id":1792795,"name":"Tiefu","ascii":"Tiefu","lat":34.53333,"lon":118.03333,"population":87689},{"id":1797535,"name":"Qiongshan","ascii":"Qiongshan","lat":20.00864,"lon":110.35384,"population":87657},{"id":1790471,"name":"Xiangxiang","nameKo":"샹샹 시","ascii":"Xiangxiang","lat":27.73333,"lon":112.53333,"population":87592},{"id":1812981,"name":"Deqing","ascii":"Deqing","lat":30.54485,"lon":119.9599,"population":87576},{"id":1787925,"name":"Xujiang","ascii":"Xujiang","lat":26.83945,"lon":116.32011,"population":87459},{"id":2035746,"name":"Mishan","ascii":"Mishan","lat":45.55,"lon":131.88333,"population":87257},{"id":2035601,"name":"Nenjiang","ascii":"Nenjiang","lat":49.17405,"lon":125.21967,"population":87236},{"id":1280574,"name":"Menglang","ascii":"Menglang","lat":22.56214,"lon":99.91029,"population":86877},{"id":1794825,"name":"Shizilu","ascii":"Shizilu","lat":35.17111,"lon":118.82889,"population":86749},{"id":1806271,"name":"Jiangshan","ascii":"Jiangshan","lat":36.67806,"lon":120.52917,"population":86642},{"id":1784929,"name":"Zhaogezhuang","ascii":"Zhaogezhuang","lat":39.76538,"lon":118.41191,"population":86555},{"id":1818019,"name":"Anlong","ascii":"Anlong","lat":25.1,"lon":105.51667,"population":86416},{"id":1280281,"name":"Qamdo","ascii":"Qamdo","lat":31.1304,"lon":97.17982,"population":86280},{"id":1800088,"name":"Nanfeng","ascii":"Nanfeng","lat":23.72695,"lon":111.79723,"population":86129},{"id":8403614,"name":"Zhonggulou","ascii":"Zhonggulou","lat":30.82491,"lon":108.38413,"population":85873},{"id":11778484,"name":"Longnan","nameKo":"룽난 시","ascii":"Longnan","lat":33.39791,"lon":104.91703,"population":85826},{"id":2036933,"name":"Helong","ascii":"Helong","lat":42.53974,"lon":128.99722,"population":85756},{"id":1800107,"name":"Nanding","ascii":"Nanding","lat":36.74833,"lon":118.05583,"population":85495},{"id":1809263,"name":"Guozhen","ascii":"Guozhen","lat":34.36591,"lon":107.35904,"population":85415},{"id":1812988,"name":"Dengzhou","ascii":"Dengzhou","lat":37.80822,"lon":120.75908,"population":85279},{"id":1797333,"name":"Qufu","nameKo":"취푸 시","ascii":"Qufu","lat":35.59667,"lon":116.99111,"population":85144},{"id":1280757,"name":"Laojunmiao","ascii":"Laojunmiao","lat":39.83333,"lon":97.73333,"population":84769},{"id":1893595,"name":"Dacheng","ascii":"Dacheng","lat":19.50927,"lon":109.39275,"population":84620},{"id":1800629,"name":"Mianyang","ascii":"Mianyang","lat":33.15703,"lon":106.69445,"population":84606},{"id":1813088,"name":"Dazhong","ascii":"Dazhong","lat":33.19973,"lon":120.4578,"population":84323},{"id":1803822,"name":"Liaolan","ascii":"Liaolan","lat":36.67444,"lon":119.87528,"population":84306},{"id":1805334,"name":"Jinxiang","ascii":"Jinxiang","lat":27.43265,"lon":120.60625,"population":84231},{"id":12324303,"name":"Dongxia","ascii":"Dongxia","lat":36.74918,"lon":118.58268,"population":84083},{"id":1813032,"name":"Degan","ascii":"Degan","lat":29.27846,"lon":106.23157,"population":83950},{"id":1790392,"name":"Xiannü","ascii":"Xiannue","lat":32.42806,"lon":119.56048,"population":83936},{"id":1786515,"name":"Yinma","ascii":"Yinma","lat":36.66083,"lon":119.4625,"population":83872},{"id":2036081,"name":"Lingdong","ascii":"Lingdong","lat":46.55428,"lon":131.14493,"population":83636},{"id":1799574,"name":"Nanzhang Chengguanzhen","ascii":"Nanzhang Chengguanzhen","lat":31.78394,"lon":111.82752,"population":83604},{"id":1787837,"name":"Xucheng","ascii":"Xucheng","lat":20.33025,"lon":110.16643,"population":83267},{"id":1529088,"name":"Wensu","ascii":"Wensu","lat":41.27548,"lon":80.23612,"population":83110},{"id":1808747,"name":"Hecun","ascii":"Hecun","lat":36.53333,"lon":114.11111,"population":83009},{"id":1799348,"name":"Ningyang","ascii":"Ningyang","lat":35.76417,"lon":116.79139,"population":82994},{"id":1805379,"name":"Jinshi","ascii":"Jinshi","lat":29.60487,"lon":111.87012,"population":82906},{"id":1786060,"name":"Yuanping","ascii":"Yuanping","lat":38.71528,"lon":112.7575,"population":82883},{"id":1817884,"name":"Aoxi","ascii":"Aoxi","lat":27.42589,"lon":115.83643,"population":82717},{"id":1813033,"name":"Liping","ascii":"Liping","lat":26.23111,"lon":109.13139,"population":82710},{"id":1815585,"name":"Changqing","ascii":"Changqing","lat":36.5575,"lon":116.72722,"population":82598},{"id":12277235,"name":"Dali Old Town","ascii":"Dali Old Town","lat":25.68863,"lon":100.15894,"population":82566},{"id":1789118,"name":"Xindian","ascii":"Xindian","lat":36.7975,"lon":118.29444,"population":82555},{"id":1786676,"name":"Yima","ascii":"Yima","lat":34.73806,"lon":111.88389,"population":82509},{"id":1798182,"name":"Qiaoguan","ascii":"Qiaoguan","lat":36.56444,"lon":118.88389,"population":82467},{"id":1800065,"name":"Nangong","ascii":"Nangong","lat":37.35464,"lon":115.38881,"population":82386},{"id":1801722,"name":"Lüshun","nameKo":"뤼순","ascii":"Lueshun","lat":38.8,"lon":121.26667,"population":82345},{"id":1549817,"name":"Anguo","ascii":"Anguo","lat":34.83056,"lon":116.81944,"population":82181},{"id":1794947,"name":"Shiwan","ascii":"Shiwan","lat":23.00107,"lon":113.077,"population":82031},{"id":1808103,"name":"Donghe","ascii":"Donghe","lat":32.23341,"lon":106.30126,"population":81953},{"id":1786042,"name":"Huaiyang","ascii":"Huaiyang","lat":37.76145,"lon":114.51703,"population":81861},{"id":1793364,"name":"Tangping","ascii":"Tangping","lat":22.03177,"lon":111.93537,"population":81729},{"id":1785964,"name":"Yudong","ascii":"Yudong","lat":29.385,"lon":106.51944,"population":81408},{"id":1815617,"name":"Changning","ascii":"Changning","lat":28.57773,"lon":104.92087,"population":81248},{"id":1788269,"name":"Xiugu","ascii":"Xiugu","lat":27.91132,"lon":116.77637,"population":81153},{"id":1811440,"name":"Feicheng","ascii":"Feicheng","lat":35.26056,"lon":117.9675,"population":80929},{"id":1795941,"name":"Shanting","ascii":"Shanting","lat":35.07528,"lon":117.45778,"population":80843},{"id":1804935,"name":"Junlian","ascii":"Junlian","lat":28.17106,"lon":104.51162,"population":80708},{"id":1549667,"name":"Nianzhuang","ascii":"Nianzhuang","lat":34.29722,"lon":117.77222,"population":80617},{"id":1280328,"name":"Yingjiang","ascii":"Yingjiang","lat":24.71022,"lon":97.93671,"population":80481},{"id":1784055,"name":"Zhuanghe","ascii":"Zhuanghe","lat":39.70083,"lon":122.99111,"population":80384},{"id":1792516,"name":"Loushanguan","ascii":"Loushanguan","lat":28.1368,"lon":106.822,"population":80344},{"id":1816890,"name":"Baoying","ascii":"Baoying","lat":33.22917,"lon":119.30917,"population":80292},{"id":2037823,"name":"Dashiqiao","ascii":"Dashiqiao","lat":40.63732,"lon":122.50251,"population":80223},{"id":2035511,"name":"Panshi","ascii":"Panshi","lat":42.93719,"lon":126.05743,"population":80200},{"id":1789649,"name":"Xichang","ascii":"Xichang","lat":21.63333,"lon":108.95,"population":80064},{"id":12324301,"name":"Huanglou","ascii":"Huanglou","lat":36.64709,"lon":118.60554,"population":80055},{"id":1811794,"name":"Dushan","ascii":"Dushan","lat":25.83333,"lon":107.53333,"population":80045},{"id":1279715,"name":"Rikaze","nameKo":"쌍주쯔 구","ascii":"Rikaze","lat":29.25,"lon":88.88333,"population":80000},{"id":1549774,"name":"Songlou","ascii":"Songlou","lat":34.57231,"lon":116.60239,"population":79763},{"id":1793533,"name":"Taixing","ascii":"Taixing","lat":32.16667,"lon":120.01361,"population":79655},{"id":1793385,"name":"Tangjiazhuang","ascii":"Tangjiazhuang","lat":39.74326,"lon":118.45099,"population":79489},{"id":1795579,"name":"Yanta","ascii":"Yanta","lat":36.24111,"lon":115.66722,"population":79196},{"id":1797438,"name":"Zhuangyuan","ascii":"Zhuangyuan","lat":37.30553,"lon":120.82747,"population":79106},{"id":1790885,"name":"Wuyang","ascii":"Wuyang","lat":31.9925,"lon":116.24722,"population":79070},{"id":1788402,"name":"Xiongzhou","ascii":"Xiongzhou","lat":25.11667,"lon":114.3,"population":79050},{"id":1815847,"name":"Chaigou","ascii":"Chaigou","lat":36.24889,"lon":119.62417,"population":79043},{"id":1788452,"name":"Xinzhou","ascii":"Xinzhou","lat":30.86667,"lon":114.8,"population":78767},{"id":1794971,"name":"Shitanjing","ascii":"Shitanjing","lat":39.23417,"lon":106.34389,"population":78765},{"id":2034340,"name":"Tumen","ascii":"Tumen","lat":42.96562,"lon":129.84199,"population":78719},{"id":8420195,"name":"Qinggang","ascii":"Qinggang","lat":29.4677,"lon":106.23618,"population":78582},{"id":1808517,"name":"Hengbei","ascii":"Hengbei","lat":23.87968,"lon":115.72546,"population":78575},{"id":12324246,"name":"Yishan","ascii":"Yishan","lat":36.22107,"lon":118.69663,"population":78408},{"id":2033301,"name":"Youhao","ascii":"Youhao","lat":47.85306,"lon":128.83565,"population":78402},{"id":1798634,"name":"Pingyi","ascii":"Pingyi","lat":35.50056,"lon":117.63083,"population":78254},{"id":12110889,"name":"Wulong","ascii":"Wulong","lat":29.32431,"lon":107.76056,"population":78225},{"id":1803374,"name":"Linping","ascii":"Linping","lat":30.4225,"lon":120.29722,"population":78180},{"id":1805175,"name":"Xixiang","ascii":"Xixiang","lat":22.59306,"lon":113.8889,"population":78022},{"id":1807090,"name":"Huankou","ascii":"Huankou","lat":34.87,"lon":116.66972,"population":77758},{"id":2036066,"name":"Linkou","ascii":"Linkou","lat":45.2762,"lon":130.27332,"population":77754},{"id":1807339,"name":"Huangmei","ascii":"Huangmei","lat":30.19235,"lon":116.02496,"population":77633},{"id":1789176,"name":"Feicheng","ascii":"Feicheng","lat":36.24861,"lon":116.76583,"population":77606},{"id":1898494,"name":"Songling","ascii":"Songling","lat":31.1933,"lon":120.71758,"population":77566},{"id":1805267,"name":"Jishui","ascii":"Jishui","lat":33.73333,"lon":115.4,"population":77540},{"id":2034761,"name":"Shulan","ascii":"Shulan","lat":44.41134,"lon":126.94827,"population":77420},{"id":12324287,"name":"Baicheng","ascii":"Baicheng","lat":36.32743,"lon":119.77875,"population":77235},{"id":1813927,"name":"Damiao","ascii":"Damiao","lat":34.26411,"lon":117.36379,"population":77179},{"id":1805833,"name":"Jiexiu","nameKo":"제슈 시","ascii":"Jiexiu","lat":37.02444,"lon":111.9125,"population":77178},{"id":2036653,"name":"Hunchun","ascii":"Hunchun","lat":42.86736,"lon":130.35689,"population":77028},{"id":1914927,"name":"Sandu","ascii":"Sandu","lat":19.7894,"lon":109.215,"population":76757},{"id":1803948,"name":"Liangxiang","ascii":"Liangxiang","lat":39.73598,"lon":116.13295,"population":76744},{"id":1784939,"name":"Zhaodun","ascii":"Zhaodun","lat":34.3027,"lon":117.85699,"population":76691},{"id":1813658,"name":"Fenghua","ascii":"Fenghua","lat":29.65628,"lon":121.4064,"population":76653},{"id":1783554,"name":"Yaxing","ascii":"Yaxing","lat":19.44778,"lon":109.26273,"population":76427},{"id":1787437,"name":"Yangliuqing","ascii":"Yangliuqing","lat":39.1375,"lon":116.99972,"population":76387},{"id":1797471,"name":"Qiuji","ascii":"Qiuji","lat":33.8,"lon":118,"population":76343},{"id":1797793,"name":"Qingquan","ascii":"Qingquan","lat":30.45113,"lon":115.25593,"population":76154},{"id":1794782,"name":"Shouxian","ascii":"Shouxian","lat":34.84648,"lon":116.45884,"population":76030},{"id":1803266,"name":"Lintong","ascii":"Lintong","lat":34.37803,"lon":109.20892,"population":75882},{"id":12258245,"name":"Kageleke","ascii":"Kageleke","lat":37.30096,"lon":79.60128,"population":75730},{"id":12324299,"name":"Kanjia","ascii":"Kanjia","lat":36.37227,"lon":119.58208,"population":75669},{"id":1792087,"name":"Yinzhu","ascii":"Yinzhu","lat":35.87861,"lon":119.97528,"population":75656},{"id":2038118,"name":"Chaoyang","ascii":"Chaoyang","lat":42.66223,"lon":126.0263,"population":75347},{"id":1788869,"name":"Shangmei","ascii":"Shangmei","lat":27.74278,"lon":111.29556,"population":75233},{"id":2037334,"name":"Fuyu","ascii":"Fuyu","lat":47.79494,"lon":124.45773,"population":75147},{"id":6958502,"name":"Maozhou","ascii":"Maozhou","lat":22.76361,"lon":113.81288,"population":74910},{"id":1806840,"name":"Huilong","ascii":"Huilong","lat":31.81111,"lon":121.655,"population":74818},{"id":1816751,"name":"Beidao","ascii":"Beidao","lat":34.56861,"lon":105.89333,"population":74767},{"id":1787601,"name":"Yanggu","ascii":"Yanggu","lat":36.11056,"lon":115.77528,"population":74725},{"id":1802651,"name":"Longgang","ascii":"Longgang","lat":29.69744,"lon":105.71369,"population":74605},{"id":1795919,"name":"Shancheng","ascii":"Shancheng","lat":34.79528,"lon":116.08167,"population":74459},{"id":1785022,"name":"Zhangzhai","ascii":"Zhangzhai","lat":34.61667,"lon":116.95,"population":74433},{"id":1799897,"name":"Nanma","ascii":"Nanma","lat":36.18478,"lon":118.15486,"population":74406},{"id":1806880,"name":"Huicheng","ascii":"Huicheng","lat":29.86925,"lon":118.43364,"population":74349},{"id":1786043,"name":"Yuanshang","ascii":"Yuanshang","lat":36.76833,"lon":120.34556,"population":74253},{"id":1793889,"name":"Suixi","ascii":"Suixi","lat":33.89067,"lon":116.77473,"population":74172},{"id":2033675,"name":"Xinmin","ascii":"Xinmin","lat":41.99083,"lon":122.82528,"population":74139},{"id":1549743,"name":"Zhangzhuang","ascii":"Zhangzhuang","lat":34.51944,"lon":117.00556,"population":74114},{"id":1809610,"name":"Gucheng Chengguanzhen","ascii":"Gucheng Chengguanzhen","lat":32.26604,"lon":111.63476,"population":74038},{"id":1790379,"name":"Xianshuigu","ascii":"Xianshuigu","lat":38.985,"lon":117.38278,"population":74028},{"id":1785655,"name":"Yunyang","ascii":"Yunyang","lat":33.44743,"lon":112.71422,"population":73922},{"id":1788406,"name":"Huayuan","ascii":"Huayuan","lat":28.28635,"lon":117.20656,"population":73732},{"id":1804442,"name":"Lanxi","ascii":"Lanxi","lat":29.21588,"lon":119.47156,"population":73706},{"id":2037252,"name":"Genhe","ascii":"Genhe","lat":50.78333,"lon":121.51667,"population":73631},{"id":1801983,"name":"Luocheng","ascii":"Luocheng","lat":29.38481,"lon":104.02862,"population":73581},{"id":12324304,"name":"Heguan","ascii":"Heguan","lat":36.88998,"lon":118.57379,"population":73470},{"id":1804979,"name":"Juegang","ascii":"Juegang","lat":32.31737,"lon":121.18552,"population":73317},{"id":7290013,"name":"Shixing","ascii":"Shixing","lat":24.94824,"lon":114.06572,"population":72996},{"id":1812597,"name":"Dongdu","ascii":"Dongdu","lat":35.85,"lon":117.7,"population":72957},{"id":1787188,"name":"Yanjia","ascii":"Yanjia","lat":29.82758,"lon":106.99734,"population":72825},{"id":1812427,"name":"Dongkan","ascii":"Dongkan","lat":33.99972,"lon":119.83083,"population":72789},{"id":1807553,"name":"Dingcheng","ascii":"Dingcheng","lat":32.12722,"lon":115.03944,"population":72663},{"id":1529099,"name":"Wusu","ascii":"Wusu","lat":44.43105,"lon":84.67623,"population":72587},{"id":2036226,"name":"Lanxi","ascii":"Lanxi","lat":46.25773,"lon":126.28065,"population":72528},{"id":1800430,"name":"Miyang","ascii":"Miyang","lat":24.40417,"lon":103.44278,"population":72485},{"id":1806188,"name":"Jiangzhuang","ascii":"Jiangzhuang","lat":36.49444,"lon":119.79417,"population":72453},{"id":2037391,"name":"Beichengqu","ascii":"Beichengqu","lat":40.43944,"lon":113.15361,"population":72444},{"id":1788462,"name":"Xinzhi","ascii":"Xinzhi","lat":36.49889,"lon":111.70472,"population":72303},{"id":1802788,"name":"Licheng","ascii":"Licheng","lat":31.42813,"lon":119.48353,"population":72276},{"id":1920772,"name":"Zhoucheng","ascii":"Zhoucheng","lat":35.91222,"lon":116.31167,"population":72070},{"id":1816176,"name":"Caidian","ascii":"Caidian","lat":30.58333,"lon":114.03333,"population":71891},{"id":2033602,"name":"Xiuyan","ascii":"Xiuyan","lat":40.29278,"lon":123.27444,"population":71614},{"id":1801926,"name":"Luohuang","ascii":"Luohuang","lat":29.34662,"lon":106.43514,"population":71515},{"id":1794103,"name":"Shangsi","ascii":"Shangsi","lat":22.15627,"lon":107.97953,"population":71468},{"id":1529377,"name":"Qarasu","ascii":"Qarasu","lat":44.20276,"lon":80.41639,"population":71446},{"id":2038139,"name":"Changtu","ascii":"Changtu","lat":42.77884,"lon":124.09545,"population":71284},{"id":1807035,"name":"Huashan","ascii":"Huashan","lat":34.63,"lon":116.73583,"population":71281},{"id":1818016,"name":"Anlu","ascii":"Anlu","lat":31.2575,"lon":113.67833,"population":71198},{"id":2033403,"name":"Yilan","ascii":"Yilan","lat":46.3223,"lon":129.56081,"population":71180},{"id":1803397,"name":"Linjiang","ascii":"Linjiang","lat":31.09956,"lon":108.21964,"population":71149},{"id":1809486,"name":"Guiping","ascii":"Guiping","lat":23.39483,"lon":110.07434,"population":71066},{"id":2036283,"name":"Kuandian","ascii":"Kuandian","lat":40.72861,"lon":124.78472,"population":70867},{"id":13308625,"name":"Shenzhen City Centre","ascii":"Shenzhen City Centre","lat":22.53589,"lon":114.0771,"population":70826},{"id":1798548,"name":"Poyang","ascii":"Poyang","lat":28.99242,"lon":116.66754,"population":70787},{"id":1786357,"name":"Yongfeng","ascii":"Yongfeng","lat":27.45493,"lon":112.16943,"population":70783},{"id":2037240,"name":"Gongchangling","ascii":"Gongchangling","lat":41.11667,"lon":123.45,"population":70761},{"id":1805757,"name":"Jimo","ascii":"Jimo","lat":36.38972,"lon":120.46222,"population":70733},{"id":2038541,"name":"Baiquan","ascii":"Baiquan","lat":47.60659,"lon":126.08231,"population":70472},{"id":1806218,"name":"Jiangyan","ascii":"Jiangyan","lat":32.50611,"lon":120.14278,"population":70375},{"id":2034918,"name":"Shiguai","ascii":"Shiguai","lat":40.70583,"lon":110.28556,"population":70357},{"id":1810846,"name":"Fuyang","ascii":"Fuyang","lat":30.05333,"lon":119.95194,"population":70183},{"id":1789799,"name":"Haining","ascii":"Haining","lat":30.53629,"lon":120.68638,"population":70171},{"id":1795986,"name":"Shankou","ascii":"Shankou","lat":21.6,"lon":109.71667,"population":70153},{"id":1799100,"name":"Pan’an","ascii":"Pan'an","lat":34.75472,"lon":105.11167,"population":70072},{"id":1800764,"name":"Mengcheng Chengguanzhen","ascii":"Mengcheng Chengguanzhen","lat":33.26611,"lon":116.56605,"population":69916},{"id":1788887,"name":"Xinhe","ascii":"Xinhe","lat":36.925,"lon":119.59306,"population":69884},{"id":1909053,"name":"Shima","ascii":"Shima","lat":28.98773,"lon":105.92441,"population":69881},{"id":12358513,"name":"Fengping","ascii":"Fengping","lat":24.39735,"lon":98.5177,"population":69586},{"id":1815188,"name":"Chengxian Chengguanzhen","ascii":"Chengxian Chengguanzhen","lat":33.74775,"lon":105.73294,"population":69427},{"id":1529528,"name":"Xininglu","ascii":"Xininglu","lat":44.33957,"lon":84.90425,"population":69361},{"id":1788061,"name":"Xuantan","ascii":"Xuantan","lat":29.20856,"lon":105.56974,"population":69250},{"id":1805884,"name":"Jiehu","ascii":"Jiehu","lat":35.54278,"lon":118.455,"population":69245},{"id":2036069,"name":"Linjiang","ascii":"Linjiang","lat":41.80694,"lon":126.90778,"population":69149},{"id":1793230,"name":"Tantou","ascii":"Tantou","lat":26.03033,"lon":119.59739,"population":69050},{"id":2033934,"name":"Xiaoshi","ascii":"Xiaoshi","lat":41.29711,"lon":124.12092,"population":68994},{"id":1805505,"name":"Jinjiang","ascii":"Jinjiang","lat":19.72878,"lon":110.00851,"population":68720},{"id":1785699,"name":"Yunmen","ascii":"Yunmen","lat":30.08274,"lon":106.32376,"population":68698},{"id":1791007,"name":"Wushan","ascii":"Wushan","lat":34.72083,"lon":104.88583,"population":68643},{"id":2036959,"name":"Heishan","ascii":"Heishan","lat":41.68917,"lon":122.11278,"population":68603},{"id":1798946,"name":"Pengcheng","ascii":"Pengcheng","lat":36.43111,"lon":114.17,"population":68442},{"id":1791484,"name":"Wenjiang","ascii":"Wenjiang","lat":28.38812,"lon":104.56339,"population":68433},{"id":1795166,"name":"Shima","ascii":"Shima","lat":24.44647,"lon":117.81216,"population":68375},{"id":1800519,"name":"Mingguang","ascii":"Mingguang","lat":32.78017,"lon":117.96378,"population":68351},{"id":1799384,"name":"Ninghai","ascii":"Ninghai","lat":29.28917,"lon":121.42472,"population":68330},{"id":2038198,"name":"Chaihe","ascii":"Chaihe","lat":44.7598,"lon":129.67826,"population":67963},{"id":1800521,"name":"Minggang","ascii":"Minggang","lat":32.45861,"lon":114.04861,"population":67945},{"id":1793286,"name":"Tangzhai","ascii":"Tangzhai","lat":34.43278,"lon":116.59111,"population":67936},{"id":1787873,"name":"Xunyang","ascii":"Xunyang","lat":32.82389,"lon":109.36528,"population":67929},{"id":1787587,"name":"Yanghe","ascii":"Yanghe","lat":38.27852,"lon":106.24776,"population":67901},{"id":2037658,"name":"Dongfeng","ascii":"Dongfeng","lat":42.67387,"lon":125.52885,"population":67820},{"id":1806422,"name":"Jiang’an","ascii":"Jiang'an","lat":28.73335,"lon":105.0683,"population":67776},{"id":2033128,"name":"Zhenlai","ascii":"Zhenlai","lat":45.84963,"lon":123.19791,"population":67760},{"id":8416931,"name":"Shuangfengqiao","ascii":"Shuangfengqiao","lat":29.71859,"lon":106.62712,"population":67717},{"id":2034691,"name":"Songjianghe","ascii":"Songjianghe","lat":42.1859,"lon":127.47895,"population":67672},{"id":1801850,"name":"Luorong","ascii":"Luorong","lat":24.40583,"lon":109.60861,"population":67593},{"id":1802136,"name":"Lüeyang Chengguanzhen","ascii":"Lueeyang Chengguanzhen","lat":33.33205,"lon":106.15496,"population":67496},{"id":1791464,"name":"Wenling","ascii":"Wenling","lat":28.37524,"lon":121.38416,"population":67433},{"id":1797120,"name":"Fuqing","ascii":"Fuqing","lat":25.7294,"lon":119.37469,"population":67397},{"id":1816026,"name":"Caohe","ascii":"Caohe","lat":30.2297,"lon":115.43346,"population":67370},{"id":1810472,"name":"Gaoliu","ascii":"Gaoliu","lat":36.8,"lon":118.5,"population":67339},{"id":1788461,"name":"Xinzhou","ascii":"Xinzhou","lat":19.71446,"lon":109.31146,"population":67316},{"id":2035453,"name":"Pingzhuang","ascii":"Pingzhuang","lat":42.03722,"lon":119.28889,"population":67273},{"id":1792936,"name":"Tianliu","ascii":"Tianliu","lat":37,"lon":118.78333,"population":67165},{"id":1801734,"name":"Lushar","ascii":"Lushar","lat":36.48416,"lon":101.56328,"population":67153},{"id":12279164,"name":"Wanggou","ascii":"Wanggou","lat":34.67147,"lon":116.49213,"population":67140},{"id":1811305,"name":"Fengkou","ascii":"Fengkou","lat":30.08268,"lon":113.33346,"population":67139},{"id":13308594,"name":"Shajing Town","ascii":"Shajing Town","lat":22.73846,"lon":113.80755,"population":67093},