[{"id":3688689,"name":"Bogotá","nameKo":"보고타","ascii":"Bogota","lat":4.60971,"lon":-74.08175,"population":7674366},{"id":3687925,"name":"Cali","nameKo":"칼리","ascii":"Cali","lat":3.43054,"lon":-76.5199,"population":2392877},{"id":3674962,"name":"Medellín","nameKo":"메데인","ascii":"Medellin","lat":6.245,"lon":-75.57151,"population":1999979},{"id":3689147,"name":"Barranquilla","nameKo":"바랑키야","ascii":"Barranquilla","lat":10.96854,"lon":-74.78132,"population":1206319},{"id":3687238,"name":"Cartagena","nameKo":"카르타헤나","ascii":"Cartagena","lat":10.39817,"lon":-75.49328,"population":914552},{"id":3685533,"name":"Cúcuta","nameKo":"쿠쿠타","ascii":"Cucuta","lat":7.90745,"lon":-72.5049,"population":777106},{"id":3667905,"name":"Soacha","ascii":"Soacha","lat":4.57937,"lon":-74.21682,"population":655025},{"id":3688465,"name":"Bucaramanga","nameKo":"부카라망가","ascii":"Bucaramanga","lat":7.125,"lon":-73.11895,"population":581130},{"id":3680656,"name":"Ibagué","nameKo":"이바게","ascii":"Ibague","lat":4.43573,"lon":-75.20289,"population":529635},{"id":3668605,"name":"Santa Marta","ascii":"Santa Marta","lat":11.23855,"lon":-74.19427,"population":499192},{"id":3674453,"name":"Montería","ascii":"Monteria","lat":8.75081,"lon":-75.87823,"population":490935},{"id":3666304,"name":"Valledupar","nameKo":"예두파르","ascii":"Valledupar","lat":10.46538,"lon":-73.2531,"population":490075},{"id":3672486,"name":"Pereira","ascii":"Pereira","lat":4.81428,"lon":-75.69488,"population":467269},{"id":3675443,"name":"Manizales","nameKo":"마니살레스","ascii":"Manizales","lat":5.0668,"lon":-75.50684,"population":434403},{"id":3688452,"name":"Buenaventura","ascii":"Buenaventura","lat":3.58333,"lon":-77,"population":432385},{"id":3688928,"name":"Bello","ascii":"Bello","lat":6.33732,"lon":-75.55795,"population":392939},{"id":3672778,"name":"Pasto","ascii":"Pasto","lat":1.21456,"lon":-77.27846,"population":392930},{"id":3673899,"name":"Neiva","ascii":"Neiva","lat":2.93001,"lon":-75.27973,"population":357392},{"id":3667849,"name":"Soledad","ascii":"Soledad","lat":10.91843,"lon":-74.76459,"population":342556},{"id":3665900,"name":"Villavicencio","nameKo":"비야비센시오","ascii":"Villavicencio","lat":4.13238,"lon":-73.62564,"population":321717},{"id":3671916,"name":"Popayán","nameKo":"포파얀","ascii":"Popayan","lat":2.43823,"lon":-76.61316,"population":318059},{"id":3673164,"name":"Palmira","ascii":"Palmira","lat":3.53944,"lon":-76.30361,"population":312519},{"id":3689560,"name":"Armenia","ascii":"Armenia","lat":4.53656,"lon":-75.67263,"population":304314},{"id":3680450,"name":"Itagüí","ascii":"Itaguei","lat":6.18461,"lon":-75.59913,"population":281853},{"id":3667983,"name":"Sincelejo","nameKo":"신셀레호","ascii":"Sincelejo","lat":9.3045,"lon":-75.3905,"population":277773},{"id":3682385,"name":"Floridablanca","ascii":"Floridablanca","lat":7.06222,"lon":-73.08644,"population":267591},{"id":3688451,"name":"Buenaventura","ascii":"Buenaventura","lat":3.8801,"lon":-77.03116,"population":240387},{"id":3666645,"name":"Tuluá","ascii":"Tulua","lat":4.08466,"lon":-76.19536,"population":221684},{"id":3685095,"name":"Dosquebradas","ascii":"Dosquebradas","lat":4.83916,"lon":-75.66727,"population":206693},{"id":3689169,"name":"Barrancabermeja","ascii":"Barrancabermeja","lat":7.06528,"lon":-73.85472,"population":191403},{"id":3670745,"name":"Riohacha","ascii":"Riohacha","lat":11.54444,"lon":-72.90722,"population":188014},{"id":3666608,"name":"Tunja","nameKo":"툰하","ascii":"Tunja","lat":5.54481,"lon":-73.35756,"population":172548},{"id":3665688,"name":"Yopal","nameKo":"요팔","ascii":"Yopal","lat":5.33573,"lon":-72.3939,"population":168433},{"id":3682426,"name":"Florencia","ascii":"Florencia","lat":1.61549,"lon":-75.60412,"population":168346},{"id":3675657,"name":"Maicao","ascii":"Maicao","lat":11.37837,"lon":-72.2395,"population":166603},{"id":3672328,"name":"Piedecuesta","ascii":"Piedecuesta","lat":6.98789,"lon":-73.04953,"population":163362},{"id":3682631,"name":"Envigado","ascii":"Envigado","lat":6.17591,"lon":-75.59174,"population":163007},{"id":3682516,"name":"Facatativá","ascii":"Facatativa","lat":4.81367,"lon":-74.35453,"population":141762},{"id":3672110,"name":"Pitalito","ascii":"Pitalito","lat":1.85371,"lon":-76.05071,"population":135711},{"id":3675707,"name":"Madrid","ascii":"Madrid","lat":4.73245,"lon":-74.26419,"population":135000},{"id":3687230,"name":"Cartago","ascii":"Cartago","lat":4.74639,"lon":-75.91167,"population":134972},{"id":3665542,"name":"Zipaquirá","nameKo":"시파키라","ascii":"Zipaquira","lat":5.02208,"lon":-74.00481,"population":130432},{"id":3671116,"name":"Quibdó","nameKo":"키브도","ascii":"Quibdo","lat":5.69188,"lon":-76.65835,"population":129237},{"id":3675595,"name":"Malambo","ascii":"Malambo","lat":10.85953,"lon":-74.77386,"population":129148},{"id":3670730,"name":"Rionegro","nameKo":"리오네그로","ascii":"Rionegro","lat":6.15515,"lon":-75.37371,"population":128153},{"id":3674292,"name":"Mosquera","ascii":"Mosquera","lat":4.70592,"lon":-74.23021,"population":128012},{"id":3686675,"name":"Chía","ascii":"Chia","lat":4.85876,"lon":-74.05866,"population":124309},{"id":3675692,"name":"Magangué","ascii":"Magangue","lat":9.24202,"lon":-74.75467,"population":123982},{"id":3682281,"name":"Funza","ascii":"Funza","lat":4.71638,"lon":-74.21195,"population":116890},{"id":3688256,"name":"Guadalajara de Buga","ascii":"Guadalajara de Buga","lat":3.90089,"lon":-76.29783,"population":114316},{"id":3667873,"name":"Sogamoso","ascii":"Sogamoso","lat":5.71434,"lon":-72.93391,"population":111336},{"id":3682018,"name":"Girón","ascii":"Giron","lat":7.0682,"lon":-73.16981,"population":108466},{"id":3682028,"name":"Girardot City","ascii":"Girardot City","lat":4.30079,"lon":-74.80754,"population":107324},{"id":3670502,"name":"Sabanalarga","ascii":"Sabanalarga","lat":10.63072,"lon":-74.92214,"population":102334},{"id":3673662,"name":"Ocaña","ascii":"Ocana","lat":8.23773,"lon":-73.35604,"population":101158},{"id":3668572,"name":"Santander de Quilichao","ascii":"Santander de Quilichao","lat":3.00945,"lon":-76.48494,"population":99354},{"id":3690465,"name":"Aguachica","ascii":"Aguachica","lat":8.30844,"lon":-73.6166,"population":97525},{"id":3686922,"name":"Cereté","ascii":"Cerete","lat":8.88479,"lon":-75.79052,"population":94935},{"id":3685084,"name":"Duitama","ascii":"Duitama","lat":5.8245,"lon":-73.03408,"population":92040},{"id":3674470,"name":"Montelíbano","ascii":"Montelibano","lat":7.97917,"lon":-75.4202,"population":90450},{"id":3682274,"name":"Fusagasugá","ascii":"Fusagasuga","lat":4.33646,"lon":-74.36378,"population":88820},{"id":3686279,"name":"Ciénaga","ascii":"Cienaga","lat":11.00703,"lon":-74.24765,"population":88311},{"id":3666640,"name":"Tumaco","ascii":"Tumaco","lat":1.79112,"lon":-78.79275,"population":86713},{"id":3689798,"name":"Apartadó","ascii":"Apartado","lat":7.88299,"lon":-76.62587,"population":86438},{"id":3686636,"name":"Chigorodó","ascii":"Chigorodo","lat":7.66638,"lon":-76.68106,"population":86239},{"id":3689718,"name":"Arauca","nameKo":"아라우카","ascii":"Arauca","lat":7.08471,"lon":-70.75908,"population":85585},{"id":3670475,"name":"Sabaneta","ascii":"Sabaneta","lat":6.15153,"lon":-75.61657,"population":82375},{"id":3687952,"name":"Caldas","ascii":"Caldas","lat":6.09106,"lon":-75.63569,"population":82234},{"id":3679277,"name":"La Dorada","ascii":"La Dorada","lat":5.44783,"lon":-74.66311,"population":81950},{"id":3687964,"name":"Calarcá","ascii":"Calarca","lat":4.52949,"lon":-75.64091,"population":79569},{"id":3680539,"name":"Ipiales","ascii":"Ipiales","lat":0.82501,"lon":-77.63966,"population":77729},{"id":3665657,"name":"Yumbo","ascii":"Yumbo","lat":3.58234,"lon":-76.49146,"population":71436},{"id":3672068,"name":"Planeta Rica","ascii":"Planeta Rica","lat":8.4115,"lon":-75.58508,"population":69708},{"id":3681957,"name":"Granada","ascii":"Granada","lat":3.54625,"lon":-73.70687,"population":68876},{"id":3686561,"name":"Chinchiná","ascii":"Chinchina","lat":4.9825,"lon":-75.60361,"population":68512},{"id":3689235,"name":"Baranoa","ascii":"Baranoa","lat":10.79408,"lon":-74.9164,"population":68383},{"id":3665913,"name":"Villa del Rosario","ascii":"Villa del Rosario","lat":7.83389,"lon":-72.47417,"population":64951},{"id":3669346,"name":"San Marcos","ascii":"San Marcos","lat":8.65972,"lon":-75.12809,"population":60735},{"id":3670419,"name":"Sahagún","ascii":"Sahagun","lat":8.94617,"lon":-75.44275,"population":59188},{"id":3682292,"name":"Fundación","ascii":"Fundacion","lat":10.52066,"lon":-74.18504,"population":59175},{"id":3675975,"name":"Los Patios","ascii":"Los Patios","lat":7.83793,"lon":-72.5037,"population":58661},{"id":3670218,"name":"San Andrés","ascii":"San Andres","lat":12.57858,"lon":-81.69973,"population":58257},{"id":3687025,"name":"Caucasia","ascii":"Caucasia","lat":7.98654,"lon":-75.19349,"population":58034},{"id":3668454,"name":"Santa Rosa de Cabal","ascii":"Santa Rosa de Cabal","lat":4.86806,"lon":-75.62139,"population":57928},{"id":3829343,"name":"Orito","ascii":"Orito","lat":0.66749,"lon":-76.87297,"population":57774},{"id":3675263,"name":"Marinilla","ascii":"Marinilla","lat":6.17358,"lon":-75.33621,"population":57403},{"id":3674654,"name":"Mocoa","nameKo":"모코아","ascii":"Mocoa","lat":1.15284,"lon":-76.65208,"population":56398},{"id":3682573,"name":"Espinal","ascii":"Espinal","lat":4.14924,"lon":-74.88429,"population":56213},{"id":3666577,"name":"Turbaco","ascii":"Turbaco","lat":10.32944,"lon":-75.41137,"population":56171},{"id":3689381,"name":"Ayapel","ascii":"Ayapel","lat":8.31372,"lon":-75.13982,"population":56082},{"id":3684917,"name":"El Banco","ascii":"El Banco","lat":9.00114,"lon":-73.97581,"population":54522},{"id":3688006,"name":"Cajicá","ascii":"Cajica","lat":4.91857,"lon":-74.02799,"population":54111},{"id":3689205,"name":"Barbosa","ascii":"Barbosa","lat":6.43809,"lon":-75.33136,"population":53943},{"id":3673045,"name":"Pamplona","ascii":"Pamplona","lat":7.37565,"lon":-72.64795,"population":53587},{"id":3828545,"name":"San José del Guaviare","ascii":"San Jose del Guaviare","lat":2.56799,"lon":-72.63972,"population":52815},{"id":3792383,"name":"Agustín Codazzi","ascii":"Agustin Codazzi","lat":10.03672,"lon":-73.23558,"population":51478},{"id":3684945,"name":"El Bagre","ascii":"El Bagre","lat":7.60347,"lon":-74.80951,"population":51150},{"id":3671540,"name":"Puerto Berrío","ascii":"Puerto Berrio","lat":6.49156,"lon":-74.40326,"population":51079},{"id":3686255,"name":"Cimitarra","ascii":"Cimitarra","lat":6.31419,"lon":-73.94968,"population":50892},{"id":3686540,"name":"Chinú","ascii":"Chinu","lat":9.10569,"lon":-75.39812,"population":50743},{"id":3666570,"name":"Turbo","ascii":"Turbo","lat":8.09263,"lon":-76.72822,"population":50508},{"id":3689570,"name":"Arjona","ascii":"Arjona","lat":10.25444,"lon":-75.34389,"population":50405},{"id":3687318,"name":"Carmen de Viboral","ascii":"Carmen de Viboral","lat":6.08236,"lon":-75.33509,"population":49642},{"id":3679065,"name":"La Estrella","ascii":"La Estrella","lat":6.15769,"lon":-75.64317,"population":49386},{"id":3685949,"name":"Copacabana","ascii":"Copacabana","lat":6.34633,"lon":-75.50888,"population":49169},{"id":3670293,"name":"Samaniego","ascii":"Samaniego","lat":1.33849,"lon":-77.5957,"population":49085},{"id":3792392,"name":"Plato","ascii":"Plato","lat":9.79029,"lon":-74.78244,"population":48606},{"id":3676623,"name":"Leticia","nameKo":"레티시아","ascii":"Leticia","lat":-4.21079,"lon":-69.93944,"population":48144},{"id":3684666,"name":"El Carmen de Bolívar","ascii":"El Carmen de Bolivar","lat":9.7174,"lon":-75.12023,"population":47957},{"id":3682393,"name":"Florida","ascii":"Florida","lat":3.3223,"lon":-76.2348,"population":47173},{"id":3671315,"name":"Puerto Tejada","ascii":"Puerto Tejada","lat":3.23114,"lon":-76.41668,"population":46215},{"id":3669808,"name":"San Gil","ascii":"San Gil","lat":6.55952,"lon":-73.13637,"population":46152},{"id":3686513,"name":"Chiquinquirá","ascii":"Chiquinquira","lat":5.61637,"lon":-73.81748,"population":45294},{"id":3680387,"name":"Jamundí","ascii":"Jamundi","lat":3.26074,"lon":-76.53499,"population":44833},{"id":3671772,"name":"Pradera","ascii":"Pradera","lat":3.42111,"lon":-76.24472,"population":44630},{"id":8633918,"name":"Piendamo","ascii":"Piendamo","lat":2.63918,"lon":-76.53055,"population":44000},{"id":3668132,"name":"Sevilla","ascii":"Sevilla","lat":4.26425,"lon":-75.93085,"population":43738},{"id":3674702,"name":"Miranda","ascii":"Miranda","lat":3.25283,"lon":-76.22924,"population":43333},{"id":3674463,"name":"Montenegro","ascii":"Montenegro","lat":4.56639,"lon":-75.75111,"population":41996},{"id":3689759,"name":"Aracataca","ascii":"Aracataca","lat":10.59181,"lon":-74.18983,"population":41872},{"id":3681702,"name":"Guaduas","ascii":"Guaduas","lat":5.06692,"lon":-74.59499,"population":41838},{"id":3676928,"name":"La Unión","ascii":"La Union","lat":4.53282,"lon":-76.10318,"population":41013},{"id":3690577,"name":"Acacías","ascii":"Acacias","lat":3.98695,"lon":-73.75797,"population":40627},{"id":3676397,"name":"Lorica","ascii":"Lorica","lat":9.23648,"lon":-75.8135,"population":40605},{"id":3688566,"name":"Bosconia","ascii":"Bosconia","lat":9.97106,"lon":-73.88817,"population":40562},{"id":3669469,"name":"San Juan del Cesar","ascii":"San Juan del Cesar","lat":10.77107,"lon":-73.00314,"population":40069},{"id":3666582,"name":"Túquerres","ascii":"Tuquerres","lat":1.08647,"lon":-77.61858,"population":40038},{"id":3668175,"name":"Segovia","ascii":"Segovia","lat":7.07993,"lon":-74.6989,"population":39938},{"id":3685823,"name":"Corozal","ascii":"Corozal","lat":9.31847,"lon":-75.2933,"population":39800},{"id":3676604,"name":"Líbano","ascii":"Libano","lat":4.9218,"lon":-75.06232,"population":39459},{"id":3684615,"name":"El Cerrito","ascii":"El Cerrito","lat":3.68549,"lon":-76.31372,"population":38390},{"id":3689162,"name":"Barrancas","ascii":"Barrancas","lat":10.95672,"lon":-72.79456,"population":38232},{"id":3668451,"name":"Santa Rosa de Osos","ascii":"Santa Rosa de Osos","lat":6.64738,"lon":-75.46031,"population":37864},{"id":3672761,"name":"Patía","ascii":"Patia","lat":2.06895,"lon":-77.05273,"population":37781},{"id":3781636,"name":"Bosconia","ascii":"Bosconia","lat":4.85583,"lon":-73.98167,"population":37676},{"id":3672664,"name":"Payandé","ascii":"Payande","lat":4.2975,"lon":-75.09667,"population":37496},{"id":3669188,"name":"San Pablo","ascii":"San Pablo","lat":10.05154,"lon":-75.26775,"population":37160},{"id":3673398,"name":"Belalcázar","ascii":"Belalcazar","lat":2.64644,"lon":-75.97269,"population":36977},{"id":3679554,"name":"La Ceja","ascii":"La Ceja","lat":6.03131,"lon":-75.43333,"population":36584},{"id":3682047,"name":"Gigante","ascii":"Gigante","lat":2.38678,"lon":-75.54736,"population":36055},{"id":3671098,"name":"Quimbaya","ascii":"Quimbaya","lat":4.62306,"lon":-75.76278,"population":35350},{"id":3665973,"name":"Villamaría","ascii":"Villamaria","lat":5.04565,"lon":-75.51474,"population":35302},{"id":3670513,"name":"Sabanagrande","ascii":"Sabanagrande","lat":10.79115,"lon":-74.76059,"population":35044},{"id":3685335,"name":"Curumaní","ascii":"Curumani","lat":9.19992,"lon":-73.54274,"population":34838},{"id":3672653,"name":"Paz de Ariporo","ascii":"Paz de Ariporo","lat":5.88148,"lon":-71.89167,"population":34446},{"id":3670199,"name":"San Antero","ascii":"San Antero","lat":9.3741,"lon":-75.75891,"population":34196},{"id":3669454,"name":"San Juan Nepomuceno","ascii":"San Juan Nepomuceno","lat":9.95157,"lon":-75.08198,"population":34110},{"id":3671091,"name":"Quinchía","ascii":"Quinchia","lat":5.33957,"lon":-75.73018,"population":34069},{"id":3685871,"name":"Corinto","ascii":"Corinto","lat":3.17301,"lon":-76.26275,"population":33846},{"id":3671348,"name":"Puerto Rico","ascii":"Puerto Rico","lat":1.90999,"lon":-75.15931,"population":33765},{"id":3671615,"name":"Puebloviejo","ascii":"Puebloviejo","lat":10.99376,"lon":-74.28439,"population":33720},{"id":3667820,"name":"Sonsón","ascii":"Sonson","lat":5.71062,"lon":-75.31069,"population":33598},{"id":3667918,"name":"Sitionuevo","ascii":"Sitionuevo","lat":10.77737,"lon":-74.72049,"population":33440},{"id":3675252,"name":"San Sebastián de Mariquita","ascii":"San Sebastian de Mariquita","lat":5.19889,"lon":-74.89295,"population":33340},{"id":3689833,"name":"Anserma","ascii":"Anserma","lat":5.33278,"lon":-75.79111,"population":33146},{"id":3672093,"name":"Pivijay","ascii":"Pivijay","lat":10.46167,"lon":-74.61621,"population":33047},{"id":3669218,"name":"San Onofre","ascii":"San Onofre","lat":9.73586,"lon":-75.52626,"population":32957},{"id":3688071,"name":"Caicedonia","ascii":"Caicedonia","lat":4.3324,"lon":-75.82665,"population":32417},{"id":3682374,"name":"Fonseca","ascii":"Fonseca","lat":10.88606,"lon":-72.8487,"population":32220},{"id":3665951,"name":"Villanueva","ascii":"Villanueva","lat":5.28333,"lon":-71.96667,"population":31727},{"id":3671287,"name":"Puerto Wilches","ascii":"Puerto Wilches","lat":7.34828,"lon":-73.89601,"population":31698},{"id":3674597,"name":"Mompós","ascii":"Mompos","lat":9.24194,"lon":-74.42667,"population":30861},{"id":3667991,"name":"San Luis de Sincé","ascii":"San Luis de Since","lat":9.24391,"lon":-75.14675,"population":30768},{"id":3669087,"name":"San Pedro de Urabá","ascii":"San Pedro de Uraba","lat":8.27515,"lon":-76.37641,"population":30527},{"id":3681563,"name":"Guamo","ascii":"Guamo","lat":4.03078,"lon":-74.9701,"population":30516},{"id":3686585,"name":"Chimichagua","ascii":"Chimichagua","lat":9.25778,"lon":-73.81228,"population":30289},{"id":3667887,"name":"Socorro","ascii":"Socorro","lat":6.46838,"lon":-73.26022,"population":29997},{"id":3674676,"name":"Mitú","ascii":"Mitu","lat":1.25744,"lon":-70.23551,"population":29850},{"id":3671549,"name":"Puerto Asís","ascii":"Puerto Asis","lat":0.50514,"lon":-76.49571,"population":29782},{"id":3770718,"name":"Morales","ascii":"Morales","lat":2.75446,"lon":-76.62791,"population":29737},{"id":3671208,"name":"Purificación","ascii":"Purificacion","lat":3.85871,"lon":-74.93129,"population":29539},{"id":3682108,"name":"Garzón","ascii":"Garzon","lat":2.19593,"lon":-75.62777,"population":29451},{"id":3682458,"name":"Flandes","ascii":"Flandes","lat":4.29005,"lon":-74.81612,"population":29296},{"id":3667478,"name":"Tame","ascii":"Tame","lat":6.46065,"lon":-71.73618,"population":29099},{"id":3665559,"name":"Zarzal","ascii":"Zarzal","lat":4.39462,"lon":-76.0715,"population":28761},{"id":3668332,"name":"Santo Tomás","ascii":"Santo Tomas","lat":10.75773,"lon":-74.75451,"population":28693},{"id":3684579,"name":"El Charco","ascii":"El Charco","lat":2.48075,"lon":-78.10972,"population":28673},{"id":3684452,"name":"El Copey","ascii":"El Copey","lat":10.15031,"lon":-73.9614,"population":28550},{"id":3680840,"name":"Honda","ascii":"Honda","lat":5.20856,"lon":-74.73584,"population":28158},{"id":3670520,"name":"Sabana de Torres","ascii":"Sabana de Torres","lat":7.3915,"lon":-73.49574,"population":27845},{"id":3675826,"name":"Luruaco","ascii":"Luruaco","lat":10.61712,"lon":-75.15146,"population":27647},{"id":3670644,"name":"Roldanillo","ascii":"Roldanillo","lat":4.41256,"lon":-76.15457,"population":27561},{"id":3666939,"name":"Santiago de Tolú","ascii":"Santiago de Tolu","lat":9.52392,"lon":-75.58139,"population":27390},{"id":3671531,"name":"Puerto Boyacá","ascii":"Puerto Boyaca","lat":5.976,"lon":-74.58516,"population":27310},{"id":3686233,"name":"Circasia","ascii":"Circasia","lat":4.61889,"lon":-75.63583,"population":27135},{"id":3677010,"name":"La Tebaida","ascii":"La Tebaida","lat":4.45265,"lon":-75.78746,"population":27098},{"id":3673220,"name":"Palmar de Varela","ascii":"Palmar de Varela","lat":10.74055,"lon":-74.75443,"population":27098},{"id":3686479,"name":"Chiriguaná","ascii":"Chiriguana","lat":9.36238,"lon":-73.60313,"population":27006},{"id":3690250,"name":"Albania","ascii":"Albania","lat":11.16099,"lon":-72.59238,"population":26940},{"id":3678405,"name":"La Mesa","ascii":"La Mesa","lat":5.26667,"lon":-73.91667,"population":26699},{"id":3667697,"name":"Supía","ascii":"Supia","lat":5.45303,"lon":-75.65072,"population":26571},{"id":3689589,"name":"Ariguaní","ascii":"Ariguani","lat":10.25,"lon":-74,"population":26246},{"id":3667158,"name":"Tierralta","ascii":"Tierralta","lat":8.17361,"lon":-76.05917,"population":26242},{"id":3671497,"name":"Puerto Colombia","ascii":"Puerto Colombia","lat":10.98778,"lon":-74.95472,"population":26227},{"id":3675668,"name":"Mahates","ascii":"Mahates","lat":10.23293,"lon":-75.18985,"population":26075},{"id":3682682,"name":"El Zulia","ascii":"El Zulia","lat":7.93248,"lon":-72.60125,"population":26019},{"id":3674885,"name":"Melgar","ascii":"Melgar","lat":4.20475,"lon":-74.64075,"population":25980},{"id":3676720,"name":"La Virginia","ascii":"La Virginia","lat":4.89972,"lon":-75.8825,"population":25900},{"id":3689952,"name":"Anaime","ascii":"Anaime","lat":4.39639,"lon":-75.445,"population":25715},{"id":3670874,"name":"Repelón","ascii":"Repelon","lat":10.4952,"lon":-75.12448,"population":25467},{"id":3681596,"name":"Guamal","ascii":"Guamal","lat":9.14334,"lon":-74.22384,"population":25312},{"id":3792389,"name":"Isnos","ascii":"Isnos","lat":1.93556,"lon":-76.24056,"population":24593},{"id":3665566,"name":"Zaragoza","ascii":"Zaragoza","lat":7.48971,"lon":-74.86919,"population":24067},{"id":3673976,"name":"Nechí","ascii":"Nechi","lat":8.09419,"lon":-74.77573,"population":24066},{"id":3685435,"name":"Cumaribo","ascii":"Cumaribo","lat":4.44552,"lon":-69.79897,"population":23990},{"id":3687644,"name":"Candelaria","ascii":"Candelaria","lat":3.40671,"lon":-76.34819,"population":23989},{"id":3680434,"name":"Ituango","ascii":"Ituango","lat":7.17117,"lon":-75.76404,"population":23784},{"id":3669736,"name":"San Jacinto","ascii":"San Jacinto","lat":9.82767,"lon":-75.1217,"population":23576},{"id":3669997,"name":"San Carlos","ascii":"San Carlos","lat":8.79577,"lon":-75.69947,"population":23532},{"id":3671936,"name":"Ponedera","ascii":"Ponedera","lat":10.64297,"lon":-74.75393,"population":23420},{"id":3675287,"name":"María la Baja","ascii":"Maria la Baja","lat":9.9832,"lon":-75.30155,"population":23401},{"id":3792376,"name":"Ciudad Bolívar","ascii":"Ciudad Bolivar","lat":5.85389,"lon":-76.02528,"population":23361},{"id":3672197,"name":"Pinillos","ascii":"Pinillos","lat":8.91925,"lon":-74.46771,"population":23349},{"id":3689816,"name":"Santa Fe de Antioquia","ascii":"Santa Fe de Antioquia","lat":6.55687,"lon":-75.82806,"population":23216},{"id":3667728,"name":"Sucre","ascii":"Sucre","lat":8.81136,"lon":-74.72084,"population":23210},{"id":3668087,"name":"Sibaté","ascii":"Sibate","lat":4.49154,"lon":-74.25957,"population":23208},{"id":3670692,"name":"Rivera","ascii":"Rivera","lat":2.77717,"lon":-75.25642,"population":22877},{"id":3687758,"name":"Campo de la Cruz","ascii":"Campo de la Cruz","lat":10.37808,"lon":-74.88356,"population":22810},{"id":3685295,"name":"Dabeiba","ascii":"Dabeiba","lat":7.00017,"lon":-76.26915,"population":22717},{"id":3687806,"name":"Campoalegre","ascii":"Campoalegre","lat":2.68489,"lon":-75.32311,"population":22568},{"id":3674010,"name":"Natagaima","ascii":"Natagaima","lat":3.62057,"lon":-75.09415,"population":22455},{"id":3665741,"name":"Yarumal","ascii":"Yarumal","lat":6.96321,"lon":-75.41738,"population":22368},{"id":3669332,"name":"San Martín","ascii":"San Martin","lat":3.69637,"lon":-73.69957,"population":22281},{"id":3667355,"name":"Tauramena","ascii":"Tauramena","lat":5.01789,"lon":-72.74675,"population":21709},{"id":3667070,"name":"Timbiquí","ascii":"Timbiqui","lat":2.7717,"lon":-77.66536,"population":21618},{"id":3672077,"name":"Planadas","ascii":"Planadas","lat":3.19698,"lon":-75.64506,"population":21557},{"id":3688989,"name":"Belén de Umbría","ascii":"Belen de Umbria","lat":5.20087,"lon":-75.86865,"population":21450},{"id":3678674,"name":"La Jagua de Ibirico","ascii":"La Jagua de Ibirico","lat":9.56228,"lon":-73.33405,"population":21386},{"id":3670280,"name":"Sampués","ascii":"Sampues","lat":9.18361,"lon":-75.38167,"population":21204},{"id":3671519,"name":"Puerto Carreño","ascii":"Puerto Carreno","lat":6.19041,"lon":-67.48391,"population":20936},{"id":3674572,"name":"Moniquirá","ascii":"Moniquira","lat":5.87638,"lon":-73.57284,"population":20848},{"id":3676923,"name":"La Unión","ascii":"La Union","lat":5.97431,"lon":-75.36195,"population":20769},{"id":3690431,"name":"Aguadas","ascii":"Aguadas","lat":5.61161,"lon":-75.45624,"population":20712},{"id":3670849,"name":"Retiro","ascii":"Retiro","lat":6.05861,"lon":-75.50306,"population":20700},{"id":3665895,"name":"Villeta","ascii":"Villeta","lat":5.00886,"lon":-74.47226,"population":20689},{"id":3792375,"name":"Carepa","ascii":"Carepa","lat":7.75849,"lon":-76.65255,"population":20627},{"id":3668028,"name":"Silvania","ascii":"Silvania","lat":4.40367,"lon":-74.3867,"population":20581},{"id":3673902,"name":"Neira","ascii":"Neira","lat":5.1665,"lon":-75.52001,"population":20495},{"id":3666519,"name":"Villa de San Diego de Ubaté","ascii":"Villa de San Diego de Ubate","lat":5.30933,"lon":-73.81575,"population":20485},{"id":3689026,"name":"Becerril","ascii":"Becerril","lat":9.70413,"lon":-73.2793,"population":20477},{"id":3685733,"name":"Cota","ascii":"Cota","lat":4.80938,"lon":-74.098,"population":20462},{"id":3670587,"name":"Rovira","ascii":"Rovira","lat":4.23922,"lon":-75.23996,"population":20452},{"id":3792385,"name":"San Martín","ascii":"San Martin","lat":8.00181,"lon":-73.51143,"population":20452},{"id":3689206,"name":"Barbosa","ascii":"Barbosa","lat":5.93168,"lon":-73.61507,"population":20372},{"id":3682232,"name":"Galeras","ascii":"Galeras","lat":9.16095,"lon":-75.04811,"population":20239},{"id":3682313,"name":"Frontino","ascii":"Frontino","lat":6.77133,"lon":-76.13324,"population":20156},{"id":3671437,"name":"Puerto Leguízamo","ascii":"Puerto Leguizamo","lat":-0.19337,"lon":-74.78189,"population":20045},{"id":3666936,"name":"Tolú Viejo","ascii":"Tolu Viejo","lat":9.45082,"lon":-75.43864,"population":20033},{"id":3669461,"name":"San Juan de Urabá","ascii":"San Juan de Uraba","lat":8.75924,"lon":-76.52969,"population":19992},{"id":3686793,"name":"Chaparral","ascii":"Chaparral","lat":3.72315,"lon":-75.48316,"population":19982},{"id":3688266,"name":"Buesaco","ascii":"Buesaco","lat":1.38364,"lon":-77.15622,"population":19951},{"id":3675605,"name":"Málaga","ascii":"Malaga","lat":6.69903,"lon":-72.73233,"population":19884},{"id":3682238,"name":"Galapa","ascii":"Galapa","lat":10.89686,"lon":-74.886,"population":19732},{"id":3667773,"name":"Suárez","ascii":"Suarez","lat":2.95395,"lon":-76.69644,"population":19690},{"id":3681797,"name":"Guacarí","ascii":"Guacari","lat":3.76383,"lon":-76.33292,"population":19637},{"id":3671950,"name":"Polonuevo","ascii":"Polonuevo","lat":10.77697,"lon":-74.85344,"population":19454},{"id":3666232,"name":"Vélez","ascii":"Velez","lat":6.01335,"lon":-73.67352,"population":19376},{"id":3683233,"name":"El Retén","ascii":"El Reten","lat":10.61135,"lon":-74.26824,"population":19345},{"id":3673404,"name":"Padua","ascii":"Padua","lat":5.13429,"lon":-75.14001,"population":19311},{"id":3678097,"name":"La Plata","ascii":"La Plata","lat":2.39341,"lon":-75.89232,"population":19275},{"id":3675512,"name":"Manatí","ascii":"Manati","lat":10.44589,"lon":-74.95869,"population":19233},{"id":3670764,"name":"Rioblanco","ascii":"Rioblanco","lat":3.52973,"lon":-75.64525,"population":19090},{"id":3670719,"name":"Riosucio","ascii":"Riosucio","lat":5.42164,"lon":-75.70318,"population":18950},{"id":3689292,"name":"Balboa","ascii":"Balboa","lat":2.04183,"lon":-77.21646,"population":18910},{"id":3666395,"name":"Urrao","ascii":"Urrao","lat":6.31696,"lon":-76.1342,"population":18846},{"id":3680176,"name":"Juan de Acosta","ascii":"Juan de Acosta","lat":10.8293,"lon":-75.03346,"population":18828},{"id":3780602,"name":"Fredonia","ascii":"Fredonia","lat":5.92583,"lon":-75.67056,"population":18790},{"id":3770955,"name":"Villa Rica","ascii":"Villa Rica","lat":2.5142,"lon":-76.84939,"population":18761},{"id":3665934,"name":"Villanueva","ascii":"Villanueva","lat":10.60768,"lon":-72.97901,"population":18699},{"id":3674412,"name":"Morales","ascii":"Morales","lat":8.27621,"lon":-73.86803,"population":18678},{"id":3672086,"name":"Pizarro","ascii":"Pizarro","lat":4.95334,"lon":-77.36598,"population":18561},{"id":3669947,"name":"San Diego","ascii":"San Diego","lat":10.33384,"lon":-73.18048,"population":18531},{"id":3689458,"name":"Astrea","ascii":"Astrea","lat":9.49828,"lon":-73.97591,"population":18434},{"id":3668472,"name":"Santa Rosa","ascii":"Santa Rosa","lat":10.44472,"lon":-75.36972,"population":18375},{"id":3686445,"name":"Chivolo","ascii":"Chivolo","lat":10.02502,"lon":-74.62279,"population":18208},{"id":3670038,"name":"San Benito Abad","ascii":"San Benito Abad","lat":8.92901,"lon":-75.02709,"population":18181},{"id":3689905,"name":"Andalucía","ascii":"Andalucia","lat":4.17061,"lon":-76.16641,"population":18132},{"id":3670370,"name":"Salamina","ascii":"Salamina","lat":5.40733,"lon":-75.48749,"population":18076},{"id":3668302,"name":"San Vicente","ascii":"San Vicente","lat":6.28535,"lon":-75.33385,"population":18051},{"id":3792380,"name":"Tiquisio","ascii":"Tiquisio","lat":8.55666,"lon":-74.26355,"population":17939},{"id":3684276,"name":"El Doncello","ascii":"El Doncello","lat":1.67817,"lon":-75.28466,"population":17775},{"id":3668323,"name":"Santuario","ascii":"Santuario","lat":6.13833,"lon":-75.26417,"population":17722},{"id":3682330,"name":"Fresno","ascii":"Fresno","lat":5.15264,"lon":-75.03624,"population":17668},{"id":3684689,"name":"El Carmen de Chucurí","ascii":"El Carmen de Chucuri","lat":6.69736,"lon":-73.51117,"population":17638},{"id":3686272,"name":"Ciénaga de Oro","ascii":"Cienaga de Oro","lat":8.87443,"lon":-75.62028,"population":17623},{"id":3670855,"name":"Restrepo","ascii":"Restrepo","lat":4.25833,"lon":-73.56142,"population":17610},{"id":3690592,"name":"Abejorral","ascii":"Abejorral","lat":5.78928,"lon":-75.42725,"population":17599},{"id":3665691,"name":"Yondó","ascii":"Yondo","lat":7.00621,"lon":-73.90972,"population":17597},{"id":3673756,"name":"Nueva Granada","ascii":"Nueva Granada","lat":9.80168,"lon":-74.39304,"population":17470},{"id":3671308,"name":"Puerto Triunfo","ascii":"Puerto Triunfo","lat":5.87259,"lon":-74.6405,"population":17231},{"id":3676626,"name":"Lérida","ascii":"Lerida","lat":4.86242,"lon":-74.90977,"population":17197},{"id":3667579,"name":"Tadó","ascii":"Tado","lat":5.26598,"lon":-76.56487,"population":17000},{"id":3673379,"name":"Pailitas","ascii":"Pailitas","lat":8.95671,"lon":-73.62378,"population":16800},{"id":3673424,"name":"Pacho","ascii":"Pacho","lat":5.13278,"lon":-74.15977,"population":16698},{"id":3671418,"name":"Puerto López","ascii":"Puerto Lopez","lat":4.09912,"lon":-72.95647,"population":16678},{"id":3669440,"name":"San Lorenzo","ascii":"San Lorenzo","lat":1.50294,"lon":-77.21537,"population":16653},{"id":3675409,"name":"Manzanares","ascii":"Manzanares","lat":5.25397,"lon":-75.15403,"population":16532},{"id":3669929,"name":"San Estanislao","ascii":"San Estanislao","lat":10.39833,"lon":-75.15111,"population":16518},{"id":3671228,"name":"Pupiales","ascii":"Pupiales","lat":0.87136,"lon":-77.64027,"population":16431},{"id":3689899,"name":"Andes","ascii":"Andes","lat":5.6561,"lon":-75.87877,"population":16419},{"id":3671325,"name":"Puerto Santander","ascii":"Puerto Santander","lat":8.36361,"lon":-72.4063,"population":16275},{"id":3674603,"name":"Momil","ascii":"Momil","lat":9.23767,"lon":-75.67489,"population":16264},{"id":3685724,"name":"Cotorra","ascii":"Cotorra","lat":9.03886,"lon":-75.78969,"population":16215},{"id":3667386,"name":"Tarqui","ascii":"Tarqui","lat":2.11248,"lon":-75.82419,"population":16108},{"id":3686013,"name":"Concordia","ascii":"Concordia","lat":6.04639,"lon":-75.90705,"population":16095},{"id":3681733,"name":"Guadalupe","ascii":"Guadalupe","lat":2.0248,"lon":-75.75589,"population":15913},{"id":3670350,"name":"Salgar","ascii":"Salgar","lat":5.96502,"lon":-75.96541,"population":15782},{"id":3685273,"name":"Darien","ascii":"Darien","lat":3.93135,"lon":-76.48481,"population":15763},{"id":3668655,"name":"Santa Lucía","ascii":"Santa Lucia","lat":10.3242,"lon":-74.96017,"population":15760},{"id":3690316,"name":"Aguazul","ascii":"Aguazul","lat":5.17282,"lon":-72.54706,"population":15669},{"id":3687634,"name":"Candelaria","ascii":"Candelaria","lat":10.45912,"lon":-74.8797,"population":15631},{"id":3675212,"name":"Marsella","ascii":"Marsella","lat":4.93722,"lon":-75.73778,"population":15455},{"id":3666997,"name":"Tocancipá","ascii":"Tocancipa","lat":4.96531,"lon":-73.91301,"population":15355},{"id":3668012,"name":"Simití","ascii":"Simiti","lat":7.9579,"lon":-73.9436,"population":15353},{"id":3688840,"name":"Betulia","ascii":"Betulia","lat":6.11284,"lon":-75.98378,"population":15097},{"id":3676934,"name":"La Unión","ascii":"La Union","lat":1.6045,"lon":-77.13152,"population":15061},{"id":3671330,"name":"Puerto Salgar","ascii":"Puerto Salgar","lat":5.46304,"lon":-74.65436,"population":15019},{"id":3678907,"name":"La Gloria","ascii":"La Gloria","lat":8.61954,"lon":-73.80212,"population":14989},{"id":3779399,"name":"Canalete","ascii":"Canalete","lat":8.67611,"lon":-76.20417,"population":14831},{"id":3769932,"name":"Monterrey","ascii":"Monterrey","lat":4.87802,"lon":-72.89575,"population":14828},{"id":3674851,"name":"Mercaderes","ascii":"Mercaderes","lat":1.80175,"lon":-77.17032,"population":14824},{"id":3686158,"name":"Cocorná","ascii":"Cocorna","lat":6.0573,"lon":-75.18524,"population":14743},{"id":3671203,"name":"Purísima de la Concepción","ascii":"Purisima de la Concepcion","lat":9.23657,"lon":-75.72191,"population":14705},{"id":3686644,"name":"Chicoral","ascii":"Chicoral","lat":4.21536,"lon":-74.98189,"population":14686},{"id":3669998,"name":"San Carlos","ascii":"San Carlos","lat":7.79177,"lon":-74.77316,"population":14480},{"id":3671633,"name":"Pueblo Rico","ascii":"Pueblo Rico","lat":5.22263,"lon":-76.03026,"population":14429},{"id":3670756,"name":"Río de Oro","ascii":"Rio de Oro","lat":8.29223,"lon":-73.3849,"population":14408},{"id":3675987,"name":"Los Palmitos","ascii":"Los Palmitos","lat":9.37899,"lon":-75.26769,"population":14385},{"id":3681429,"name":"Guarne","ascii":"Guarne","lat":6.28046,"lon":-75.44354,"population":14270},{"id":3685126,"name":"Donmatías","ascii":"Donmatias","lat":6.48569,"lon":-75.39496,"population":14208},{"id":3668861,"name":"Santa Catalina","ascii":"Santa Catalina","lat":10.60361,"lon":-75.28824,"population":14039},{"id":3668937,"name":"Santa Ana","ascii":"Santa Ana","lat":9.32125,"lon":-74.56848,"population":13950},{"id":3681605,"name":"Guamal","ascii":"Guamal","lat":3.88043,"lon":-73.76566,"population":13857},{"id":3681505,"name":"Guapí","ascii":"Guapi","lat":2.57082,"lon":-77.88542,"population":13853},{"id":3686196,"name":"Clemencia","ascii":"Clemencia","lat":10.56645,"lon":-75.32499,"population":13821},{"id":3680453,"name":"Istmina","ascii":"Istmina","lat":5.16054,"lon":-76.68397,"population":13788},{"id":3666881,"name":"Toro","ascii":"Toro","lat":4.61167,"lon":-76.08139,"population":13764},{"id":3667003,"name":"Tocaima","ascii":"Tocaima","lat":4.4582,"lon":-74.63434,"population":13649},{"id":3687677,"name":"Cañasgordas","ascii":"Canasgordas","lat":6.74989,"lon":-76.02539,"population":13595},{"id":3667202,"name":"Tibú","ascii":"Tibu","lat":8.63895,"lon":-72.73583,"population":13565},{"id":3673269,"name":"Palestina","ascii":"Palestina","lat":5.0161,"lon":-75.62854,"population":13560},{"id":3673369,"name":"Paipa","ascii":"Paipa","lat":5.78013,"lon":-73.11708,"population":13554},{"id":3686605,"name":"Chimá","ascii":"Chima","lat":9.14893,"lon":-75.62841,"population":13492},{"id":3689450,"name":"Ataco","ascii":"Ataco","lat":3.59147,"lon":-75.38178,"population":13470},{"id":3674499,"name":"Montecristo","ascii":"Montecristo","lat":8.2971,"lon":-74.4733,"population":13470},{"id":3675452,"name":"Maní","ascii":"Mani","lat":4.81638,"lon":-72.27946,"population":13291},{"id":3673455,"name":"Ovejas","ascii":"Ovejas","lat":9.52716,"lon":-75.22873,"population":13284},{"id":3678186,"name":"La Paz","ascii":"La Paz","lat":10.38439,"lon":-73.17332,"population":13249},{"id":3673413,"name":"Pácora","ascii":"Pacora","lat":5.52708,"lon":-75.4593,"population":13214},{"id":3669718,"name":"San Jerónimo","ascii":"San Jeronimo","lat":6.44344,"lon":-75.72815,"population":13158},{"id":3792399,"name":"El Playón","ascii":"El Playon","lat":7.47131,"lon":-73.2031,"population":12966},{"id":3665935,"name":"Villanueva","ascii":"Villanueva","lat":10.44361,"lon":-75.27306,"population":12791},{"id":3668895,"name":"Santa Bárbara","ascii":"Santa Barbara","lat":5.87458,"lon":-75.56706,"population":12743},{"id":3674130,"name":"Mutatá","ascii":"Mutata","lat":7.24407,"lon":-76.43564,"population":12607},{"id":3665881,"name":"Viotá","ascii":"Viota","lat":4.43713,"lon":-74.52157,"population":12589},{"id":3671591,"name":"Puente Nacional","ascii":"Puente Nacional","lat":5.87739,"lon":-73.6781,"population":12586},{"id":3669056,"name":"San Rafael","ascii":"San Rafael","lat":6.29436,"lon":-75.02589,"population":12578},{"id":3682965,"name":"El Tambo","ascii":"El Tambo","lat":1.40785,"lon":-77.39218,"population":12457},{"id":3682182,"name":"Gamarra","ascii":"Gamarra","lat":8.32292,"lon":-73.74233,"population":12444},{"id":3665851,"name":"Viterbo","ascii":"Viterbo","lat":5.06242,"lon":-75.87159,"population":12432},{"id":3688254,"name":"Bugalagrande","ascii":"Bugalagrande","lat":4.21207,"lon":-76.15564,"population":12418},{"id":3668373,"name":"Santo Domingo","ascii":"Santo Domingo","lat":6.47282,"lon":-75.16547,"population":12394},{"id":3689831,"name":"Ansermanuevo","ascii":"Ansermanuevo","lat":4.79722,"lon":-75.995,"population":12332},{"id":3685292,"name":"Dagua","ascii":"Dagua","lat":3.65685,"lon":-76.68859,"population":12320},{"id":3672123,"name":"Pital","ascii":"Pital","lat":2.2665,"lon":-75.80442,"population":12246},{"id":3689841,"name":"Anolaima","ascii":"Anolaima","lat":4.76333,"lon":-74.46472,"population":12204},{"id":3666475,"name":"Unguía","ascii":"Unguia","lat":8.04364,"lon":-77.09137,"population":12192},{"id":3690019,"name":"Amagá","ascii":"Amaga","lat":6.04001,"lon":-75.70315,"population":12170},{"id":3675234,"name":"Marquetalia","ascii":"Marquetalia","lat":5.29659,"lon":-75.05496,"population":12146},{"id":3684860,"name":"El Bordo","ascii":"El Bordo","lat":2.11696,"lon":-76.98214,"population":12072},{"id":3684683,"name":"El Carmen","ascii":"El Carmen","lat":8.51116,"lon":-73.44761,"population":12001},{"id":3685200,"name":"Distracción","ascii":"Distraccion","lat":10.89784,"lon":-72.88666,"population":11934},{"id":3668324,"name":"Santuario","ascii":"Santuario","lat":5.07415,"lon":-75.96423,"population":11787},{"id":3666719,"name":"Trinidad","ascii":"Trinidad","lat":5.40849,"lon":-71.66196,"population":11734},{"id":9179918,"name":"Armero-Guyabal","ascii":"Armero-Guyabal","lat":4.96701,"lon":-74.90294,"population":11720},{"id":3685345,"name":"Curití","ascii":"Curiti","lat":6.60519,"lon":-73.06809,"population":11653},{"id":3669987,"name":"San Carlos de Guaroa","ascii":"San Carlos de Guaroa","lat":3.71161,"lon":-73.24344,"population":11512},{"id":3666333,"name":"Valdivia","ascii":"Valdivia","lat":7.29382,"lon":-75.3919,"population":11511},{"id":3669128,"name":"San Pedro","ascii":"San Pedro","lat":9.3956,"lon":-75.06476,"population":11489},{"id":3681008,"name":"Municipio Hato Corozal","ascii":"Municipio Hato Corozal","lat":6.15676,"lon":-71.76372,"population":11431},{"id":3792387,"name":"El Retorno","ascii":"El Retorno","lat":2.33022,"lon":-72.62765,"population":11340},{"id":3668447,"name":"Santa Rosa de Viterbo","ascii":"Santa Rosa de Viterbo","lat":5.87401,"lon":-72.98217,"population":11329},{"id":3666226,"name":"Venadillo","ascii":"Venadillo","lat":4.71929,"lon":-74.92918,"population":11310},{"id":3672599,"name":"Pelaya","ascii":"Pelaya","lat":8.68819,"lon":-73.66451,"population":11306},{"id":3668292,"name":"San Vicente de Chucurí","ascii":"San Vicente de Chucuri","lat":6.881,"lon":-73.40977,"population":11265},{"id":3685442,"name":"Cumaral","ascii":"Cumaral","lat":4.2708,"lon":-73.48669,"population":11263},{"id":3682262,"name":"Gachancipá","ascii":"Gachancipa","lat":4.99111,"lon":-73.87154,"population":11252},{"id":3680112,"name":"Junín","ascii":"Junin","lat":4.78333,"lon":-75.01667,"population":11158},{"id":3675637,"name":"Majagual","ascii":"Majagual","lat":8.54119,"lon":-74.62942,"population":11139},{"id":3673578,"name":"Oporapa","ascii":"Oporapa","lat":2.02378,"lon":-75.99588,"population":11111},{"id":3682160,"name":"Garagoa","ascii":"Garagoa","lat":5.08236,"lon":-73.36334,"population":11102},{"id":3672249,"name":"Pijiño del Carmen","ascii":"Pijino del Carmen","lat":9.32908,"lon":-74.45302,"population":11071},{"id":3676791,"name":"La Victoria","ascii":"La Victoria","lat":4.52483,"lon":-76.03921,"population":11064},{"id":3682245,"name":"Gaitania","ascii":"Gaitania","lat":3.15,"lon":-75.81667,"population":11000},{"id":3673676,"name":"Obando","ascii":"Obando","lat":4.57583,"lon":-75.97389,"population":10970},{"id":3667901,"name":"Soatá","ascii":"Soata","lat":6.33369,"lon":-72.68283,"population":10945},{"id":3665813,"name":"Yacopí","ascii":"Yacopi","lat":5.45948,"lon":-74.33823,"population":10887},{"id":3673974,"name":"Necoclí","ascii":"Necocli","lat":8.42627,"lon":-76.78926,"population":10835},{"id":3690584,"name":"Abrego","ascii":"Abrego","lat":8.08202,"lon":-73.22135,"population":10822},{"id":3680641,"name":"Icononzo","ascii":"Icononzo","lat":4.17698,"lon":-74.53254,"population":10801},{"id":3690160,"name":"Algeciras","ascii":"Algeciras","lat":2.52385,"lon":-75.31733,"population":10792},{"id":3670812,"name":"Ricaurte","ascii":"Ricaurte","lat":4.28075,"lon":-74.76469,"population":10788},{"id":3690429,"name":"Agua de Dios","ascii":"Agua de Dios","lat":4.37648,"lon":-74.66995,"population":10742},{"id":3666326,"name":"Valencia","ascii":"Valencia","lat":8.25801,"lon":-76.14928,"population":10652},{"id":3670242,"name":"San Alberto","ascii":"San Alberto","lat":7.76107,"lon":-73.3922,"population":10627},{"id":3665811,"name":"Yacuanquer","ascii":"Yacuanquer","lat":1.11577,"lon":-77.40169,"population":10579},{"id":3732964,"name":"Lejanías","ascii":"Lejanias","lat":3.52762,"lon":-74.02335,"population":10576},{"id":3673849,"name":"Nilo","ascii":"Nilo","lat":4.30604,"lon":-74.62083,"population":10555},{"id":3673275,"name":"Palestina","ascii":"Palestina","lat":1.72362,"lon":-76.13403,"population":10454},{"id":3669938,"name":"Sandoná","ascii":"Sandona","lat":1.28626,"lon":-77.46921,"population":10401},{"id":3667780,"name":"Suan","ascii":"Suan","lat":10.33347,"lon":-74.88016,"population":10381},{"id":3685058,"name":"Ebéjico","ascii":"Ebejico","lat":6.32598,"lon":-75.76835,"population":10338},{"id":3667868,"name":"Solano","ascii":"Solano","lat":0.69937,"lon":-75.25353,"population":10331},{"id":3687505,"name":"Caparrapí","ascii":"Caparrapi","lat":5.34644,"lon":-74.49147,"population":10301},{"id":3666193,"name":"Venecia","ascii":"Venecia","lat":5.96278,"lon":-75.73806,"population":10280},{"id":3667323,"name":"Tello","ascii":"Tello","lat":3.06694,"lon":-75.13778,"population":10273},{"id":3666575,"name":"Turbaná","ascii":"Turbana","lat":10.27169,"lon":-75.44222,"population":10235},{"id":3674293,"name":"Mosquera","ascii":"Mosquera","lat":2.50861,"lon":-78.4511,"population":10203},{"id":3671848,"name":"Potosí","ascii":"Potosi","lat":0.80739,"lon":-77.57216,"population":10186},{"id":3679660,"name":"La Calera","ascii":"La Calera","lat":4.72069,"lon":-73.96926,"population":10175},{"id":3674640,"name":"Mogotes","ascii":"Mogotes","lat":6.47559,"lon":-72.97046,"population":10165},{"id":3670383,"name":"Saladoblanco","ascii":"Saladoblanco","lat":1.99244,"lon":-76.04335,"population":10076},{"id":3690172,"name":"Algarrobo","ascii":"Algarrobo","lat":10.18694,"lon":-74.57528,"population":10042},{"id":3827723,"name":"Valle del Guamuez","ascii":"Valle del Guamuez","lat":0.4525,"lon":-76.91917,"population":9969},{"id":3689714,"name":"Arauquita","ascii":"Arauquita","lat":7.02917,"lon":-71.42806,"population":9950},{"id":3677457,"name":"La Sierra","ascii":"La Sierra","lat":2.17835,"lon":-76.76265,"population":9935},{"id":3686002,"name":"Condoto","ascii":"Condoto","lat":5.09351,"lon":-76.64973,"population":9897},{"id":3673286,"name":"Palermo","ascii":"Palermo","lat":2.89167,"lon":-75.4375,"population":9896},{"id":3686141,"name":"Coello","ascii":"Coello","lat":4.40306,"lon":-75.29417,"population":9887},{"id":3689740,"name":"Aranzazu","ascii":"Aranzazu","lat":5.27123,"lon":-75.49044,"population":9854},{"id":3673609,"name":"Olaya Herrera","ascii":"Olaya Herrera","lat":1.24803,"lon":-77.49085,"population":9820},{"id":3668228,"name":"Sasaima","ascii":"Sasaima","lat":4.96705,"lon":-74.43512,"population":9807},{"id":3763578,"name":"Mesetas","ascii":"Mesetas","lat":3.38463,"lon":-74.04424,"population":9751},{"id":3681168,"name":"Hacarí","ascii":"Hacari","lat":8.32097,"lon":-73.14576,"population":9745},{"id":3690010,"name":"Amalfi","ascii":"Amalfi","lat":6.91016,"lon":-75.07764,"population":9733},{"id":3675305,"name":"Margarita","ascii":"Margarita","lat":9.15596,"lon":-74.26618,"population":9720},{"id":3675504,"name":"Manaure","ascii":"Manaure","lat":11.77505,"lon":-72.44447,"population":9703},{"id":3689012,"name":"Belalcázar","ascii":"Belalcazar","lat":4.99528,"lon":-75.81278,"population":9690},{"id":3678000,"name":"La Primavera","ascii":"La Primavera","lat":5.49056,"lon":-70.40917,"population":9690},{"id":3686574,"name":"Chinácota","ascii":"Chinacota","lat":7.60731,"lon":-72.60108,"population":9667},{"id":3682481,"name":"Filadelfia","ascii":"Filadelfia","lat":5.29606,"lon":-75.5612,"population":9630},{"id":3792377,"name":"Vegachí","ascii":"Vegachi","lat":6.76141,"lon":-74.79473,"population":9618},{"id":3688656,"name":"Bolívar","ascii":"Bolivar","lat":5.9893,"lon":-73.77058,"population":9567},{"id":3665616,"name":"Zambrano","ascii":"Zambrano","lat":9.7474,"lon":-74.81572,"population":9565},{"id":3670856,"name":"Restrepo","ascii":"Restrepo","lat":3.82203,"lon":-76.52242,"population":9545},{"id":3685418,"name":"Cunday","ascii":"Cunday","lat":4.06004,"lon":-74.69212,"population":9544},{"id":3666370,"name":"Usiacurí","ascii":"Usiacuri","lat":10.74313,"lon":-74.97604,"population":9543},{"id":3733861,"name":"Curillo","ascii":"Curillo","lat":1.03327,"lon":-75.91907,"population":9539},{"id":3670260,"name":"San Agustín","ascii":"San Agustin","lat":1.87884,"lon":-76.26722,"population":9481},{"id":3668078,"name":"Sibundoy","ascii":"Sibundoy","lat":1.20296,"lon":-76.92275,"population":9458},{"id":3689325,"name":"Bahía Solano","ascii":"Bahia Solano","lat":6.22622,"lon":-77.40439,"population":9400},{"id":3670595,"name":"Rosas","ascii":"Rosas","lat":2.26093,"lon":-76.73986,"population":9336},{"id":3792384,"name":"Manaure Balcón del Cesar","ascii":"Manaure Balcon del Cesar","lat":10.39278,"lon":-73.0325,"population":9313},{"id":3688021,"name":"Cajamarca","ascii":"Cajamarca","lat":4.44234,"lon":-75.42874,"population":9309},{"id":3678328,"name":"Landázuri","ascii":"Landazuri","lat":6.21826,"lon":-73.81121,"population":9238},{"id":3670357,"name":"Saldaña","ascii":"Saldana","lat":3.92923,"lon":-75.01517,"population":9237},{"id":3670754,"name":"Riofrío","ascii":"Riofrio","lat":4.1571,"lon":-76.28852,"population":9236},{"id":3682510,"name":"Falan","ascii":"Falan","lat":5.12383,"lon":-74.95181,"population":9204},{"id":3681952,"name":"Granada","ascii":"Granada","lat":6.14353,"lon":-75.18532,"population":9204},{"id":3687972,"name":"Calamar","ascii":"Calamar","lat":10.25271,"lon":-74.91574,"population":9180},{"id":3690237,"name":"Alcalá","ascii":"Alcala","lat":4.67472,"lon":-75.7825,"population":9135},{"id":3673126,"name":"Palocabildo","ascii":"Palocabildo","lat":5.11705,"lon":-75.01732,"population":9120},{"id":3669480,"name":"San Juan de Betulia","ascii":"San Juan de Betulia","lat":9.27345,"lon":-75.24103,"population":9092},{"id":3671655,"name":"Pueblo Nuevo","ascii":"Pueblo Nuevo","lat":8.2411,"lon":-74.95815,"population":9075},{"id":3680531,"name":"Íquira","ascii":"Iquira","lat":2.64867,"lon":-75.63457,"population":9064},{"id":3676540,"name":"Linares","ascii":"Linares","lat":1.35078,"lon":-77.52339,"population":8974},{"id":3670018,"name":"San Bernardo del Viento","ascii":"San Bernardo del Viento","lat":9.3533,"lon":-75.95244,"population":8967},{"id":3676674,"name":"Lebrija","ascii":"Lebrija","lat":7.11317,"lon":-73.2178,"population":8949},{"id":3792379,"name":"Santa Rosa del Sur","ascii":"Santa Rosa del Sur","lat":7.96444,"lon":-74.05444,"population":8904},{"id":3682633,"name":"Entrerríos","ascii":"Entrerrios","lat":6.5654,"lon":-75.5169,"population":8820},{"id":3669138,"name":"San Pedro","ascii":"San Pedro","lat":6.46135,"lon":-75.55778,"population":8801},{"id":3690030,"name":"Alvarado","ascii":"Alvarado","lat":4.56826,"lon":-74.9523,"population":8796},{"id":3679379,"name":"La Cruz","ascii":"La Cruz","lat":1.60221,"lon":-76.9713,"population":8751},{"id":3667791,"name":"Sotomayor","ascii":"Sotomayor","lat":1.49474,"lon":-77.52136,"population":8703},{"id":3666381,"name":"Urumita","ascii":"Urumita","lat":10.56095,"lon":-73.0134,"population":8509},{"id":3670107,"name":"San Antonio","ascii":"San Antonio","lat":9.93303,"lon":-74.69346,"population":8476},{"id":3690549,"name":"Achí","ascii":"Achi","lat":8.5695,"lon":-74.55715,"population":8434},{"id":3667807,"name":"Sopó","ascii":"Sopo","lat":4.9075,"lon":-73.9384,"population":8396},{"id":3689693,"name":"Arboletes","ascii":"Arboletes","lat":8.85051,"lon":-76.42694,"population":8380},{"id":3665678,"name":"Yotoco","ascii":"Yotoco","lat":3.86048,"lon":-76.38364,"population":8362},{"id":3667023,"name":"Titiribí","ascii":"Titiribi","lat":6.06276,"lon":-75.7937,"population":8316},{"id":3670884,"name":"Remolino","ascii":"Remolino","lat":10.70199,"lon":-74.71602,"population":8308},{"id":3674735,"name":"Miraflores","ascii":"Miraflores","lat":5.19608,"lon":-73.14504,"population":8274},{"id":3681997,"name":"Gómez Plata","ascii":"Gomez Plata","lat":6.68178,"lon":-75.21907,"population":8235},{"id":3686227,"name":"Cisneros","ascii":"Cisneros","lat":6.53833,"lon":-75.08861,"population":8204},{"id":3667082,"name":"Timaná","ascii":"Timana","lat":1.97136,"lon":-75.93123,"population":8203},{"id":3676661,"name":"Leiva","ascii":"Leiva","lat":1.93497,"lon":-77.30634,"population":8201},{"id":3666673,"name":"Tubará","ascii":"Tubara","lat":10.87562,"lon":-74.97873,"population":8180},{"id":3672521,"name":"Pensilvania","ascii":"Pensilvania","lat":5.38346,"lon":-75.16122,"population":8173},{"id":3671961,"name":"Policarpa","ascii":"Policarpa","lat":1.62843,"lon":-77.45956,"population":8149},{"id":3670709,"name":"Río Viejo","ascii":"Rio Viejo","lat":8.58863,"lon":-73.83972,"population":8125},{"id":3792395,"name":"Puerto Concordia","ascii":"Puerto Concordia","lat":2.62206,"lon":-72.75724,"population":8086},{"id":3667811,"name":"Soplaviento","ascii":"Soplaviento","lat":10.39306,"lon":-75.14083,"population":8067},{"id":3674121,"name":"Muzo","ascii":"Muzo","lat":5.53528,"lon":-74.10778,"population":7977},{"id":3690287,"name":"Aipe","ascii":"Aipe","lat":3.22222,"lon":-75.23667,"population":7964},{"id":3687476,"name":"Cáqueza","ascii":"Caqueza","lat":4.40569,"lon":-73.94683,"population":7958},{"id":3684266,"name":"El Dovio","ascii":"El Dovio","lat":4.5079,"lon":-76.23619,"population":7942},{"id":3676591,"name":"Liborina","ascii":"Liborina","lat":6.6779,"lon":-75.81218,"population":7928},{"id":3680880,"name":"Herveo","ascii":"Herveo","lat":5.08004,"lon":-75.17556,"population":7893},{"id":3668245,"name":"Sardinata","ascii":"Sardinata","lat":8.08289,"lon":-72.80071,"population":7872},{"id":3680317,"name":"Jericó","ascii":"Jerico","lat":5.79211,"lon":-75.78601,"population":7750},{"id":3680366,"name":"Jardín","ascii":"Jardin","lat":5.59902,"lon":-75.81976,"population":7747},{"id":3670000,"name":"San Carlos","ascii":"San Carlos","lat":6.18789,"lon":-74.99315,"population":7742},{"id":3686288,"name":"Cicuco","ascii":"Cicuco","lat":9.27756,"lon":-74.64312,"population":7662},{"id":3689228,"name":"Barbacoas","ascii":"Barbacoas","lat":1.67154,"lon":-78.13978,"population":7633},{"id":3683528,"name":"El Paujíl","ascii":"El Paujil","lat":1.57006,"lon":-75.32863,"population":7618},{"id":3671765,"name":"Prado","ascii":"Prado","lat":3.75118,"lon":-74.93004,"population":7607},{"id":3686422,"name":"Chocontá","ascii":"Choconta","lat":5.14468,"lon":-73.68578,"population":7592},{"id":3792382,"name":"Cartagena del Chairá","ascii":"Cartagena del Chaira","lat":1.33488,"lon":-74.84289,"population":7586},{"id":3685432,"name":"Cumbal","ascii":"Cumbal","lat":0.90875,"lon":-77.79145,"population":7529},{"id":3666409,"name":"Uribia","ascii":"Uribia","lat":11.71505,"lon":-72.26592,"population":7519},{"id":3674784,"name":"Milán","ascii":"Milan","lat":1.29034,"lon":-75.50757,"population":7507},{"id":3683463,"name":"El Piñón","ascii":"El Pinon","lat":10.40283,"lon":-74.82415,"population":7481},{"id":3668025,"name":"Silvia","ascii":"Silvia","lat":2.61557,"lon":-76.38261,"population":7474},{"id":3672087,"name":"Salahonda","ascii":"Salahonda","lat":2.0406,"lon":-78.65877,"population":7430},{"id":3685027,"name":"El Águila","ascii":"El Aguila","lat":4.91345,"lon":-76.04004,"population":7393},{"id":3671450,"name":"Inírida","nameKo":"인리다","ascii":"Inirida","lat":3.86528,"lon":-67.92389,"population":7298},{"id":3674931,"name":"Medina","ascii":"Medina","lat":4.51005,"lon":-73.34982,"population":7281},{"id":3683497,"name":"El Peñón","ascii":"El Penon","lat":8.98885,"lon":-73.94898,"population":7234},{"id":3669293,"name":"La Dorada","ascii":"La Dorada","lat":0.34314,"lon":-76.91124,"population":7185},{"id":3670718,"name":"Riosucio","ascii":"Riosucio","lat":7.44348,"lon":-77.11964,"population":7163},{"id":3672512,"name":"Peque","ascii":"Peque","lat":7.02123,"lon":-75.90926,"population":7155},{"id":3682068,"name":"Génova","ascii":"Genova","lat":4.31667,"lon":-75.76667,"population":7140},{"id":3679536,"name":"La Chamba","ascii":"La Chamba","lat":4.02649,"lon":-74.86844,"population":7075},{"id":3681356,"name":"Guateque","ascii":"Guateque","lat":5.00619,"lon":-73.47274,"population":7069},{"id":3686894,"name":"Cerro de San Antonio","ascii":"Cerro de San Antonio","lat":10.32585,"lon":-74.86933,"population":7057},{"id":3686120,"name":"Colombia","ascii":"Colombia","lat":3.37606,"lon":-74.8015,"population":7040},{"id":3665992,"name":"Villagarzón","ascii":"Villagarzon","lat":1.0375,"lon":-76.62667,"population":7015},{"id":3673475,"name":"Otanche","ascii":"Otanche","lat":5.65672,"lon":-74.18249,"population":6997},{"id":3689793,"name":"Apía","ascii":"Apia","lat":5.10658,"lon":-75.94244,"population":6940},{"id":3687541,"name":"Cantagallo","ascii":"Cantagallo","lat":7.37926,"lon":-73.9155,"population":6874},{"id":3673511,"name":"Ortega","ascii":"Ortega","lat":3.9361,"lon":-75.22169,"population":6871},{"id":3682473,"name":"Filandia","ascii":"Filandia","lat":4.67472,"lon":-75.65833,"population":6851},{"id":3668400,"name":"Santiago","ascii":"Santiago","lat":1.14844,"lon":-77.0045,"population":6836},{"id":3689979,"name":"Ambalema","ascii":"Ambalema","lat":4.78405,"lon":-74.76268,"population":6683},{"id":3687213,"name":"Casabianca","ascii":"Casabianca","lat":5.07959,"lon":-75.12059,"population":6639},{"id":3686011,"name":"Concordia","ascii":"Concordia","lat":9.83545,"lon":-74.45548,"population":6624},{"id":3685893,"name":"Córdoba","ascii":"Cordoba","lat":9.58612,"lon":-74.82705,"population":6597},{"id":3669214,"name":"San Pablo","ascii":"San Pablo","lat":1.6725,"lon":-77.01389,"population":6522},{"id":3668286,"name":"San Zenón","ascii":"San Zenon","lat":9.24217,"lon":-74.50037,"population":6520},{"id":3683149,"name":"El Rosario","ascii":"El Rosario","lat":1.74404,"lon":-77.33481,"population":6498},{"id":3687880,"name":"Caloto","ascii":"Caloto","lat":3.03586,"lon":-76.40788,"population":6478},{"id":3670899,"name":"Remedios","ascii":"Remedios","lat":7.02835,"lon":-74.69379,"population":6415},{"id":3667473,"name":"Támesis","ascii":"Tamesis","lat":5.66462,"lon":-75.71339,"population":6406},{"id":3828283,"name":"Santa Isabel","ascii":"Santa Isabel","lat":3.34944,"lon":-74.98056,"population":6382},{"id":3683538,"name":"El Paso","ascii":"El Paso","lat":9.65724,"lon":-73.74685,"population":6367},{"id":3682963,"name":"El Tambo","ascii":"El Tambo","lat":2.45199,"lon":-76.81029,"population":6355},{"id":3672698,"name":"Pauna","ascii":"Pauna","lat":5.65861,"lon":-73.9825,"population":6355},{"id":3670629,"name":"Roncesvalles","ascii":"Roncesvalles","lat":4.0108,"lon":-75.60493,"population":6340},{"id":3681644,"name":"Guaitarilla","ascii":"Guaitarilla","lat":1.13103,"lon":-77.54815,"population":6280},{"id":3674678,"name":"Mistrató","ascii":"Mistrato","lat":5.29622,"lon":-75.8839,"population":6263},{"id":3667547,"name":"Talaigua Viejo","ascii":"Talaigua Viejo","lat":9.31206,"lon":-74.58544,"population":6217},{"id":3670368,"name":"Salamina","ascii":"Salamina","lat":10.49027,"lon":-74.79463,"population":6166},{"id":3682039,"name":"Ginebra","ascii":"Ginebra","lat":3.72461,"lon":-76.26675,"population":6088},{"id":3690226,"name":"Aldana","ascii":"Aldana","lat":0.88283,"lon":-77.70103,"population":6085},{"id":3666291,"name":"Valparaíso","ascii":"Valparaiso","lat":1.19403,"lon":-75.70746,"population":6082},{"id":3665587,"name":"Zapatoca","ascii":"Zapatoca","lat":6.81532,"lon":-73.26768,"population":6052},{"id":3792394,"name":"Mapiripán","ascii":"Mapiripan","lat":2.89115,"lon":-72.13328,"population":6036},{"id":3665693,"name":"Yolombó","ascii":"Yolombo","lat":6.59841,"lon":-75.0114,"population":6033},{"id":3673811,"name":"Norcasia","ascii":"Norcasia","lat":5.57535,"lon":-74.88831,"population":5976},{"id":3689157,"name":"Barranco de Loba","ascii":"Barranco de Loba","lat":8.94597,"lon":-74.10647,"population":5933},{"id":3769976,"name":"Puerto Gaitán","ascii":"Puerto Gaitan","lat":4.31328,"lon":-72.08157,"population":5928},{"id":3666959,"name":"Toledo","ascii":"Toledo","lat":7.30984,"lon":-72.48295,"population":5911},{"id":3666680,"name":"Trujillo","ascii":"Trujillo","lat":4.21217,"lon":-76.31945,"population":5874},{"id":3665924,"name":"Villapinzón","ascii":"Villapinzon","lat":5.21617,"lon":-73.5949,"population":5874},{"id":3689915,"name":"Ancuya","ascii":"Ancuya","lat":1.2633,"lon":-77.51376,"population":5852},{"id":3792396,"name":"La Tola","ascii":"La Tola","lat":2.39949,"lon":-78.18923,"population":5847},{"id":3669173,"name":"San Pablo de Borbur","ascii":"San Pablo de Borbur","lat":5.65138,"lon":-74.06991,"population":5839},{"id":3665803,"name":"Yaguará","ascii":"Yaguara","lat":2.66355,"lon":-75.51753,"population":5724},{"id":3689771,"name":"Aquitania","ascii":"Aquitania","lat":5.51858,"lon":-72.88387,"population":5718},{"id":3676864,"name":"La Vega","ascii":"La Vega","lat":5.00177,"lon":-74.34174,"population":5706},{"id":3672255,"name":"Pijao","ascii":"Pijao","lat":4.3335,"lon":-75.70463,"population":5668},{"id":3672290,"name":"Piedras","ascii":"Piedras","lat":4.54261,"lon":-74.87823,"population":5662},{"id":3687324,"name":"Carmen de Apicalá","ascii":"Carmen de Apicala","lat":4.14725,"lon":-74.72014,"population":5640},{"id":3669084,"name":"San Pelayo","ascii":"San Pelayo","lat":8.95833,"lon":-75.83627,"population":5637},{"id":3681990,"name":"González","ascii":"Gonzalez","lat":8.39016,"lon":-73.38048,"population":5634},{"id":3666042,"name":"Vigía del Fuerte","ascii":"Vigia del Fuerte","lat":6.58933,"lon":-76.89599,"population":5624},{"id":3669011,"name":"San Roque","ascii":"San Roque","lat":6.48511,"lon":-75.0196,"population":5576},{"id":3683155,"name":"El Rosal","ascii":"El Rosal","lat":4.85314,"lon":-74.25996,"population":5552},{"id":3669156,"name":"San Pedro","ascii":"San Pedro","lat":3.99445,"lon":-76.22885,"population":5473},{"id":3673887,"name":"Nemocón","ascii":"Nemocon","lat":5.06767,"lon":-73.87769,"population":5466},{"id":3670700,"name":"Risaralda","ascii":"Risaralda","lat":5.16647,"lon":-75.76595,"population":5421},{"id":3689003,"name":"Belén","ascii":"Belen","lat":5.98892,"lon":-72.91254,"population":5411},{"id":3682380,"name":"Fómeque","ascii":"Fomeque","lat":4.48797,"lon":-73.89749,"population":5389},{"id":3681368,"name":"Guatapé","ascii":"Guatape","lat":6.23429,"lon":-75.16335,"population":5389},{"id":3674569,"name":"Moñitos","ascii":"Monitos","lat":8.25,"lon":-76.05,"population":5385},{"id":3672012,"name":"Playarrica","ascii":"Playarrica","lat":4.05694,"lon":-75.41028,"population":5381},{"id":3689653,"name":"Arenal","ascii":"Arenal","lat":8.4589,"lon":-73.94162,"population":5346},{"id":3673142,"name":"Palmito","ascii":"Palmito","lat":9.33189,"lon":-75.5417,"population":5345},{"id":3678118,"name":"La Pintada","ascii":"La Pintada","lat":5.74867,"lon":-75.60626,"population":5342},{"id":3689551,"name":"Guayabal","ascii":"Guayabal","lat":5.03103,"lon":-74.88683,"population":5339},{"id":3670910,"name":"Regidor","ascii":"Regidor","lat":8.66633,"lon":-73.82221,"population":5335},{"id":3671630,"name":"Pueblorrico","ascii":"Pueblorrico","lat":5.79176,"lon":-75.84101,"population":5327},{"id":3683778,"name":"El Molino","ascii":"El Molino","lat":10.65296,"lon":-72.92461,"population":5265},{"id":3689709,"name":"Arbeláez","ascii":"Arbelaez","lat":4.27254,"lon":-74.41513,"population":5252},{"id":3792378,"name":"Altos del Rosario","ascii":"Altos del Rosario","lat":8.79162,"lon":-74.16556,"population":5220},{"id":3670162,"name":"San Antonio","ascii":"San Antonio","lat":3.91423,"lon":-75.48009,"population":5185},{"id":3672428,"name":"Pesca","ascii":"Pesca","lat":5.55,"lon":-73.05,"population":5113},{"id":3666003,"name":"Villa de Leyva","ascii":"Villa de Leyva","lat":5.63413,"lon":-73.52438,"population":5103},{"id":3685428,"name":"Cumbitara","ascii":"Cumbitara","lat":1.64786,"lon":-77.57819,"population":5096},{"id":3671424,"name":"Puerto Lleras","ascii":"Puerto Lleras","lat":3.02225,"lon":-73.4044,"population":5076},{"id":3688397,"name":"Buenavista","ascii":"Buenavista","lat":9.04963,"lon":-76.0028,"population":5062},{"id":3671002,"name":"Ramiriquí","ascii":"Ramiriqui","lat":5.4002,"lon":-73.33544,"population":5039},{"id":3671346,"name":"Puerto Yuca","ascii":"Puerto Yuca","lat":2.93833,"lon":-73.20833,"population":5029},{"id":3674740,"name":"Miraflores","ascii":"Miraflores","lat":1.33667,"lon":-71.95111,"population":5007},{"id":3688128,"name":"Cáceres","ascii":"Caceres","lat":7.58078,"lon":-75.34842,"population":4987},{"id":3667528,"name":"Tamalameque","ascii":"Tamalameque","lat":8.85221,"lon":-73.81229,"population":4972},{"id":3689941,"name":"Anapoima","ascii":"Anapoima","lat":4.55099,"lon":-74.53517,"population":4953},{"id":3674337,"name":"Morroa","ascii":"Morroa","lat":9.33348,"lon":-75.30542,"population":4949},{"id":3679542,"name":"La Celia","ascii":"La Celia","lat":5.00332,"lon":-76.00355,"population":4940},{"id":3686867,"name":"Chachagüí","ascii":"Chachaguei","lat":1.35943,"lon":-77.28367,"population":4899},{"id":3667717,"name":"Suesca","ascii":"Suesca","lat":5.10289,"lon":-73.79845,"population":4877},{"id":3680491,"name":"Iscuandé","ascii":"Iscuande","lat":2.45065,"lon":-77.97998,"population":4875},{"id":3690572,"name":"Acandí","ascii":"Acandi","lat":8.51158,"lon":-77.27719,"population":4840},{"id":3668123,"name":"Prado-Sevilla","ascii":"Prado-Sevilla","lat":10.76343,"lon":-74.13916,"population":4830},{"id":3679852,"name":"La Argentina","ascii":"La Argentina","lat":2.19762,"lon":-75.9799,"population":4800},{"id":3685702,"name":"Cravo Norte","ascii":"Cravo Norte","lat":6.30173,"lon":-70.20415,"population":4787},{"id":3668017,"name":"Simijaca","ascii":"Simijaca","lat":5.50291,"lon":-73.85227,"population":4767},{"id":3685649,"name":"Cruces de Anorí","ascii":"Cruces de Anori","lat":7.18333,"lon":-75.06667,"population":4762},{"id":3686134,"name":"Cogua","ascii":"Cogua","lat":5.06051,"lon":-73.97925,"population":4755},{"id":3669956,"name":"San Cristóbal","ascii":"San Cristobal","lat":9.87809,"lon":-75.25248,"population":4737},{"id":3684115,"name":"El Guamo","ascii":"El Guamo","lat":10.03155,"lon":-74.97612,"population":4732},{"id":3666075,"name":"Victoria","ascii":"Victoria","lat":5.31648,"lon":-74.91101,"population":4723},{"id":3682361,"name":"Fortul","ascii":"Fortul","lat":6.79261,"lon":-71.77596,"population":4607},{"id":3689336,"name":"Bagadó","ascii":"Bagado","lat":5.41164,"lon":-76.4152,"population":4561},{"id":3690520,"name":"Agrado","ascii":"Agrado","lat":2.25725,"lon":-75.77142,"population":4530},{"id":3673407,"name":"Padilla","ascii":"Padilla","lat":3.22038,"lon":-76.31385,"population":4472},{"id":3690552,"name":"Acevedo","ascii":"Acevedo","lat":1.80464,"lon":-75.89036,"population":4451},{"id":3680854,"name":"Hobo","ascii":"Hobo","lat":2.58333,"lon":-75.45,"population":4444},{"id":3676912,"name":"La Unión","ascii":"La Union","lat":8.84965,"lon":-75.27942,"population":4427},{"id":3689232,"name":"Baraya","ascii":"Baraya","lat":3.15333,"lon":-75.05306,"population":4402},{"id":3685223,"name":"Dibulla","ascii":"Dibulla","lat":11.27251,"lon":-73.30911,"population":4402},{"id":3688673,"name":"Bojacá","ascii":"Bojaca","lat":4.73176,"lon":-74.34129,"population":4399},{"id":3681353,"name":"Guática","ascii":"Guatica","lat":5.31569,"lon":-75.79826,"population":4368},{"id":3669881,"name":"San Francisco","ascii":"San Francisco","lat":1.17644,"lon":-76.87838,"population":4350},{"id":3688396,"name":"Buenavista","ascii":"Buenavista","lat":9.21433,"lon":-74.31363,"population":4339},{"id":3665860,"name":"Vistahermosa","ascii":"Vistahermosa","lat":3.12428,"lon":-73.75156,"population":4282},{"id":3686441,"name":"Choachí","ascii":"Choachi","lat":4.52897,"lon":-73.92273,"population":4281},{"id":3689615,"name":"Argelia","ascii":"Argelia","lat":2.25563,"lon":-77.24876,"population":4262},{"id":3688112,"name":"Cachipay","ascii":"Cachipay","lat":5.26667,"lon":-74.56667,"population":4260},{"id":3681767,"name":"Guachetá","ascii":"Guacheta","lat":5.38425,"lon":-73.68617,"population":4245},{"id":3669399,"name":"San Luis","ascii":"San Luis","lat":4.13258,"lon":-75.09499,"population":4184},{"id":3667629,"name":"Tabio","ascii":"Tabio","lat":4.91726,"lon":-74.09364,"population":4180},{"id":3688659,"name":"Bolívar","ascii":"Bolivar","lat":4.3387,"lon":-76.18342,"population":4165},{"id":3690262,"name":"Albania","ascii":"Albania","lat":1.32866,"lon":-75.87824,"population":4160},{"id":3665986,"name":"Villahermosa","ascii":"Villahermosa","lat":5.03067,"lon":-75.11607,"population":4155},{"id":3689187,"name":"Barichara","ascii":"Barichara","lat":6.63572,"lon":-73.22282,"population":4149},{"id":3670352,"name":"Salento","ascii":"Salento","lat":4.6375,"lon":-75.57028,"population":4135},{"id":3671901,"name":"Pore","ascii":"Pore","lat":5.72792,"lon":-71.99266,"population":4133},{"id":3792398,"name":"Puerto Guzmán","ascii":"Puerto Guzman","lat":0.97028,"lon":-76.58583,"population":4094},{"id":3781883,"name":"Gachetá","ascii":"Gacheta","lat":4.81854,"lon":-73.63659,"population":4088},{"id":3667760,"name":"Subachoque","ascii":"Subachoque","lat":4.92614,"lon":-74.17299,"population":4088},{"id":3671020,"name":"Apulo","ascii":"Apulo","lat":4.51952,"lon":-74.59293,"population":4084},{"id":3666025,"name":"Vijes","ascii":"Vijes","lat":3.69934,"lon":-76.4423,"population":4070},{"id":3685900,"name":"Córdoba","ascii":"Cordoba","lat":4.39158,"lon":-75.68723,"population":4063},{"id":3681756,"name":"Guachucal","ascii":"Guachucal","lat":0.96093,"lon":-77.73161,"population":4014},{"id":3667244,"name":"Tesalia","ascii":"Tesalia","lat":2.48587,"lon":-75.72921,"population":3981},{"id":3673637,"name":"Oiba","ascii":"Oiba","lat":6.26387,"lon":-73.29876,"population":3959},{"id":3667007,"name":"Toca","ascii":"Toca","lat":5.56393,"lon":-73.18398,"population":3946},{"id":3688991,"name":"Belén de los Andaquíes","ascii":"Belen de los Andaquies","lat":1.41828,"lon":-75.87753,"population":3937},{"id":3667247,"name":"Teruel","ascii":"Teruel","lat":2.74193,"lon":-75.56738,"population":3921},{"id":3666887,"name":"Toribío","ascii":"Toribio","lat":2.95481,"lon":-76.26839,"population":3911},{"id":3665792,"name":"Yalí","ascii":"Yali","lat":6.67457,"lon":-74.8343,"population":3908},{"id":3685708,"name":"Coyaima","ascii":"Coyaima","lat":3.79936,"lon":-75.19467,"population":3893},{"id":3686460,"name":"Chitagá","ascii":"Chitaga","lat":7.13781,"lon":-72.66456,"population":3871},{"id":3667290,"name":"Tenjo","ascii":"Tenjo","lat":4.8727,"lon":-74.14435,"population":3858},{"id":3678415,"name":"La Merced","ascii":"La Merced","lat":5.40194,"lon":-75.88472,"population":3851},{"id":3671576,"name":"Puerres","ascii":"Puerres","lat":1.19374,"lon":-77.26661,"population":3812},{"id":3688855,"name":"Betania","ascii":"Betania","lat":5.74601,"lon":-75.97765,"population":3800},{"id":3687490,"name":"Capitanejo","ascii":"Capitanejo","lat":6.52881,"lon":-72.69595,"population":3791},{"id":3685903,"name":"Córdoba","ascii":"Cordoba","lat":0.85362,"lon":-77.51817,"population":3784},{"id":3688775,"name":"Boavita","ascii":"Boavita","lat":6.33031,"lon":-72.58505,"population":3749},{"id":3686065,"name":"Colosó","ascii":"Coloso","lat":9.49477,"lon":-75.35271,"population":3749},{"id":3687975,"name":"Calamar","ascii":"Calamar","lat":1.9596,"lon":-72.65315,"population":3745},{"id":3671337,"name":"Puerto Rondón","ascii":"Puerto Rondon","lat":6.28048,"lon":-71.1,"population":3724},{"id":3665949,"name":"Villanueva","ascii":"Villanueva","lat":6.67169,"lon":-73.17421,"population":3707},{"id":3676417,"name":"López","ascii":"Lopez","lat":2.43333,"lon":-76.8,"population":3699},{"id":3670303,"name":"Samacá","ascii":"Samaca","lat":5.49273,"lon":-73.48537,"population":3689},{"id":3672633,"name":"Pedraza","ascii":"Pedraza","lat":10.18739,"lon":-74.91504,"population":3677},{"id":3689870,"name":"Angostura","ascii":"Angostura","lat":6.88508,"lon":-75.33467,"population":3639},{"id":3681029,"name":"Hatillo de Loba","ascii":"Hatillo de Loba","lat":8.95635,"lon":-74.07819,"population":3639},{"id":3666287,"name":"Valparaíso","ascii":"Valparaiso","lat":5.615,"lon":-75.62422,"population":3626},{"id":3689507,"name":"Arroyohondo","ascii":"Arroyohondo","lat":10.2522,"lon":-75.0198,"population":3622},{"id":3682299,"name":"Fuente de Oro","ascii":"Fuente de Oro","lat":3.46263,"lon":-73.62162,"population":3609},{"id":3681966,"name":"Gramalote","ascii":"Gramalote","lat":7.88752,"lon":-72.79749,"population":3577},{"id":3775262,"name":"Quípama","ascii":"Quipama","lat":5.5194,"lon":-74.17765,"population":3571},{"id":3671018,"name":"Ragonvalia","ascii":"Ragonvalia","lat":7.57749,"lon":-72.47574,"population":3543},{"id":3666102,"name":"Versalles","ascii":"Versalles","lat":4.57544,"lon":-76.19814,"population":3542},{"id":3681404,"name":"Guasca","ascii":"Guasca","lat":4.86601,"lon":-73.87748,"population":3540},{"id":3667211,"name":"Tibasosa","ascii":"Tibasosa","lat":5.75,"lon":-73,"population":3535},{"id":3687933,"name":"Caldono","ascii":"Caldono","lat":2.79739,"lon":-76.48316,"population":3517},{"id":3685961,"name":"Contratación","ascii":"Contratacion","lat":6.29005,"lon":-73.47354,"population":3505},{"id":3689611,"name":"Argelia","ascii":"Argelia","lat":5.73127,"lon":-75.14257,"population":3474},{"id":3685069,"name":"Durania","ascii":"Durania","lat":7.71307,"lon":-72.65759,"population":3470},{"id":3676868,"name":"La Vega","ascii":"La Vega","lat":2.00187,"lon":-76.7789,"population":3469},{"id":3827693,"name":"La Macarena","ascii":"La Macarena","lat":2.18266,"lon":-73.7871,"population":3466},{"id":3783663,"name":"San Carlos","ascii":"San Carlos","lat":8.74372,"lon":-75.71331,"population":3447},{"id":3689613,"name":"Argelia","ascii":"Argelia","lat":4.72342,"lon":-76.11909,"population":3418},{"id":3672176,"name":"Piojó","ascii":"Piojo","lat":10.74846,"lon":-75.10776,"population":3388},{"id":3688009,"name":"Cajibío","ascii":"Cajibio","lat":2.62271,"lon":-76.57039,"population":3365},{"id":3673829,"name":"Nobsa","ascii":"Nobsa","lat":5.76978,"lon":-72.94099,"population":3360},{"id":3667892,"name":"Socha Viejo","ascii":"Socha Viejo","lat":5.9817,"lon":-72.71503,"population":3353},{"id":3667447,"name":"Tangua","ascii":"Tangua","lat":1.09473,"lon":-77.39482,"population":3348},{"id":3738301,"name":"El Tarra","ascii":"El Tarra","lat":8.57506,"lon":-73.09607,"population":3336},{"id":3671714,"name":"Providencia","ascii":"Providencia","lat":1.56976,"lon":-77.464,"population":3326},{"id":3683180,"name":"El Roble","ascii":"El Roble","lat":9.10193,"lon":-75.19508,"population":3324},{"id":3678363,"name":"La Montañita","ascii":"La Montanita","lat":1.48016,"lon":-75.43664,"population":3305},{"id":3792386,"name":"El Cantón de San Pablo","ascii":"El Canton de San Pablo","lat":5.33889,"lon":-76.73139,"population":3271},{"id":3686107,"name":"Colón","ascii":"Colon","lat":1.19034,"lon":-76.97369,"population":3269},{"id":3684785,"name":"El Cairo","ascii":"El Cairo","lat":4.76279,"lon":-76.221,"population":3268},{"id":3672327,"name":"Pie de Pató","ascii":"Pie de Pato","lat":5.51604,"lon":-76.97449,"population":3242},{"id":3666481,"name":"Une","ascii":"Une","lat":4.40306,"lon":-74.02528,"population":3208},{"id":3674027,"name":"Nariño","ascii":"Narino","lat":5.60893,"lon":-75.17656,"population":3186},{"id":3672813,"name":"Pasca","ascii":"Pasca","lat":4.30722,"lon":-74.30056,"population":3169},{"id":3687310,"name":"Carolina","ascii":"Carolina","lat":6.72439,"lon":-75.28168,"population":3160},{"id":3787727,"name":"San Andrés","ascii":"San Andres","lat":6.90333,"lon":-75.6825,"population":3154},{"id":3689006,"name":"Belén","ascii":"Belen","lat":1.59477,"lon":-77.05408,"population":3131},{"id":3690136,"name":"Almaguer","ascii":"Almaguer","lat":1.91472,"lon":-76.85482,"population":3120},{"id":3687451,"name":"Caracolí","ascii":"Caracoli","lat":6.4092,"lon":-74.75715,"population":3120},{"id":3737057,"name":"Santiago Pérez","ascii":"Santiago Perez","lat":3.39806,"lon":-75.605,"population":3115},{"id":3675768,"name":"Maceo","ascii":"Maceo","lat":6.55196,"lon":-74.78741,"population":3109},{"id":3667410,"name":"Tarapacá","ascii":"Tarapaca","lat":-2.892,"lon":-69.742,"population":3100},{"id":3665910,"name":"Villarrica","ascii":"Villarrica","lat":3.93502,"lon":-74.60036,"population":3081},{"id":3687426,"name":"Caramanta","ascii":"Caramanta","lat":5.54782,"lon":-75.64368,"population":3044},{"id":3670224,"name":"San Andrés","ascii":"San Andres","lat":6.81148,"lon":-72.84929,"population":3032},{"id":3671470,"name":"Puerto Escondido","ascii":"Puerto Escondido","lat":9.01811,"lon":-76.26413,"population":3020},{"id":3670034,"name":"San Bernardo","ascii":"San Bernardo","lat":1.51525,"lon":-77.04679,"population":2988},{"id":3680554,"name":"Inzá","ascii":"Inza","lat":2.55452,"lon":-76.06722,"population":2972},{"id":3666363,"name":"Útica","ascii":"Utica","lat":5.18727,"lon":-74.48105,"population":2945},{"id":3674031,"name":"Nariño","ascii":"Narino","lat":1.28995,"lon":-77.35721,"population":2933},{"id":3688030,"name":"Caimito","ascii":"Caimito","lat":8.78962,"lon":-75.11686,"population":2925},{"id":3667471,"name":"Taminango","ascii":"Taminango","lat":1.57032,"lon":-77.28043,"population":2919},{"id":3686464,"name":"Chita","ascii":"Chita","lat":6.19053,"lon":-72.47588,"population":2914},{"id":3666562,"name":"Turmequé","ascii":"Turmeque","lat":5.3236,"lon":-73.49067,"population":2901},{"id":3686835,"name":"Chalán","ascii":"Chalan","lat":9.54765,"lon":-75.31128,"population":2897},{"id":3672665,"name":"Payán","ascii":"Payan","lat":1.76645,"lon":-78.18326,"population":2892},{"id":3679007,"name":"La Florida","ascii":"La Florida","lat":1.29851,"lon":-77.40614,"population":2882},{"id":3681255,"name":"Guayatá","ascii":"Guayata","lat":4.96417,"lon":-73.4875,"population":2857},{"id":3686883,"name":"Cértegui","ascii":"Certegui","lat":5.37073,"lon":-76.6044,"population":2854},{"id":3673536,"name":"Orocué","ascii":"Orocue","lat":4.79035,"lon":-71.33917,"population":2835},{"id":3669557,"name":"San José de la Montaña","ascii":"San Jose de la Montana","lat":6.85028,"lon":-75.68333,"population":2819},{"id":3685184,"name":"Doima","ascii":"Doima","lat":4.42692,"lon":-74.97548,"population":2808},{"id":3669860,"name":"San Francisco","ascii":"San Francisco","lat":4.97876,"lon":-74.2927,"population":2785},{"id":3669857,"name":"San Francisco","ascii":"San Francisco","lat":6.11667,"lon":-75.98333,"population":2779},{"id":3668635,"name":"Santa María","ascii":"Santa Maria","lat":2.95,"lon":-75.65,"population":2761},{"id":3678575,"name":"La Llanada","ascii":"La Llanada","lat":1.4731,"lon":-77.58024,"population":2747},{"id":3673482,"name":"Ospina","ascii":"Ospina","lat":1.0595,"lon":-77.56554,"population":2747},{"id":3673690,"name":"Nuquí","ascii":"Nuqui","lat":5.7125,"lon":-77.27083,"population":2741},{"id":3665898,"name":"Villavieja","ascii":"Villavieja","lat":3.22052,"lon":-75.21864,"population":2730},{"id":3679130,"name":"La Esperanza","ascii":"La Esperanza","lat":8.21043,"lon":-72.46399,"population":2718},{"id":3686532,"name":"Chipaque","ascii":"Chipaque","lat":4.4425,"lon":-74.04417,"population":2707},{"id":3684510,"name":"El Cocuy","ascii":"El Cocuy","lat":6.41151,"lon":-72.44876,"population":2706},{"id":3689697,"name":"Arboledas","ascii":"Arboledas","lat":7.64233,"lon":-72.79944,"population":2702},{"id":3667380,"name":"Tarso","ascii":"Tarso","lat":5.86467,"lon":-75.82192,"population":2700},{"id":3667783,"name":"Suaita","ascii":"Suaita","lat":6.1014,"lon":-73.44041,"population":2691},{"id":3676477,"name":"Lloró","ascii":"Lloro","lat":5.49605,"lon":-76.54945,"population":2651},{"id":3669482,"name":"San Juan de Arama","ascii":"San Juan de Arama","lat":3.36985,"lon":-73.87267,"population":2636},{"id":3668268,"name":"Sapuyes","ascii":"Sapuyes","lat":1.03728,"lon":-77.62094,"population":2628},{"id":3666502,"name":"Ulloa","ascii":"Ulloa","lat":4.70444,"lon":-75.74028,"population":2621},{"id":3670816,"name":"Ricaurte","ascii":"Ricaurte","lat":1.21474,"lon":-77.99801,"population":2617},{"id":3684662,"name":"El Castillo","ascii":"El Castillo","lat":3.56363,"lon":-73.79488,"population":2581},{"id":3669355,"name":"San Luis de Gaceno","ascii":"San Luis de Gaceno","lat":4.82052,"lon":-73.16851,"population":2579},{"id":3676644,"name":"Lenguazaque","ascii":"Lenguazaque","lat":5.30711,"lon":-73.71152,"population":2555},{"id":3667732,"name":"Sucre","ascii":"Sucre","lat":2.03805,"lon":-76.92446,"population":2552},{"id":3666311,"name":"Valle de San José","ascii":"Valle de San Jose","lat":6.4475,"lon":-73.14361,"population":2522},{"id":3686027,"name":"Concepción","ascii":"Concepcion","lat":6.76619,"lon":-72.694,"population":2520},{"id":3670506,"name":"Sabanalarga","ascii":"Sabanalarga","lat":6.84893,"lon":-75.81711,"population":2517},{"id":3688705,"name":"Bochalema","ascii":"Bochalema","lat":7.61095,"lon":-72.64773,"population":2511},{"id":3681619,"name":"Gualmatán","ascii":"Gualmatan","lat":0.91992,"lon":-77.56738,"population":2510},{"id":3682283,"name":"Funes","ascii":"Funes","lat":1.00075,"lon":-77.44918,"population":2508},{"id":3667764,"name":"Suaza","ascii":"Suaza","lat":1.97611,"lon":-75.79454,"population":2481},{"id":3673826,"name":"Nocaima","ascii":"Nocaima","lat":5.06696,"lon":-74.38439,"population":2475},{"id":3681234,"name":"Güepsa","ascii":"Gueepsa","lat":6.02505,"lon":-73.57313,"population":2471},{"id":3735680,"name":"Santacruz","ascii":"Santacruz","lat":1.5209,"lon":-77.26206,"population":2469},{"id":3680857,"name":"Hispania","ascii":"Hispania","lat":5.79925,"lon":-75.90718,"population":2468},{"id":3686907,"name":"Cerrito","ascii":"Cerrito","lat":6.84315,"lon":-72.69404,"population":2435},{"id":3778835,"name":"La Cumbre","ascii":"La Cumbre","lat":3.7225,"lon":-76.02083,"population":2432},{"id":3674272,"name":"Mountain","ascii":"Mountain","lat":13.36667,"lon":-81.36667,"population":2404},{"id":3680902,"name":"Heliconia","ascii":"Heliconia","lat":6.20831,"lon":-75.73565,"population":2403},{"id":3669549,"name":"San José del Palmar","ascii":"San Jose del Palmar","lat":4.89616,"lon":-76.23422,"population":2392},{"id":3792374,"name":"Buriticá","ascii":"Buritica","lat":6.71873,"lon":-75.90734,"population":2388},{"id":3682981,"name":"El Tablón","ascii":"El Tablon","lat":1.42717,"lon":-77.09693,"population":2373},{"id":3674161,"name":"Murindó","ascii":"Murindo","lat":6.98057,"lon":-76.82119,"population":2372},{"id":3680090,"name":"Juradó","ascii":"Jurado","lat":7.10421,"lon":-77.762,"population":2351},{"id":3674580,"name":"Mongua","ascii":"Mongua","lat":5.75084,"lon":-72.80339,"population":2322},{"id":3689291,"name":"Balboa","ascii":"Balboa","lat":4.94985,"lon":-75.95826,"population":2302},{"id":3674576,"name":"Monguí","ascii":"Mongui","lat":5.72151,"lon":-72.84908,"population":2299},{"id":3683508,"name":"El Peñol","ascii":"El Penol","lat":1.45365,"lon":-77.44017,"population":2294},{"id":3666436,"name":"Uramita","ascii":"Uramita","lat":6.89944,"lon":-76.17417,"population":2292},{"id":3669358,"name":"Cubarral","ascii":"Cubarral","lat":3.79536,"lon":-73.84063,"population":2280},{"id":3666111,"name":"Vergara","ascii":"Vergara","lat":5.11841,"lon":-74.34549,"population":2267},{"id":3684692,"name":"El Carmen","ascii":"El Carmen","lat":5.88778,"lon":-75.16417,"population":2258},{"id":3674393,"name":"Morelia","ascii":"Morelia","lat":1.48747,"lon":-75.72581,"population":2257},{"id":3685984,"name":"Consacá","ascii":"Consaca","lat":1.20805,"lon":-77.46548,"population":2239},{"id":3668631,"name":"Santa María","ascii":"Santa Maria","lat":4.86048,"lon":-73.26234,"population":2238},{"id":3674012,"name":"Nátaga","ascii":"Nataga","lat":2.54359,"lon":-75.80852,"population":2232},{"id":3689802,"name":"Anzoátegui","ascii":"Anzoategui","lat":4.63087,"lon":-75.0946,"population":2229},{"id":3688499,"name":"Briceño","ascii":"Briceno","lat":7.11096,"lon":-75.55152,"population":2214},{"id":3667880,"name":"Socotá","ascii":"Socota","lat":6.04028,"lon":-72.63509,"population":2193},{"id":3681732,"name":"Guadalupe","ascii":"Guadalupe","lat":6.2464,"lon":-73.41833,"population":2181},{"id":3668023,"name":"Simacota","ascii":"Simacota","lat":6.4429,"lon":-73.33688,"population":2156},{"id":3688357,"name":"Buenos Aires","ascii":"Buenos Aires","lat":3.01397,"lon":-76.64612,"population":2144},{"id":3682465,"name":"Firavitoba","ascii":"Firavitoba","lat":5.66885,"lon":-72.99289,"population":2136},{"id":3690102,"name":"Altamira","ascii":"Altamira","lat":2.06278,"lon":-75.78722,"population":2123},{"id":3670966,"name":"Ráquira","ascii":"Raquira","lat":5.53793,"lon":-73.63201,"population":2120},{"id":3671387,"name":"Puerto Nariño","ascii":"Puerto Narino","lat":-3.78889,"lon":-70.35584,"population":2113},{"id":3689723,"name":"Aratoca","ascii":"Aratoca","lat":6.69432,"lon":-73.01868,"population":2101},{"id":3681222,"name":"Güicán","ascii":"Gueican","lat":6.46554,"lon":-72.41539,"population":2101},{"id":3688106,"name":"Cáchira","ascii":"Cachira","lat":7.74104,"lon":-73.0483,"population":2097},{"id":3668594,"name":"Santana","ascii":"Santana","lat":6.0575,"lon":-73.48112,"population":2091},{"id":3688433,"name":"Buenavista","ascii":"Buenavista","lat":4.35969,"lon":-75.73888,"population":2084},{"id":3670011,"name":"San Calixto","ascii":"San Calixto","lat":8.4028,"lon":-73.2076,"population":2080},{"id":3689559,"name":"Armenia","ascii":"Armenia","lat":6.15639,"lon":-75.78722,"population":2035},{"id":3669352,"name":"San Luis de Palenque","ascii":"San Luis de Palenque","lat":5.42139,"lon":-71.73167,"population":2032},{"id":3769960,"name":"Paratebueno","ascii":"Paratebueno","lat":4.37575,"lon":-73.21547,"population":2027},{"id":3681303,"name":"Guayabetal","ascii":"Guayabetal","lat":4.21472,"lon":-73.81719,"population":2017},{"id":3687335,"name":"Carlosama","ascii":"Carlosama","lat":0.86292,"lon":-77.72734,"population":2010},{"id":3676205,"name":"Los Córdobas","ascii":"Los Cordobas","lat":8.89403,"lon":-76.35455,"population":2007},{"id":3674519,"name":"Montebello","ascii":"Montebello","lat":5.94806,"lon":-75.5275,"population":2007},{"id":3667516,"name":"Támara","ascii":"Tamara","lat":5.82998,"lon":-72.16286,"population":2007},{"id":9031040,"name":"Barrio San Luis","ascii":"Barrio San Luis","lat":4.66779,"lon":-74.0215,"population":2000},{"id":3680393,"name":"Jambaló","ascii":"Jambalo","lat":2.77762,"lon":-76.32444,"population":1972},{"id":3685529,"name":"Cucutilla","ascii":"Cucutilla","lat":7.53941,"lon":-72.77238,"population":1950},{"id":3687321,"name":"Carmen de Carupa","ascii":"Carmen de Carupa","lat":5.34862,"lon":-73.90168,"population":1928},{"id":3681360,"name":"Guatavita","ascii":"Guatavita","lat":4.93658,"lon":-73.83314,"population":1920},{"id":3689877,"name":"Angelópolis","ascii":"Angelopolis","lat":6.11072,"lon":-75.70923,"population":1917},{"id":3734732,"name":"Laureles","ascii":"Laureles","lat":4.25917,"lon":-75.3225,"population":1910},{"id":3667701,"name":"Supatá","ascii":"Supata","lat":5.06097,"lon":-74.23721,"population":1907},{"id":3673783,"name":"Nóvita","ascii":"Novita","lat":4.95511,"lon":-76.60526,"population":1898},{"id":3671072,"name":"Quipile","ascii":"Quipile","lat":4.74517,"lon":-74.53378,"population":1896},{"id":3666834,"name":"Totoró","ascii":"Totoro","lat":2.51111,"lon":-76.40178,"population":1888},{"id":3666526,"name":"Ubalá","ascii":"Ubala","lat":4.74778,"lon":-72.53694,"population":1886},{"id":3680616,"name":"Iles","ascii":"Iles","lat":0.9704,"lon":-77.52146,"population":1879},{"id":3668138,"name":"Sesquilé","ascii":"Sesquile","lat":5.04463,"lon":-73.79724,"population":1876},{"id":3687835,"name":"Campamento","ascii":"Campamento","lat":6.9792,"lon":-75.29724,"population":1870},{"id":3674166,"name":"Murillo","ascii":"Murillo","lat":4.87393,"lon":-75.17151,"population":1860},{"id":3667373,"name":"Tasco","ascii":"Tasco","lat":5.91044,"lon":-72.78001,"population":1811},{"id":3667218,"name":"Tibaná","ascii":"Tibana","lat":5.31728,"lon":-73.39655,"population":1802},{"id":3672295,"name":"Piedrancha","ascii":"Piedrancha","lat":1.14109,"lon":-77.86479,"population":1788},{"id":3687480,"name":"Capurganá","ascii":"Capurgana","lat":8.63805,"lon":-77.34609,"population":1787},{"id":3670431,"name":"Sáchica","ascii":"Sachica","lat":5.58453,"lon":-73.54184,"population":1774},{"id":3669654,"name":"San José","ascii":"San Jose","lat":1.69659,"lon":-78.24482,"population":1772},{"id":3675757,"name":"Machetá","ascii":"Macheta","lat":5.08154,"lon":-73.60761,"population":1742},{"id":3688875,"name":"Arboleda","ascii":"Arboleda","lat":1.49766,"lon":-77.13587,"population":1736},{"id":3680601,"name":"Imués","ascii":"Imues","lat":1.05516,"lon":-77.49669,"population":1736},{"id":3681731,"name":"Guadalupe","ascii":"Guadalupe","lat":6.81449,"lon":-75.24063,"population":1734},{"id":3669623,"name":"San José","ascii":"San Jose","lat":5.08221,"lon":-75.79107,"population":1724},{"id":3688839,"name":"Betulia","ascii":"Betulia","lat":6.90069,"lon":-73.28347,"population":1716},{"id":3676884,"name":"La Uvita","ascii":"La Uvita","lat":6.32064,"lon":-72.56281,"population":1708},{"id":3685540,"name":"Cucunubá","ascii":"Cucunuba","lat":5.24958,"lon":-73.7661,"population":1699},{"id":3682172,"name":"Gámeza","ascii":"Gameza","lat":5.80263,"lon":-72.80586,"population":1690},{"id":3690264,"name":"Albán","ascii":"Alban","lat":4.87661,"lon":-74.43768,"population":1684},{"id":3673386,"name":"Paicol","ascii":"Paicol","lat":2.44962,"lon":-75.775,"population":1681},{"id":3666163,"name":"Ventaquemada","ascii":"Ventaquemada","lat":5.36753,"lon":-73.52075,"population":1680},{"id":3675118,"name":"Matanza","ascii":"Matanza","lat":7.32233,"lon":-73.01516,"population":1669},{"id":3678167,"name":"La Peña","ascii":"La Pena","lat":5.19847,"lon":-74.39368,"population":1667},{"id":3682266,"name":"Gachalá","ascii":"Gachala","lat":4.69244,"lon":-73.52042,"population":1661},{"id":3679776,"name":"La Belleza","ascii":"La Belleza","lat":5.86371,"lon":-73.96167,"population":1649},{"id":3680886,"name":"Herrán","ascii":"Herran","lat":7.50611,"lon":-72.48332,"population":1648},{"id":3666550,"name":"Tuta","ascii":"Tuta","lat":5.68966,"lon":-73.22779,"population":1639},{"id":3681832,"name":"Guaca","ascii":"Guaca","lat":6.87621,"lon":-72.85594,"population":1637},{"id":3669310,"name":"San Mateo","ascii":"San Mateo","lat":6.40195,"lon":-72.55314,"population":1634},{"id":3769623,"name":"Chivor","ascii":"Chivor","lat":4.88556,"lon":-73.36889,"population":1622},{"id":3688072,"name":"Caicedo","ascii":"Caicedo","lat":6.40511,"lon":-75.98255,"population":1617},{"id":3669895,"name":"San Fernando","ascii":"San Fernando","lat":9.27972,"lon":-74.53389,"population":1615},{"id":3667665,"name":"Susa","ascii":"Susa","lat":5.4519,"lon":-73.81436,"population":1608},{"id":3685974,"name":"Contadero","ascii":"Contadero","lat":0.90841,"lon":-77.5477,"population":1603},{"id":3666087,"name":"Vianí","ascii":"Viani","lat":4.87384,"lon":-74.56244,"population":1586},{"id":3689689,"name":"Arcabuco","ascii":"Arcabuco","lat":5.75463,"lon":-73.43669,"population":1564},{"id":3685794,"name":"Corrales","ascii":"Corrales","lat":5.82968,"lon":-72.84332,"population":1561},{"id":3687084,"name":"Castilla La Nueva","ascii":"Castilla La Nueva","lat":3.82722,"lon":-73.68831,"population":1543},{"id":3687231,"name":"Cartago","ascii":"Cartago","lat":1.55151,"lon":-77.11948,"population":1524},{"id":3686028,"name":"Concepción","ascii":"Concepcion","lat":6.39408,"lon":-75.2583,"population":1513},{"id":3675857,"name":"Lourdes","ascii":"Lourdes","lat":7.94411,"lon":-72.83253,"population":1500},{"id":3686918,"name":"Cerinza","ascii":"Cerinza","lat":5.95568,"lon":-72.94783,"population":1499},{"id":3680113,"name":"Junín","ascii":"Junin","lat":4.79027,"lon":-73.66011,"population":1499},{"id":3666309,"name":"Valle de San Juan","ascii":"Valle de San Juan","lat":4.19869,"lon":-75.11733,"population":1486},{"id":3665544,"name":"Zipacón","ascii":"Zipacon","lat":4.75881,"lon":-74.38017,"population":1480},{"id":3682425,"name":"Florencia","ascii":"Florencia","lat":1.68318,"lon":-77.07331,"population":1467},{"id":3685571,"name":"Cubará","ascii":"Cubara","lat":7.00578,"lon":-72.10568,"population":1466},{"id":3682030,"name":"Giraldo","ascii":"Giraldo","lat":6.68013,"lon":-75.95259,"population":1464},{"id":3675242,"name":"Marmato","ascii":"Marmato","lat":5.47501,"lon":-75.6004,"population":1456},{"id":3682358,"name":"Fosca","ascii":"Fosca","lat":4.33916,"lon":-73.93852,"population":1451},{"id":3671371,"name":"Puerto Parra","ascii":"Puerto Parra","lat":6.65149,"lon":-74.05734,"population":1448},{"id":3792408,"name":"Santa Genoveva de Docordó","ascii":"Santa Genoveva de Docordo","lat":4.25875,"lon":-77.36516,"population":1448},{"id":3667651,"name":"Sutamarchán","ascii":"Sutamarchan","lat":5.61538,"lon":-73.61701,"population":1432},{"id":3669977,"name":"San Cayetano","ascii":"San Cayetano","lat":7.87707,"lon":-72.6243,"population":1430},{"id":3769988,"name":"Sabanalarga","ascii":"Sabanalarga","lat":4.8543,"lon":-73.04003,"population":1419},{"id":3685569,"name":"Cucaita","ascii":"Cucaita","lat":5.54373,"lon":-73.45433,"population":1417},{"id":3688087,"name":"Cácota","ascii":"Cacota","lat":7.26787,"lon":-72.64197,"population":1415},{"id":3675432,"name":"Manta","ascii":"Manta","lat":5.00864,"lon":-73.54115,"population":1410},{"id":3688170,"name":"Cabrera","ascii":"Cabrera","lat":3.98598,"lon":-74.48283,"population":1397},{"id":3766939,"name":"Bellavista","ascii":"Bellavista","lat":6.55645,"lon":-76.88389,"population":1396},{"id":3673590,"name":"Onzaga","ascii":"Onzaga","lat":6.34434,"lon":-72.81726,"population":1393},{"id":3673368,"name":"Paispamba","ascii":"Paispamba","lat":2.25462,"lon":-76.61086,"population":1390},{"id":3688923,"name":"Belmira","ascii":"Belmira","lat":6.60508,"lon":-75.66619,"population":1388},{"id":3679622,"name":"La Capilla","ascii":"La Capilla","lat":5.70493,"lon":-73.47527,"population":1375},{"id":3670447,"name":"Saboyá","ascii":"Saboya","lat":5.69636,"lon":-73.76932,"population":1375},{"id":3668096,"name":"Siachoque","ascii":"Siachoque","lat":5.51238,"lon":-73.24436,"population":1375},{"id":3671119,"name":"Quetame","ascii":"Quetame","lat":4.33234,"lon":-73.86141,"population":1374},{"id":3668446,"name":"Santa Rosalia","ascii":"Santa Rosalia","lat":5.13356,"lon":-70.86233,"population":1363},{"id":3686471,"name":"Chiscas","ascii":"Chiscas","lat":6.55642,"lon":-72.50378,"population":1356},{"id":3667796,"name":"Sotaquirá","ascii":"Sotaquira","lat":5.76483,"lon":-73.24758,"population":1352},{"id":3682070,"name":"Génova","ascii":"Genova","lat":1.64367,"lon":-77.01924,"population":1348},{"id":3672997,"name":"Pandi","ascii":"Pandi","lat":4.19111,"lon":-74.4875,"population":1336},{"id":3667649,"name":"Sutatausa","ascii":"Sutatausa","lat":5.24779,"lon":-73.85238,"population":1332},{"id":3684189,"name":"El Espino","ascii":"El Espino","lat":6.48277,"lon":-72.49718,"population":1313},{"id":3667288,"name":"Tenza","ascii":"Tenza","lat":5.07664,"lon":-73.42077,"population":1312},{"id":3732273,"name":"Los Santos","ascii":"Los Santos","lat":7.17,"lon":-73.09306,"population":1310},{"id":3666203,"name":"Venecia","ascii":"Venecia","lat":4.08808,"lon":-74.47746,"population":1307},{"id":3668033,"name":"Silos","ascii":"Silos","lat":7.20524,"lon":-72.75639,"population":1300},{"id":3666493,"name":"Úmbita","ascii":"Umbita","lat":5.22041,"lon":-73.45695,"population":1295},{"id":3673695,"name":"Nunchía","ascii":"Nunchia","lat":5.63589,"lon":-72.19543,"population":1282},{"id":3690582,"name":"Abriaquí","ascii":"Abriaqui","lat":6.63148,"lon":-76.06444,"population":1281},{"id":3673352,"name":"Pajarito","ascii":"Pajarito","lat":5.2929,"lon":-72.70277,"population":1258},{"id":3675191,"name":"Marulanda","ascii":"Marulanda","lat":5.28393,"lon":-75.26016,"population":1256},{"id":12253454,"name":"Santa Cruz del Islote","ascii":"Santa Cruz del Islote","lat":9.78594,"lon":-75.85899,"population":1247},{"id":3667772,"name":"Suárez","ascii":"Suarez","lat":4.04906,"lon":-74.83198,"population":1243},{"id":3682395,"name":"Florián","ascii":"Florian","lat":5.80487,"lon":-73.97029,"population":1227},{"id":3673397,"name":"Páez","ascii":"Paez","lat":5.10112,"lon":-73.05123,"population":1220},{"id":3682329,"name":"Frías","ascii":"Frias","lat":5.02973,"lon":-75.0086,"population":1215},{"id":3678083,"name":"La Playa","ascii":"La Playa","lat":8.21327,"lon":-73.23823,"population":1215},{"id":3674029,"name":"Nariño","ascii":"Narino","lat":4.39781,"lon":-74.82731,"population":1213},{"id":3666092,"name":"Vetas","ascii":"Vetas","lat":7.30911,"lon":-72.87122,"population":1210},{"id":3667660,"name":"Susacón","ascii":"Susacon","lat":6.22978,"lon":-72.6901,"population":1207},{"id":3674618,"name":"Molagavita","ascii":"Molagavita","lat":6.67315,"lon":-72.80875,"population":1205},{"id":3680335,"name":"Jenesano","ascii":"Jenesano","lat":5.38541,"lon":-73.36364,"population":1200},{"id":3671538,"name":"Puerto Bogotá","ascii":"Puerto Bogota","lat":5.19994,"lon":-74.72733,"population":1200},{"id":3666760,"name":"Tres Esquinas","ascii":"Tres Esquinas","lat":3.86512,"lon":-74.70906,"population":1181},{"id":3689167,"name":"Barranca de Upía","ascii":"Barranca de Upia","lat":4.56963,"lon":-72.96676,"population":1177},{"id":3686262,"name":"Ciénega","ascii":"Cienega","lat":5.40867,"lon":-73.29572,"population":1172},{"id":3690258,"name":"Albania","ascii":"Albania","lat":5.76667,"lon":-73.23333,"population":1157},{"id":3675255,"name":"Maripí","ascii":"Maripi","lat":5.55194,"lon":-74.00861,"population":1143},{"id":3688151,"name":"Cabuyaro","ascii":"Cabuyaro","lat":4.2817,"lon":-72.79399,"population":1140},{"id":3681364,"name":"Guataquí","ascii":"Guataqui","lat":4.51573,"lon":-74.78935,"population":1139},{"id":3678190,"name":"La Paz","ascii":"La Paz","lat":6.17848,"lon":-73.58948,"population":1135},{"id":3682400,"name":"Floresta","ascii":"Floresta","lat":5.85903,"lon":-72.91882,"population":1127},{"id":3682243,"name":"Galán","ascii":"Galan","lat":6.63781,"lon":-73.28878,"population":1122},{"id":3684029,"name":"Elías","ascii":"Elias","lat":2.0117,"lon":-75.93968,"population":1117},{"id":3686569,"name":"Chinavita","ascii":"Chinavita","lat":5.16723,"lon":-73.36823,"population":1113},{"id":3686851,"name":"Chaguaní","ascii":"Chaguani","lat":4.94829,"lon":-74.59392,"population":1108},{"id":3681953,"name":"Granada","ascii":"Granada","lat":5.06667,"lon":-74.56667,"population":1100},{"id":3666903,"name":"Topaipí","ascii":"Topaipi","lat":5.33457,"lon":-74.30292,"population":1099},{"id":3669545,"name":"San José de Miranda","ascii":"San Jose de Miranda","lat":6.6587,"lon":-72.73344,"population":1096},{"id":3667731,"name":"Sucre","ascii":"Sucre","lat":5.91833,"lon":-73.79109,"population":1095},{"id":3668434,"name":"Santa Sofía","ascii":"Santa Sofia","lat":5.70908,"lon":-73.60404,"population":1058},{"id":3737007,"name":"Campo Alegre","ascii":"Campo Alegre","lat":3.18917,"lon":-75.70361,"population":1052},{"id":3681306,"name":"Guayabal de Síquima","ascii":"Guayabal de Siquima","lat":4.87739,"lon":-74.46744,"population":1051},{"id":3665547,"name":"Zetaquira","ascii":"Zetaquira","lat":5.28215,"lon":-73.16896,"population":1047},{"id":3667044,"name":"Tipacoque","ascii":"Tipacoque","lat":6.42031,"lon":-72.69184,"population":1036},{"id":3686051,"name":"Combita","ascii":"Combita","lat":5.63333,"lon":-73.31667,"population":1034},{"id":3668396,"name":"Santiago","ascii":"Santiago","lat":7.86432,"lon":-72.7162,"population":1032},{"id":3667834,"name":"Somondoco","ascii":"Somondoco","lat":4.98495,"lon":-73.43238,"population":1029},{"id":3792406,"name":"Tibacuy","ascii":"Tibacuy","lat":4.35111,"lon":-72.45639,"population":1028},{"id":3670058,"name":"San Antonio del Tequendama","ascii":"San Antonio del Tequendama","lat":4.61617,"lon":-74.352,"population":1020},{"id":3666905,"name":"Tópaga","ascii":"Topaga","lat":5.75979,"lon":-72.82583,"population":1014},{"id":3733434,"name":"El Dorado","ascii":"El Dorado","lat":2.77411,"lon":-72.86834,"population":1011},{"id":3685840,"name":"Coromoro","ascii":"Coromoro","lat":6.29461,"lon":-73.04022,"population":1010},{"id":3666522,"name":"Ubaque","ascii":"Ubaque","lat":4.48667,"lon":-73.93748,"population":1009},{"id":3673431,"name":"Pachavita","ascii":"Pachavita","lat":5.13969,"lon":-73.39739,"population":959},{"id":3686819,"name":"Chámeza","ascii":"Chameza","lat":5.21421,"lon":-72.86948,"population":948},{"id":3681346,"name":"Guavatá","ascii":"Guavata","lat":5.95502,"lon":-73.70018,"population":943},{"id":3673041,"name":"Pamplonita","ascii":"Pamplonita","lat":7.43637,"lon":-72.63808,"population":941},{"id":3669541,"name":"San José de Pare","ascii":"San Jose de Pare","lat":6.01746,"lon":-73.54703,"population":941},{"id":3668990,"name":"San Sebastián","ascii":"San Sebastian","lat":1.83861,"lon":-76.77189,"population":931},{"id":3667205,"name":"Tibirita","ascii":"Tibirita","lat":5.05227,"lon":-73.50459,"population":920},{"id":3674124,"name":"Mutiscua","ascii":"Mutiscua","lat":7.30061,"lon":-72.74667,"population":918},{"id":3679716,"name":"Labranzagrande","ascii":"Labranzagrande","lat":5.56223,"lon":-72.57499,"population":902},{"id":3667351,"name":"Tausa","ascii":"Tausa","lat":5.19903,"lon":-73.89128,"population":895},{"id":3678672,"name":"La Jagua del Pilar","ascii":"La Jagua del Pilar","lat":10.51023,"lon":-73.07176,"population":894},{"id":3673664,"name":"Ocamonte","ascii":"Ocamonte","lat":6.34001,"lon":-73.12205,"population":883},{"id":3686530,"name":"Chipatá","ascii":"Chipata","lat":6.06196,"lon":-73.63718,"population":868},{"id":3680316,"name":"Jericó","ascii":"Jerico","lat":6.14592,"lon":-72.5708,"population":865},{"id":3673730,"name":"Nuevo Colón","ascii":"Nuevo Colon","lat":5.35368,"lon":-73.4566,"population":863},{"id":3687394,"name":"Carcasí","ascii":"Carcasi","lat":6.62711,"lon":-72.62625,"population":862},{"id":3669693,"name":"San Joaquín","ascii":"San Joaquin","lat":6.43004,"lon":-72.86768,"population":844},{"id":3672895,"name":"Páramo","ascii":"Paramo","lat":6.41639,"lon":-73.17,"population":843},{"id":3666964,"name":"Togüí","ascii":"Toguei","lat":5.93462,"lon":-73.51297,"population":829},{"id":3667805,"name":"Soracá","ascii":"Soraca","lat":5.50055,"lon":-73.33299,"population":827},