[{"id":3374333,"name":"Praia","nameKo":"프라이아","ascii":"Praia","lat":14.93152,"lon":-23.51254,"population":137868},{"id":3374462,"name":"Mindelo","nameKo":"민델루","ascii":"Mindelo","lat":16.89014,"lon":-24.98042,"population":69013},{"id":8521418,"name":"Espargos","ascii":"Espargos","lat":16.75524,"lon":-22.9446,"population":24500},{"id":3374888,"name":"Assomada","ascii":"Assomada","lat":15.1,"lon":-23.68333,"population":21297},{"id":3374166,"name":"Tarrafal","ascii":"Tarrafal","lat":15.27881,"lon":-23.75192,"population":13483},{"id":3374336,"name":"Porto Novo","ascii":"Porto Novo","lat":17.01969,"lon":-25.06471,"population":11138},{"id":3374235,"name":"Sal Rei","ascii":"Sal Rei","lat":16.17611,"lon":-22.91722,"population":10936},{"id":3374210,"name":"São Filipe","ascii":"Sao Filipe","lat":14.8961,"lon":-24.49556,"population":10097},{"id":8441169,"name":"Pedra Badejo","ascii":"Pedra Badejo","lat":15.1375,"lon":-23.53083,"population":10038},{"id":3374221,"name":"Santa Cruz","ascii":"Santa Cruz","lat":15.13403,"lon":-23.55945,"population":9488},{"id":3374218,"name":"Santa Maria","nameKo":"산타마리아","ascii":"Santa Maria","lat":16.59796,"lon":-22.90509,"population":8400},{"id":3374794,"name":"Calheta","ascii":"Calheta","lat":15.18613,"lon":-23.59228,"population":6329},{"id":3374120,"name":"Vila do Maio","ascii":"Vila do Maio","lat":15.13823,"lon":-23.21158,"population":4472},{"id":3374165,"name":"Tarrafal de São Nicolau","ascii":"Tarrafal de Sao Nicolau","lat":16.56622,"lon":-24.35793,"population":4371},{"id":3374555,"name":"Igreja","ascii":"Igreja","lat":15.03333,"lon":-24.33333,"population":4084},{"id":3374725,"name":"Cidade Velha","nameKo":"시다드벨랴","ascii":"Cidade Velha","lat":14.91531,"lon":-23.60527,"population":3319},{"id":3374346,"name":"Ponta do Sol","ascii":"Ponta do Sol","lat":17.20171,"lon":-25.09217,"population":3300},{"id":3374275,"name":"Ribeira Grande","ascii":"Ribeira Grande","lat":17.1825,"lon":-25.065,"population":3000},{"id":3374211,"name":"São Domingos","ascii":"Sao Domingos","lat":15.02438,"lon":-23.5625,"population":2960},{"id":3374121,"name":"Ribeira Brava","ascii":"Ribeira Brava","lat":16.61583,"lon":-24.29833,"population":2851},{"id":3374117,"name":"Nova Sintra","ascii":"Nova Sintra","lat":14.87139,"lon":-24.69556,"population":2225},{"id":3374360,"name":"Picos","ascii":"Picos","lat":15.0836,"lon":-23.63236,"population":2040},{"id":3374351,"name":"Pombas","ascii":"Pombas","lat":17.15026,"lon":-25.02007,"population":1429},{"id":3374707,"name":"Cova Figueira","ascii":"Cova Figueira","lat":14.89054,"lon":-24.29343,"population":720},{"id":8441167,"name":"João Teves","ascii":"Joao Teves","lat":15.06694,"lon":-23.58917,"population":627}]