[{"id":8740209,"name":"Nasinu","ascii":"Nasinu","lat":-18.07051,"lon":178.51313,"population":92043},{"id":2198148,"name":"Suva","nameKo":"수바","ascii":"Suva","lat":-18.13683,"lon":178.42531,"population":77366},{"id":2204506,"name":"Lautoka","nameKo":"라우토카","ascii":"Lautoka","lat":-17.61686,"lon":177.45049,"population":52500},{"id":2202064,"name":"Nadi","nameKo":"나디","ascii":"Nadi","lat":-17.80309,"lon":177.41617,"population":42284},{"id":2204582,"name":"Labasa","ascii":"Labasa","lat":-16.4332,"lon":179.36451,"population":27949},{"id":2204575,"name":"Lami","ascii":"Lami","lat":-18.11094,"lon":178.40943,"population":24639},{"id":2198365,"name":"Sigatoka","ascii":"Sigatoka","lat":-18.14307,"lon":177.50691,"population":17622},{"id":8335413,"name":"Ba","nameKo":"바","ascii":"Ba","lat":-17.5343,"lon":177.67407,"population":14596},{"id":2197895,"name":"Tavua","ascii":"Tavua","lat":-17.44221,"lon":177.86221,"population":8810},{"id":2204417,"name":"Levuka","ascii":"Levuka","lat":-18.06667,"lon":179.31667,"population":8360},{"id":2198520,"name":"Savusavu","ascii":"Savusavu","lat":-16.77942,"lon":179.33564,"population":6833},{"id":2197277,"name":"Vaileka","ascii":"Vaileka","lat":-17.37894,"lon":178.15329,"population":5964},{"id":2200478,"name":"Navua","ascii":"Navua","lat":-18.22271,"lon":178.17002,"population":5812},{"id":2197035,"name":"Vatukoula","ascii":"Vatukoula","lat":-17.50136,"lon":177.84983,"population":5580},{"id":2205310,"name":"Ahau","ascii":"Ahau","lat":-12.5,"lon":177.05,"population":0},{"id":4035863,"name":"Tubou","ascii":"Tubou","lat":-18.23652,"lon":-178.81232,"population":0}]