[{"id":2298890,"name":"Kumasi","nameKo":"쿠마시","ascii":"Kumasi","lat":6.68848,"lon":-1.62443,"population":2544530},{"id":2306104,"name":"Accra","nameKo":"아크라","ascii":"Accra","lat":5.55602,"lon":-0.1969,"population":1963264},{"id":2294877,"name":"Tamale","ascii":"Tamale","lat":9.40079,"lon":-0.8393,"population":464316},{"id":2294915,"name":"Takoradi","ascii":"Takoradi","lat":4.89816,"lon":-1.76029,"population":389114},{"id":11808941,"name":"Sekondi","ascii":"Sekondi","lat":4.93422,"lon":-1.71454,"population":285506},{"id":2302357,"name":"Cape Coast","nameKo":"케이프코스트","ascii":"Cape Coast","lat":5.10535,"lon":-1.2466,"population":212426},{"id":2306079,"name":"Atsiaman","ascii":"Atsiaman","lat":5.69775,"lon":-0.32824,"population":202932},{"id":2304121,"name":"Ashaiman","nameKo":"아시아만","ascii":"Ashaiman","lat":5.69951,"lon":-0.03484,"population":190972},{"id":2296606,"name":"Obuase","ascii":"Obuase","lat":6.20228,"lon":-1.66796,"population":179604},{"id":2294700,"name":"Tema","nameKo":"테마","ascii":"Tema","lat":5.6698,"lon":-0.01657,"population":155782},{"id":2299522,"name":"Koforidua","nameKo":"코포리두아","ascii":"Koforidua","lat":6.09408,"lon":-0.25913,"population":151255},{"id":2294665,"name":"Teshi Old Town","ascii":"Teshi Old Town","lat":5.58365,"lon":-0.10722,"population":144013},{"id":2295458,"name":"Sekondi-Takoradi","nameKo":"세콘디타코라디","ascii":"Sekondi-Takoradi","lat":4.92678,"lon":-1.75773,"population":138872},{"id":2300379,"name":"Ho","nameKo":"호","ascii":"Ho","lat":6.60084,"lon":0.4713,"population":130701},{"id":2304848,"name":"Amanfrom","ascii":"Amanfrom","lat":5.53532,"lon":-0.39827,"population":119467},{"id":2298330,"name":"Medina Estates","ascii":"Medina Estates","lat":5.6658,"lon":-0.16307,"population":101207},{"id":2294308,"name":"Twifu Praso","ascii":"Twifu Praso","lat":5.61411,"lon":-1.5502,"population":100851},{"id":2300182,"name":"Japekrom","ascii":"Japekrom","lat":7.5758,"lon":-2.78516,"population":96000},{"id":11205476,"name":"Tema New Town","ascii":"Tema New Town","lat":5.65396,"lon":0.0264,"population":95837},{"id":2295021,"name":"Sunyani","nameKo":"수니아니","ascii":"Sunyani","lat":7.33991,"lon":-2.32676,"population":92825},{"id":2300372,"name":"Hohoe","ascii":"Hohoe","lat":7.15181,"lon":0.47362,"population":92076},{"id":2300068,"name":"Jirapa","ascii":"Jirapa","lat":10.53689,"lon":-2.70155,"population":91279},{"id":2296458,"name":"Kasoa","ascii":"Kasoa","lat":5.53449,"lon":-0.41679,"population":86753},{"id":2300721,"name":"Gbawe","ascii":"Gbawe","lat":5.57692,"lon":-0.31038,"population":86718},{"id":2294727,"name":"Techiman","ascii":"Techiman","lat":7.59054,"lon":-1.93947,"population":84074},{"id":2302821,"name":"Bolgatanga","nameKo":"볼가탕가","ascii":"Bolgatanga","lat":10.78556,"lon":-0.85139,"population":81958},{"id":2294206,"name":"Wa","nameKo":"와","ascii":"Wa","lat":10.06069,"lon":-2.50192,"population":78107},{"id":12640505,"name":"Mandela","ascii":"Mandela","lat":5.55221,"lon":-0.33912,"population":77371},{"id":2303287,"name":"Bawku","ascii":"Bawku","lat":11.05926,"lon":-0.24249,"population":76459},{"id":2294034,"name":"Winneba","ascii":"Winneba","lat":5.35113,"lon":-0.62313,"population":71288},{"id":2301217,"name":"Ejura","ascii":"Ejura","lat":7.38558,"lon":-1.35617,"population":70807},{"id":2303125,"name":"Berekum","ascii":"Berekum","lat":7.4534,"lon":-2.58404,"population":70536},{"id":2296969,"name":"Nungua","ascii":"Nungua","lat":5.60105,"lon":-0.07713,"population":70483},{"id":2305677,"name":"Aflao","ascii":"Aflao","lat":6.11982,"lon":1.19012,"population":66546},{"id":2293801,"name":"Yendi","ascii":"Yendi","lat":9.44272,"lon":-0.00991,"population":64676},{"id":2302541,"name":"Buduburam","ascii":"Buduburam","lat":5.52314,"lon":-0.47718,"population":63217},{"id":2296564,"name":"Akim Oda","ascii":"Akim Oda","lat":5.92665,"lon":-0.98577,"population":60604},{"id":2294962,"name":"Swedru","nameKo":"아고나스웨드루","ascii":"Swedru","lat":5.53711,"lon":-0.69984,"population":54417},{"id":2299625,"name":"Kintampo","ascii":"Kintampo","lat":8.05627,"lon":-1.73058,"population":53711},{"id":2298264,"name":"Mampong","ascii":"Mampong","lat":7.06273,"lon":-1.4001,"population":51745},{"id":7648641,"name":"Adenta","ascii":"Adenta","lat":5.71417,"lon":-0.15418,"population":50652},{"id":2295065,"name":"Suhum","ascii":"Suhum","lat":6.04089,"lon":-0.45004,"population":50610},{"id":2294938,"name":"Tafo","ascii":"Tafo","lat":6.73156,"lon":-1.6137,"population":50457},{"id":2294768,"name":"Tarkwa","ascii":"Tarkwa","lat":5.30383,"lon":-1.98956,"population":49937},{"id":11428216,"name":"Lashibi","ascii":"Lashibi","lat":5.68476,"lon":-0.04011,"population":49223},{"id":2297141,"name":"Nsawam","ascii":"Nsawam","lat":5.80893,"lon":-0.35026,"population":48885},{"id":2301639,"name":"Dome","ascii":"Dome","lat":5.65003,"lon":-0.2361,"population":48285},{"id":12640506,"name":"Nkawkaw","ascii":"Nkawkaw","lat":6.54584,"lon":-0.76264,"population":47968},{"id":2305537,"name":"Agogo","ascii":"Agogo","lat":6.80004,"lon":-1.08193,"population":46089},{"id":2304220,"name":"Asamankese","ascii":"Asamankese","lat":5.86006,"lon":-0.6635,"population":46061},{"id":2294086,"name":"Wankyi","ascii":"Wankyi","lat":7.73855,"lon":-2.1036,"population":45877},{"id":8456972,"name":"Osu","ascii":"Osu","lat":5.55728,"lon":-0.1864,"population":44000},{"id":2299349,"name":"Konongo","ascii":"Konongo","lat":6.61667,"lon":-1.21667,"population":43585},{"id":2301400,"name":"Dunkwa","ascii":"Dunkwa","lat":5.95996,"lon":-1.77792,"population":42737},{"id":12640508,"name":"Taifa","ascii":"Taifa","lat":5.65825,"lon":-0.25223,"population":42623},{"id":2298205,"name":"Mankesim","ascii":"Mankesim","lat":5.2717,"lon":-1.0152,"population":41541},{"id":2295517,"name":"Savelugu","ascii":"Savelugu","lat":9.62376,"lon":-0.82705,"population":40654},{"id":2301529,"name":"Domaa-Ahenkro","ascii":"Domaa-Ahenkro","lat":7.27386,"lon":-2.87348,"population":37354},{"id":11467879,"name":"Assin Foso","ascii":"Assin Foso","lat":5.7,"lon":-1.65,"population":37230},{"id":8541923,"name":"New Achimota","ascii":"New Achimota","lat":5.62657,"lon":-0.25807,"population":37116},{"id":2303060,"name":"Bibiani","ascii":"Bibiani","lat":6.45196,"lon":-2.31635,"population":36487},{"id":2298005,"name":"Mim","ascii":"Mim","lat":6.90412,"lon":-2.56114,"population":36211},{"id":2295840,"name":"Prestea","ascii":"Prestea","lat":5.43385,"lon":-2.14295,"population":35611},{"id":2303611,"name":"Esim","ascii":"Esim","lat":4.86641,"lon":-2.24181,"population":35487},{"id":2297289,"name":"Nkoranza","ascii":"Nkoranza","lat":7.57127,"lon":-1.7087,"population":35401},{"id":2301190,"name":"Elmina","nameKo":"엘미나","ascii":"Elmina","lat":5.0847,"lon":-1.35093,"population":34403},{"id":2303026,"name":"Bimbila","ascii":"Bimbila","lat":8.85488,"lon":0.05922,"population":34262},{"id":2304548,"name":"Anloga","ascii":"Anloga","lat":5.79473,"lon":0.89728,"population":34050},{"id":2304931,"name":"Akwatia","ascii":"Akwatia","lat":6.04024,"lon":-0.80876,"population":33784},{"id":2295692,"name":"Sakumona","ascii":"Sakumona","lat":5.62135,"lon":-0.05193,"population":32886},{"id":2303878,"name":"Atebubu","ascii":"Atebubu","lat":7.75537,"lon":-0.98085,"population":32641},{"id":8457205,"name":"Awoshi","ascii":"Awoshi","lat":5.58385,"lon":-0.27787,"population":32426},{"id":2301245,"name":"Ahwiaa","ascii":"Ahwiaa","lat":6.76051,"lon":-1.59402,"population":32163},{"id":2303224,"name":"Bekwai","ascii":"Bekwai","lat":6.45195,"lon":-1.57866,"population":32082},{"id":2305191,"name":"Akatsi","ascii":"Akatsi","lat":6.1316,"lon":0.79853,"population":31981},{"id":2301367,"name":"Dzodze","ascii":"Dzodze","lat":6.23669,"lon":0.99578,"population":30905},{"id":2297126,"name":"Nsoatre","ascii":"Nsoatre","lat":7.40353,"lon":-2.46635,"population":30862},{"id":7281088,"name":"Effiduase","ascii":"Effiduase","lat":6.84684,"lon":-1.39612,"population":30486},{"id":2297432,"name":"New Tafo","ascii":"New Tafo","lat":6.71897,"lon":-1.61188,"population":30380},{"id":2293805,"name":"Yegyi","ascii":"Yegyi","lat":8.22542,"lon":-0.64889,"population":30311},{"id":2299945,"name":"Kade","ascii":"Kade","lat":6.09392,"lon":-0.83599,"population":30233},{"id":2304421,"name":"Anyinam","ascii":"Anyinam","lat":6.38158,"lon":-0.54932,"population":29748},{"id":2303789,"name":"Atronie","ascii":"Atronie","lat":7.15341,"lon":-2.40496,"population":29748},{"id":2303236,"name":"Begoro","ascii":"Begoro","lat":6.38706,"lon":-0.37738,"population":29516},{"id":2299233,"name":"Kpandu","ascii":"Kpandu","lat":6.99536,"lon":0.29306,"population":28334},{"id":2295684,"name":"Salaga","nameKo":"살라가","ascii":"Salaga","lat":8.55083,"lon":-0.51875,"population":25472},{"id":2297505,"name":"Navrongo","ascii":"Navrongo","lat":10.89469,"lon":-1.09083,"population":25470},{"id":2295672,"name":"Saltpond","ascii":"Saltpond","lat":5.20913,"lon":-1.06058,"population":24689},{"id":2301184,"name":"Elubo","ascii":"Elubo","lat":5.28515,"lon":-2.76658,"population":23952},{"id":2302002,"name":"Damongo","ascii":"Damongo","lat":9.08296,"lon":-1.81884,"population":23544},{"id":2301424,"name":"Dambai","ascii":"Dambai","lat":8.06616,"lon":0.17947,"population":22445},{"id":2300749,"name":"Goaso","ascii":"Goaso","lat":6.80355,"lon":-2.5172,"population":21798},{"id":2295385,"name":"Shama Junction","ascii":"Shama Junction","lat":5.01806,"lon":-1.66437,"population":20946},{"id":2304389,"name":"Apam","ascii":"Apam","lat":5.285,"lon":-0.746,"population":20147},{"id":2300883,"name":"Foso","ascii":"Foso","lat":5.70119,"lon":-1.28657,"population":20078},{"id":13275281,"name":"Ahwiaa","ascii":"Ahwiaa","lat":6.90306,"lon":-1.65199,"population":19729},{"id":2306119,"name":"Aburi","ascii":"Aburi","lat":5.84802,"lon":-0.17449,"population":18399},{"id":2299645,"name":"Keta","nameKo":"케타","ascii":"Keta","lat":5.91793,"lon":0.98789,"population":18077},{"id":2294676,"name":"Tepa","ascii":"Tepa","lat":7.00595,"lon":-2.16586,"population":18046},{"id":2297661,"name":"Nalerigu","ascii":"Nalerigu","lat":10.52726,"lon":-0.36982,"population":17440},{"id":2303258,"name":"Bechem","ascii":"Bechem","lat":7.09034,"lon":-2.02498,"population":17000},{"id":2301464,"name":"Duayaw-Nkwanta","ascii":"Duayaw-Nkwanta","lat":7.17487,"lon":-2.09961,"population":17000},{"id":2295468,"name":"Sefwi","ascii":"Sefwi","lat":6.52306,"lon":-1.63596,"population":14206},{"id":2297810,"name":"Mumford","ascii":"Mumford","lat":5.26176,"lon":-0.75897,"population":13983},{"id":2305027,"name":"Akropong","ascii":"Akropong","lat":5.97462,"lon":-0.08542,"population":11096},{"id":2299642,"name":"Kete Krachi","ascii":"Kete Krachi","lat":7.79391,"lon":-0.0498,"population":11000},{"id":2305164,"name":"Akim Swedru","ascii":"Akim Swedru","lat":5.8938,"lon":-1.01636,"population":10000},{"id":2299636,"name":"Kibi","ascii":"Kibi","lat":6.16494,"lon":-0.55376,"population":9399},{"id":2297834,"name":"Mpraeso","ascii":"Mpraeso","lat":6.59321,"lon":-0.73462,"population":9007},{"id":2295663,"name":"Saman","ascii":"Saman","lat":6.32388,"lon":-0.50063,"population":9000},{"id":2306224,"name":"Aboso","ascii":"Aboso","lat":5.36073,"lon":-1.94856,"population":8790},{"id":2299236,"name":"Kpandae","ascii":"Kpandae","lat":8.46885,"lon":-0.01127,"population":8652},{"id":2298453,"name":"Larabanga","ascii":"Larabanga","lat":9.21886,"lon":-1.85961,"population":4500},{"id":12123477,"name":"Zonno","ascii":"Zonno","lat":10.78442,"lon":-0.78449,"population":2000},{"id":8532058,"name":"Mamponteng","ascii":"Mamponteng","lat":6.73333,"lon":-1.55,"population":0},{"id":11205758,"name":"Odumase Krobo","ascii":"Odumase Krobo","lat":6.53333,"lon":-0.81667,"population":0},{"id":2294056,"name":"Sefwi Wiawso","ascii":"Sefwi Wiawso","lat":6.20583,"lon":-2.48944,"population":0},{"id":9159672,"name":"Wassa-Akropong","ascii":"Wassa-Akropong","lat":5.78722,"lon":-2.08361,"population":0}]