[{"id":2411585,"name":"Gibraltar","nameKo":"지브롤터","ascii":"Gibraltar","lat":36.14474,"lon":-5.35257,"population":26544},{"id":13527003,"name":"Reclamation Areas","ascii":"Reclamation Areas","lat":36.14399,"lon":-5.35689,"population":13690},{"id":13527007,"name":"South District","ascii":"South District","lat":36.11397,"lon":-5.34657,"population":5380},{"id":13527004,"name":"Town Area","ascii":"Town Area","lat":36.12191,"lon":-5.34889,"population":3238},{"id":13527005,"name":"Upper Town","ascii":"Upper Town","lat":36.1356,"lon":-5.35146,"population":2483},{"id":13527006,"name":"Sandpits","ascii":"Sandpits","lat":36.13973,"lon":-5.35619,"population":2020}]