[{"id":2411989,"name":"Serekunda","ascii":"Serekunda","lat":13.43833,"lon":-16.67806,"population":340000},{"id":2413753,"name":"Brikama","nameKo":"브리카마","ascii":"Brikama","lat":13.27136,"lon":-16.64944,"population":97233},{"id":2413709,"name":"Bununka Kunda","ascii":"Bununka Kunda","lat":13.42722,"lon":-16.68528,"population":66449},{"id":2411880,"name":"Sukuta","ascii":"Sukuta","lat":13.41033,"lon":-16.70815,"population":56472},{"id":12640502,"name":"Talinding","ascii":"Talinding","lat":13.42558,"lon":-16.67261,"population":48687},{"id":2413525,"name":"Faji Kunda","ascii":"Faji Kunda","lat":13.41778,"lon":-16.66667,"population":45757},{"id":2413920,"name":"Bakau","nameKo":"바카우","ascii":"Bakau","lat":13.47806,"lon":-16.68194,"population":43098},{"id":2413876,"name":"Banjul","nameKo":"반줄","ascii":"Banjul","lat":13.45274,"lon":-16.57803,"population":37274},{"id":2412452,"name":"Nema Kunku","ascii":"Nema Kunku","lat":13.25,"lon":-15.88333,"population":34390},{"id":2413515,"name":"Farafenni","nameKo":"파라페니","ascii":"Farafenni","lat":13.56667,"lon":-15.6,"population":32883},{"id":12640499,"name":"Bakau New Town","ascii":"Bakau New Town","lat":13.47297,"lon":-16.68514,"population":30325},{"id":2413696,"name":"Busumbala","ascii":"Busumbala","lat":13.33917,"lon":-16.6875,"population":28829},{"id":2412749,"name":"Lamin","ascii":"Lamin","lat":13.35222,"lon":-16.43389,"population":28500},{"id":2411700,"name":"Welingara","ascii":"Welingara","lat":13.40361,"lon":-16.67361,"population":27856},{"id":2413745,"name":"Brufut","ascii":"Brufut","lat":13.38417,"lon":-16.75139,"population":27664},{"id":2413393,"name":"Ibo Town","ascii":"Ibo Town","lat":13.43528,"lon":-16.67639,"population":27353},{"id":2412186,"name":"Sanchaba","ascii":"Sanchaba","lat":13.42222,"lon":-16.70972,"population":25091},{"id":2412738,"name":"Latri Kunda","ascii":"Latri Kunda","lat":13.44861,"lon":-16.68528,"population":23724},{"id":2413419,"name":"Gunjur","ascii":"Gunjur","lat":13.20194,"lon":-16.73389,"population":22741},{"id":2412609,"name":"Manjai Kunda","ascii":"Manjai Kunda","lat":13.44528,"lon":-16.70278,"population":22327},{"id":2413565,"name":"Dippa Kunda","ascii":"Dippa Kunda","lat":13.44028,"lon":-16.68694,"population":21190},{"id":12640501,"name":"New Jeshwang","ascii":"New Jeshwang","lat":13.44735,"lon":-16.665,"population":20878},{"id":2413915,"name":"Bakoti","ascii":"Bakoti","lat":13.43,"lon":-16.69833,"population":20314},{"id":2412786,"name":"Kunkujang","ascii":"Kunkujang","lat":13.38972,"lon":-16.67278,"population":19998},{"id":12640503,"name":"Sinchu Alagi","ascii":"Sinchu Alagi","lat":13.37491,"lon":-16.67841,"population":19672},{"id":2412833,"name":"Kotu","ascii":"Kotu","lat":13.45944,"lon":-16.70528,"population":19634},{"id":2413990,"name":"Abuko","ascii":"Abuko","lat":13.40417,"lon":-16.65583,"population":18978},{"id":2412737,"name":"Latri Sabiji","ascii":"Latri Sabiji","lat":13.41333,"lon":-16.67889,"population":18747},{"id":2411805,"name":"Tanji","nameKo":"탄지","ascii":"Tanji","lat":13.34889,"lon":-16.79083,"population":17441},{"id":2413106,"name":"Kanifing","ascii":"Kanifing","lat":13.44639,"lon":-16.67444,"population":17159},{"id":2411905,"name":"Soma","nameKo":"소마","ascii":"Soma","lat":13.43333,"lon":-15.53333,"population":15210},{"id":2412141,"name":"Sanyang","ascii":"Sanyang","lat":13.26667,"lon":-16.76056,"population":15090},{"id":2413511,"name":"Farato","ascii":"Farato","lat":13.4,"lon":-14.21667,"population":15017},{"id":2413818,"name":"Basse Santa Su","nameKo":"바세산타수","ascii":"Basse Santa Su","lat":13.30995,"lon":-14.21373,"population":14380},{"id":2413450,"name":"Gambissar","ascii":"Gambissar","lat":13.31667,"lon":-13.95,"population":13371},{"id":2411653,"name":"Yundum","ascii":"Yundum","lat":13.34556,"lon":-16.67278,"population":13162},{"id":2411652,"name":"Old Yundum","ascii":"Old Yundum","lat":13.3625,"lon":-16.68611,"population":12042},{"id":2413533,"name":"Essau","ascii":"Essau","lat":13.48389,"lon":-16.53472,"population":11758},{"id":7282416,"name":"Kerr Serign","ascii":"Kerr Serign","lat":13.43247,"lon":-16.7203,"population":11524},{"id":2413445,"name":"Garawol","ascii":"Garawol","lat":13.41667,"lon":-13.95,"population":10547},{"id":2412625,"name":"Mandinari","ascii":"Mandinari","lat":13.37278,"lon":-16.60278,"population":10273},{"id":2413300,"name":"Jamisa","ascii":"Jamisa","lat":13.41667,"lon":-16.71667,"population":9962},{"id":2413866,"name":"Bansang","nameKo":"반상","ascii":"Bansang","lat":13.43333,"lon":-14.65,"population":9528},{"id":2413147,"name":"Kaimbujae NDing","ascii":"Kaimbujae NDing","lat":13.285,"lon":-16.62139,"population":9161},{"id":2412331,"name":"Old Jeswang","ascii":"Old Jeswang","lat":13.45861,"lon":-16.66333,"population":9064},{"id":2411727,"name":"Tujering","ascii":"Tujering","lat":13.31889,"lon":-16.78548,"population":8866},{"id":2412855,"name":"Kololi","ascii":"Kololi","lat":13.45,"lon":-16.71667,"population":8710},{"id":2413788,"name":"Bijilo","ascii":"Bijilo","lat":13.41806,"lon":-16.73,"population":8231},{"id":2413564,"name":"Djalabango","ascii":"Djalabango","lat":13.28056,"lon":-16.67861,"population":8139},{"id":2411949,"name":"Sinchu Balla","ascii":"Sinchu Balla","lat":13.6,"lon":-15.03333,"population":8008},{"id":2412248,"name":"Sabi","ascii":"Sabi","lat":13.23333,"lon":-14.2,"population":7738},{"id":12640504,"name":"Sinchu Sorry","ascii":"Sinchu Sorry","lat":13.38753,"lon":-16.6855,"population":7687},{"id":2412868,"name":"Koina","ascii":"Koina","lat":13.48333,"lon":-13.86667,"population":7462},{"id":2413955,"name":"Badja Kunda","ascii":"Badja Kunda","lat":13.46667,"lon":-14.05,"population":7403},{"id":2412815,"name":"Kulari","ascii":"Kulari","lat":13.4,"lon":-14.08333,"population":7227},{"id":2413874,"name":"Banjul NDing","ascii":"Banjul NDing","lat":13.37333,"lon":-16.65722,"population":7110},{"id":2413971,"name":"Alohungari","ascii":"Alohungari","lat":13.31667,"lon":-14.23333,"population":6726},{"id":2413304,"name":"Jambanjali","ascii":"Jambanjali","lat":13.28028,"lon":-16.72944,"population":6343},{"id":2412703,"name":"Madiana","ascii":"Madiana","lat":13.51667,"lon":-14.53333,"population":6069},{"id":2413827,"name":"Barra","ascii":"Barra","lat":13.48278,"lon":-16.54556,"population":6020},{"id":2411976,"name":"Sifoe","ascii":"Sifoe","lat":13.18361,"lon":-16.6975,"population":6015},{"id":2412992,"name":"Kerewan","ascii":"Kerewan","lat":13.4898,"lon":-16.08879,"population":5485},{"id":2413061,"name":"Kartung","ascii":"Kartung","lat":13.09472,"lon":-16.76222,"population":5213},{"id":2413749,"name":"Brikama Ba","ascii":"Brikama Ba","lat":13.53333,"lon":-14.93333,"population":5086},{"id":2413598,"name":"Demba Kunda","ascii":"Demba Kunda","lat":13.25,"lon":-14.26667,"population":4817},{"id":2413437,"name":"Janjanbureh","ascii":"Janjanbureh","lat":13.54039,"lon":-14.76374,"population":4547},{"id":12640500,"name":"Bakau Wasulun","ascii":"Bakau Wasulun","lat":13.48373,"lon":-16.66892,"population":4255},{"id":2413691,"name":"Bwiam","ascii":"Bwiam","lat":13.23528,"lon":-16.08639,"population":3834},{"id":2413580,"name":"Diabugu","ascii":"Diabugu","lat":13.38333,"lon":-14.4,"population":3722},{"id":2412229,"name":"Salikene","ascii":"Salikene","lat":13.48333,"lon":-15.96667,"population":3403},{"id":2413143,"name":"Kalagi","ascii":"Kalagi","lat":13.24855,"lon":-15.83559,"population":2825},{"id":2412199,"name":"Sami","ascii":"Sami","lat":13.58333,"lon":-15.2,"population":2794},{"id":2413265,"name":"Jarreng","ascii":"Jarreng","lat":13.61667,"lon":-15.18333,"population":2705},{"id":2411863,"name":"Sutukoba","ascii":"Sutukoba","lat":13.5,"lon":-14.01667,"population":2693},{"id":2411903,"name":"Somita","ascii":"Somita","lat":13.20583,"lon":-16.30556,"population":2541},{"id":2412315,"name":"Pakali Nding","ascii":"Pakali Nding","lat":13.46667,"lon":-15.55,"population":2537},{"id":2412778,"name":"Kuntaur","ascii":"Kuntaur","lat":13.67085,"lon":-14.88977,"population":2534},{"id":2413724,"name":"Bulok","ascii":"Bulok","lat":13.17667,"lon":-16.41583,"population":2312},{"id":2412344,"name":"Nyamanari","ascii":"Nyamanari","lat":13.33333,"lon":-13.86667,"population":2090},{"id":2413830,"name":"Baro Kunda","ascii":"Baro Kunda","lat":13.48333,"lon":-15.26667,"population":1991},{"id":2413926,"name":"Bakadagy","ascii":"Bakadagy","lat":13.3,"lon":-14.38333,"population":1979},{"id":2412605,"name":"Mansa Konko","ascii":"Mansa Konko","lat":13.44325,"lon":-15.5357,"population":1978},{"id":2412252,"name":"Saba","ascii":"Saba","lat":13.51639,"lon":-16.04917,"population":1974},{"id":2411999,"name":"Saruja","ascii":"Saruja","lat":13.55,"lon":-14.91667,"population":1959},{"id":2412355,"name":"No Kunda","ascii":"No Kunda","lat":13.56667,"lon":-15.83333,"population":1913},{"id":2413456,"name":"Galleh Manda","ascii":"Galleh Manda","lat":13.43333,"lon":-14.78333,"population":1872},{"id":2412158,"name":"Sankwia","ascii":"Sankwia","lat":13.46667,"lon":-15.51667,"population":1831},{"id":2413985,"name":"Albadarr","ascii":"Albadarr","lat":13.33444,"lon":-16.38667,"population":1829},{"id":2413160,"name":"Kaiaf","ascii":"Kaiaf","lat":13.4,"lon":-15.61667,"population":1819},{"id":2413365,"name":"Jakhaly","ascii":"Jakhaly","lat":13.55,"lon":-14.96667,"population":1793},{"id":2413023,"name":"Keneba","ascii":"Keneba","lat":13.32889,"lon":-16.015,"population":1775},{"id":2412807,"name":"Kumbija","ascii":"Kumbija","lat":13.26667,"lon":-14.18333,"population":1760},{"id":2411765,"name":"Toniataba","ascii":"Toniataba","lat":13.43333,"lon":-15.58333,"population":1755},{"id":2413070,"name":"Karantaba","ascii":"Karantaba","lat":13.66667,"lon":-15.03333,"population":1753},{"id":2412408,"name":"Nioro","ascii":"Nioro","lat":13.35,"lon":-15.75,"population":1746},{"id":2413041,"name":"Katchang","ascii":"Katchang","lat":13.5,"lon":-15.75,"population":1741},{"id":2413588,"name":"Denton","ascii":"Denton","lat":13.5,"lon":-14.93333,"population":1712},{"id":2413645,"name":"Dankunku","ascii":"Dankunku","lat":13.56667,"lon":-15.31667,"population":1641},{"id":2413417,"name":"Gunjur Kuta","ascii":"Gunjur Kuta","lat":13.53333,"lon":-14.11667,"population":1566},{"id":2411862,"name":"Sutukung","ascii":"Sutukung","lat":13.46667,"lon":-15.26667,"population":1506},{"id":2411885,"name":"Sudowol","ascii":"Sudowol","lat":13.36667,"lon":-13.96667,"population":1502},{"id":2413436,"name":"Ghana Town","ascii":"Ghana Town","lat":13.38444,"lon":-16.77111,"population":1500},{"id":2411692,"name":"Wellingara Ba","ascii":"Wellingara Ba","lat":13.41667,"lon":-15.4,"population":1476},{"id":2413703,"name":"Bureng","ascii":"Bureng","lat":13.41667,"lon":-15.28333,"population":1472},{"id":2411703,"name":"Wassu","ascii":"Wassu","lat":13.69094,"lon":-14.87884,"population":1380},{"id":2413073,"name":"Karantaba","ascii":"Karantaba","lat":13.43333,"lon":-15.51667,"population":1372},{"id":2411877,"name":"Sukuta","ascii":"Sukuta","lat":13.61667,"lon":-14.91667,"population":1364},{"id":2411970,"name":"Si Kunda","ascii":"Si Kunda","lat":13.43333,"lon":-15.56667,"population":1344},{"id":2413418,"name":"Gunjur","ascii":"Gunjur","lat":13.52278,"lon":-16.02778,"population":1327},{"id":2412135,"name":"Sara Kunda","ascii":"Sara Kunda","lat":13.53333,"lon":-15.41667,"population":1316},{"id":2411866,"name":"Sun Kunda","ascii":"Sun Kunda","lat":13.38333,"lon":-13.85,"population":1306},{"id":2413653,"name":"Daba Kunda","ascii":"Daba Kunda","lat":13.31667,"lon":-14.3,"population":1302},{"id":2413755,"name":"Brifu","ascii":"Brifu","lat":13.5,"lon":-13.93333,"population":1292},{"id":2413895,"name":"Bambali","ascii":"Bambali","lat":13.48333,"lon":-15.33333,"population":1255},{"id":2413246,"name":"Jenoi","ascii":"Jenoi","lat":13.48333,"lon":-15.56667,"population":1254},{"id":2413660,"name":"Chilla","ascii":"Chilla","lat":13.55,"lon":-16.28333,"population":1249},{"id":2413965,"name":"Amdalai","ascii":"Amdalai","lat":13.43194,"lon":-16.7225,"population":1245},{"id":2412775,"name":"Kunting","ascii":"Kunting","lat":13.53333,"lon":-14.66667,"population":1204},{"id":2413579,"name":"Diabugu Basilla","ascii":"Diabugu Basilla","lat":13.33333,"lon":-13.95,"population":1199},{"id":2412279,"name":"Pateh Sam","ascii":"Pateh Sam","lat":13.61667,"lon":-15.06667,"population":1164},{"id":2413052,"name":"Kass Wollof","ascii":"Kass Wollof","lat":13.78333,"lon":-14.93333,"population":1109},{"id":2413746,"name":"Brikama Nding","ascii":"Brikama Nding","lat":13.53333,"lon":-14.93333,"population":1092},{"id":2413623,"name":"Daru Rilwan","ascii":"Daru Rilwan","lat":13.55,"lon":-15.98333,"population":1045},{"id":2413235,"name":"Jifarong","ascii":"Jifarong","lat":13.3,"lon":-15.86667,"population":1038},{"id":2412272,"name":"Perai","ascii":"Perai","lat":13.38333,"lon":-14.03333,"population":1026},{"id":2413344,"name":"Jali","ascii":"Jali","lat":13.35,"lon":-15.96667,"population":1024}]