[{"id":3578959,"name":"Les Abymes","ascii":"Les Abymes","lat":16.273,"lon":-61.50507,"population":53514},{"id":3579767,"name":"Baie-Mahault","ascii":"Baie-Mahault","lat":16.26738,"lon":-61.58543,"population":30837},{"id":3578978,"name":"Le Gosier","ascii":"Le Gosier","lat":16.20618,"lon":-61.49306,"population":28698},{"id":3578682,"name":"Petit-Bourg","ascii":"Petit-Bourg","lat":16.19163,"lon":-61.5914,"population":24994},{"id":3578466,"name":"Sainte-Anne","ascii":"Sainte-Anne","lat":16.22564,"lon":-61.38098,"population":22859},{"id":3578967,"name":"Le Moule","ascii":"Le Moule","lat":16.33164,"lon":-61.34656,"population":22692},{"id":3578447,"name":"Sainte-Rose","ascii":"Sainte-Rose","lat":16.33264,"lon":-61.6969,"population":20192},{"id":3579585,"name":"Capesterre-Belle-Eau","ascii":"Capesterre-Belle-Eau","lat":16.04495,"lon":-61.56425,"population":19821},{"id":3578599,"name":"Pointe-à-Pitre","ascii":"Pointe-a-Pitre","lat":16.23638,"lon":-61.53459,"population":15181},{"id":3579023,"name":"Lamentin","ascii":"Lamentin","lat":16.27047,"lon":-61.63166,"population":14891},{"id":3578441,"name":"Saint-François","ascii":"Saint-Francois","lat":16.25236,"lon":-61.27332,"population":12732},{"id":3579732,"name":"Basse-Terre","nameKo":"바스테르","ascii":"Basse-Terre","lat":15.99714,"lon":-61.73214,"population":11472},{"id":3578467,"name":"Saint-Claude","ascii":"Saint-Claude","lat":16.02515,"lon":-61.69975,"population":10134},{"id":3578324,"name":"Trois-Rivières","ascii":"Trois-Rivieres","lat":15.97595,"lon":-61.64492,"population":8812},{"id":3579267,"name":"Gourbeyre","ascii":"Gourbeyre","lat":15.99454,"lon":-61.69203,"population":8571},{"id":3578681,"name":"Petit-Canal","ascii":"Petit-Canal","lat":16.37913,"lon":-61.48716,"population":8554},{"id":3578594,"name":"Pointe-Noire","ascii":"Pointe-Noire","lat":16.23218,"lon":-61.78917,"population":7749},{"id":3578278,"name":"Vieux-Habitants","ascii":"Vieux-Habitants","lat":16.05866,"lon":-61.76667,"population":7728},{"id":3579250,"name":"Grand-Bourg","ascii":"Grand-Bourg","lat":15.88402,"lon":-61.3148,"population":5867},{"id":3579761,"name":"Baillif","ascii":"Baillif","lat":16.02037,"lon":-61.74611,"population":5705},{"id":3578575,"name":"Port-Louis","ascii":"Port-Louis","lat":16.41749,"lon":-61.53045,"population":5515},{"id":3579789,"name":"Anse-Bertrand","ascii":"Anse-Bertrand","lat":16.47239,"lon":-61.50739,"population":5146},{"id":3579429,"name":"Deshaies","ascii":"Deshaies","lat":16.30672,"lon":-61.79435,"population":3792},{"id":3579232,"name":"Beauséjour","ascii":"Beausejour","lat":16.30413,"lon":-61.07375,"population":1716},{"id":3578351,"name":"Petites Anses","ascii":"Petites Anses","lat":15.84993,"lon":-61.64457,"population":1314}]