[{"id":3598132,"name":"Guatemala City","nameKo":"과테말라시티","ascii":"Guatemala City","lat":14.64072,"lon":-90.51327,"population":994938},{"id":3587902,"name":"Villa Nueva","ascii":"Villa Nueva","lat":14.52512,"lon":-90.58544,"population":618397},{"id":3592519,"name":"Mixco","ascii":"Mixco","lat":14.63077,"lon":-90.60711,"population":465773},{"id":3598119,"name":"Cobán","nameKo":"코반","ascii":"Coban","lat":15.47025,"lon":-90.37455,"population":212047},{"id":3590979,"name":"Quetzaltenango","nameKo":"케트살테낭고","ascii":"Quetzaltenango","lat":14.84462,"lon":-91.52316,"population":180706},{"id":3595237,"name":"Jalapa","ascii":"Jalapa","lat":14.63542,"lon":-89.99112,"population":159840},{"id":3595803,"name":"Escuintla","ascii":"Escuintla","lat":14.30097,"lon":-90.78816,"population":156313},{"id":3587923,"name":"Villa Canales","ascii":"Villa Canales","lat":14.48285,"lon":-90.53425,"population":155423},{"id":3595069,"name":"Jutiapa","ascii":"Jutiapa","lat":14.28491,"lon":-89.88798,"population":145880},{"id":3598655,"name":"Chichicastenango","ascii":"Chichicastenango","lat":14.94333,"lon":-91.11116,"population":141567},{"id":3589885,"name":"San Juan Sacatepéquez","ascii":"San Juan Sacatepequez","lat":14.71889,"lon":-90.64417,"population":136886},{"id":3591415,"name":"Petapa","ascii":"Petapa","lat":14.50189,"lon":-90.56196,"population":135447},{"id":3589289,"name":"Santa Lucía Cotzumalguapa","ascii":"Santa Lucia Cotzumalguapa","lat":14.33505,"lon":-91.02339,"population":112780},{"id":3598465,"name":"Chiquimula","ascii":"Chiquimula","lat":14.8009,"lon":-89.54641,"population":111505},{"id":3598122,"name":"Coatepeque","ascii":"Coatepeque","lat":14.70413,"lon":-91.86426,"population":105415},{"id":3598529,"name":"Chinautla","ascii":"Chinautla","lat":14.70289,"lon":-90.49983,"population":104972},{"id":3588258,"name":"Totonicapán","ascii":"Totonicapan","lat":14.91188,"lon":-91.36054,"population":103952},{"id":3591062,"name":"Puerto Barrios","ascii":"Puerto Barrios","lat":15.72724,"lon":-88.59787,"population":100593},{"id":3598572,"name":"Chimaltenango","ascii":"Chimaltenango","lat":14.65881,"lon":-90.8216,"population":96985},{"id":3592753,"name":"Malacatán","ascii":"Malacatan","lat":14.91132,"lon":-92.05788,"population":92816},{"id":3590858,"name":"Retalhuleu","ascii":"Retalhuleu","lat":14.53575,"lon":-91.67848,"population":90505},{"id":3589452,"name":"Santa Catarina Pinula","ascii":"Santa Catarina Pinula","lat":14.57047,"lon":-90.49925,"population":80582},{"id":3589977,"name":"San José Pinula","ascii":"San Jose Pinula","lat":14.546,"lon":-90.41288,"population":79844},{"id":3595416,"name":"Huehuetenango","nameKo":"우에우에테낭고","ascii":"Huehuetenango","lat":15.32097,"lon":-91.47001,"population":79426},{"id":3589404,"name":"Santa Cruz del Quiché","ascii":"Santa Cruz del Quiche","lat":15.02995,"lon":-91.14876,"population":78279},{"id":3592609,"name":"Mazatenango","ascii":"Mazatenango","lat":14.53412,"lon":-91.50311,"population":77431},{"id":3591676,"name":"Panzos","ascii":"Panzos","lat":15.39862,"lon":-89.64147,"population":71846},{"id":3599735,"name":"Amatitlán","ascii":"Amatitlan","lat":14.4774,"lon":-90.63489,"population":71836},{"id":3591833,"name":"Palín","ascii":"Palin","lat":14.40358,"lon":-90.69659,"population":65873},{"id":3590616,"name":"Salamá","ascii":"Salama","lat":15.1021,"lon":-90.31906,"population":65275},{"id":3598678,"name":"Chicacao","ascii":"Chicacao","lat":14.54295,"lon":-91.32636,"population":60735},{"id":3587587,"name":"Zacapa","ascii":"Zacapa","lat":14.96867,"lon":-89.52732,"population":60424},{"id":3598025,"name":"Comitancillo","ascii":"Comitancillo","lat":15.08937,"lon":-91.74971,"population":59489},{"id":3595714,"name":"Fraijanes","ascii":"Fraijanes","lat":14.46528,"lon":-90.44083,"population":58922},{"id":3589646,"name":"San Pedro Ayampuc","ascii":"San Pedro Ayampuc","lat":14.77943,"lon":-90.45318,"population":58609},{"id":3591512,"name":"Patzún","ascii":"Patzun","lat":14.68189,"lon":-91.01397,"population":58240},{"id":3590219,"name":"San Francisco El Alto","ascii":"San Francisco El Alto","lat":14.9449,"lon":-91.4431,"population":57894},{"id":3591997,"name":"Ostuncalco","ascii":"Ostuncalco","lat":14.86899,"lon":-91.62137,"population":51828},{"id":3588694,"name":"Soloma","ascii":"Soloma","lat":15.65841,"lon":-91.42994,"population":49030},{"id":3599639,"name":"Asunción Mita","ascii":"Asuncion Mita","lat":14.33365,"lon":-89.71094,"population":48297},{"id":3598073,"name":"Colomba","ascii":"Colomba","lat":14.7073,"lon":-91.73167,"population":47544},{"id":3599582,"name":"Barberena","ascii":"Barberena","lat":14.30739,"lon":-90.36156,"population":47093},{"id":3589805,"name":"San Marcos","nameKo":"산마르코스","ascii":"San Marcos","lat":14.96437,"lon":-91.79486,"population":47063},{"id":3599699,"name":"Antigua Guatemala","ascii":"Antigua Guatemala","lat":14.55636,"lon":-90.7332,"population":46054},{"id":3588698,"name":"Sololá","ascii":"Solola","lat":14.7707,"lon":-91.18344,"population":45373},{"id":3592642,"name":"Masagua","ascii":"Masagua","lat":14.20306,"lon":-90.84806,"population":45323},{"id":3599069,"name":"Cantel","ascii":"Cantel","lat":14.81154,"lon":-91.45536,"population":42142},{"id":3597804,"name":"Cuilapa","ascii":"Cuilapa","lat":14.27537,"lon":-90.29865,"population":41359},{"id":3591541,"name":"Patulul","ascii":"Patulul","lat":14.42321,"lon":-91.16049,"population":40683},{"id":3589626,"name":"San Pedro Sacatepéquez","ascii":"San Pedro Sacatepequez","lat":14.96807,"lon":-91.76172,"population":40021},{"id":3592105,"name":"Nuevo San Carlos","ascii":"Nuevo San Carlos","lat":14.593,"lon":-91.6939,"population":39565},{"id":3595248,"name":"Jacaltenango","ascii":"Jacaltenango","lat":15.66662,"lon":-91.71177,"population":37171},{"id":3587636,"name":"Yepocapa","ascii":"Yepocapa","lat":14.50195,"lon":-90.95396,"population":34948},{"id":3588476,"name":"Tecpán Guatemala","ascii":"Tecpan Guatemala","lat":14.76181,"lon":-90.99247,"population":34519},{"id":3598128,"name":"Ciudad Vieja","ascii":"Ciudad Vieja","lat":14.52396,"lon":-90.76308,"population":33405},{"id":3589105,"name":"Santiago Atitlán","ascii":"Santiago Atitlan","lat":14.63823,"lon":-91.22901,"population":33309},{"id":3598034,"name":"Comalapa","ascii":"Comalapa","lat":14.74086,"lon":-90.88761,"population":32312},{"id":3592483,"name":"Momostenango","ascii":"Momostenango","lat":15.04437,"lon":-91.40864,"population":31739},{"id":3590389,"name":"San Benito","ascii":"San Benito","lat":16.91675,"lon":-89.91898,"population":30764},{"id":3589101,"name":"Santiago Sacatepéquez","ascii":"Santiago Sacatepequez","lat":14.6351,"lon":-90.67654,"population":29238},{"id":3589548,"name":"San Sebastián","ascii":"San Sebastian","lat":14.56177,"lon":-91.64865,"population":29167},{"id":3595232,"name":"Jalpatagua","ascii":"Jalpatagua","lat":14.1369,"lon":-90.00908,"population":28832},{"id":3588653,"name":"Sumpango","ascii":"Sumpango","lat":14.64623,"lon":-90.73427,"population":28488},{"id":3592286,"name":"Nahualá","ascii":"Nahuala","lat":14.8429,"lon":-91.31799,"population":27690},{"id":3590529,"name":"San Andrés Itzapa","ascii":"San Andres Itzapa","lat":14.62222,"lon":-90.84314,"population":24992},{"id":3596421,"name":"Guastatoya","ascii":"Guastatoya","lat":14.85442,"lon":-90.06991,"population":24831},{"id":3589822,"name":"San Luis Jilotepeque","ascii":"San Luis Jilotepeque","lat":14.64724,"lon":-89.72463,"population":24679},{"id":3590288,"name":"San Felipe","ascii":"San Felipe","lat":14.62304,"lon":-91.595,"population":24446},{"id":3587543,"name":"Zaragoza","ascii":"Zaragoza","lat":14.64968,"lon":-90.89034,"population":24022},{"id":3594575,"name":"La Gomera","ascii":"La Gomera","lat":14.08213,"lon":-91.05383,"population":24001},{"id":3599788,"name":"Alotenango","ascii":"Alotenango","lat":14.48585,"lon":-90.80437,"population":23986},{"id":3592237,"name":"Nebaj","ascii":"Nebaj","lat":15.40614,"lon":-91.14682,"population":23301},{"id":3599287,"name":"Cabricán","ascii":"Cabrican","lat":15.07485,"lon":-91.648,"population":23033},{"id":3590197,"name":"San Francisco Zapotitlán","ascii":"San Francisco Zapotitlan","lat":14.58939,"lon":-91.52144,"population":22533},{"id":3589253,"name":"Santa María de Jesús","ascii":"Santa Maria de Jesus","lat":14.49452,"lon":-90.71036,"population":21795},{"id":3591523,"name":"Patzicía","ascii":"Patzicia","lat":14.63194,"lon":-90.92659,"population":21249},{"id":3589852,"name":"San Lucas Sacatepéquez","ascii":"San Lucas Sacatepequez","lat":14.61075,"lon":-90.65681,"population":20723},{"id":3595783,"name":"Esquipulas","ascii":"Esquipulas","lat":14.56571,"lon":-89.35166,"population":20674},{"id":3597078,"name":"El Estor","ascii":"El Estor","lat":15.53221,"lon":-89.33111,"population":20489},{"id":3595725,"name":"Flores","nameKo":"플로레스","ascii":"Flores","lat":16.92258,"lon":-89.89941,"population":20464},{"id":3589671,"name":"San Pablo Jocopilas","ascii":"San Pablo Jocopilas","lat":14.58882,"lon":-91.45188,"population":20433},{"id":3590316,"name":"San Cristóbal Verapaz","ascii":"San Cristobal Verapaz","lat":15.36663,"lon":-90.47825,"population":19664},{"id":3590605,"name":"Salcajá","ascii":"Salcaja","lat":14.87964,"lon":-91.45699,"population":19434},{"id":3595560,"name":"Gualán","ascii":"Gualan","lat":15.11952,"lon":-89.35721,"population":19354},{"id":3592362,"name":"Morales","ascii":"Morales","lat":15.47225,"lon":-88.8407,"population":18994},{"id":3595503,"name":"Guazacapán","ascii":"Guazacapan","lat":14.07417,"lon":-90.41667,"population":18855},{"id":3591060,"name":"Puerto San José","ascii":"Puerto San Jose","lat":13.92216,"lon":-90.81906,"population":18655},{"id":3591851,"name":"Palencia","ascii":"Palencia","lat":14.66715,"lon":-90.35721,"population":18574},{"id":3591093,"name":"Tiquisate","ascii":"Tiquisate","lat":14.28356,"lon":-91.36063,"population":18189},{"id":3593376,"name":"Lívingston","ascii":"Livingston","lat":15.82826,"lon":-88.75039,"population":17923},{"id":3595171,"name":"Jocotenango","ascii":"Jocotenango","lat":14.57814,"lon":-90.73804,"population":17918},{"id":3597587,"name":"El Asintal","ascii":"El Asintal","lat":14.59626,"lon":-91.72744,"population":17388},{"id":3591181,"name":"Poptún","ascii":"Poptun","lat":16.33111,"lon":-89.41694,"population":17320},{"id":3589475,"name":"Santa Bárbara","ascii":"Santa Barbara","lat":14.43563,"lon":-91.22685,"population":17172},{"id":3598415,"name":"Chisec","ascii":"Chisec","lat":15.81311,"lon":-90.28896,"population":17018},{"id":3594703,"name":"La Esperanza","ascii":"La Esperanza","lat":14.87169,"lon":-91.5614,"population":16461},{"id":3589643,"name":"San Pedro Carchá","ascii":"San Pedro Carcha","lat":15.47745,"lon":-90.31105,"population":16353},{"id":3590406,"name":"Sanarate","ascii":"Sanarate","lat":14.78828,"lon":-90.19876,"population":15843},{"id":3596041,"name":"El Tejar","ascii":"El Tejar","lat":14.64683,"lon":-90.79122,"population":15639},{"id":3596644,"name":"El Palmar","ascii":"El Palmar","lat":14.65083,"lon":-91.578,"population":15167},{"id":3590924,"name":"Rabinal","ascii":"Rabinal","lat":15.0853,"lon":-90.49255,"population":15157},{"id":3590520,"name":"San Andrés Xecul","ascii":"San Andres Xecul","lat":14.90482,"lon":-91.48307,"population":15074},{"id":3589458,"name":"Santa Catarina Ixtahuacán","ascii":"Santa Catarina Ixtahuacan","lat":14.79797,"lon":-91.35866,"population":14734},{"id":3589850,"name":"San Lucas Tolimán","ascii":"San Lucas Toliman","lat":14.59471,"lon":-91.14659,"population":14545},{"id":3589627,"name":"San Pedro Sacatepéquez","ascii":"San Pedro Sacatepequez","lat":14.68612,"lon":-90.64253,"population":14315},{"id":3587510,"name":"Zunil","ascii":"Zunil","lat":14.78463,"lon":-91.48345,"population":14118},{"id":3599575,"name":"Barillas","ascii":"Barillas","lat":15.80361,"lon":-91.31583,"population":14100},{"id":3589730,"name":"San Miguel Chicaj","ascii":"San Miguel Chicaj","lat":15.09472,"lon":-90.39442,"population":13747},{"id":3589677,"name":"San Pablo","ascii":"San Pablo","lat":14.93269,"lon":-92.00415,"population":13668},{"id":3590412,"name":"San Antonio Suchitepéquez","ascii":"San Antonio Suchitepequez","lat":14.53938,"lon":-91.41442,"population":13666},{"id":3592477,"name":"Monjas","ascii":"Monjas","lat":14.50309,"lon":-89.87246,"population":13541},{"id":3594753,"name":"La Democracia","ascii":"La Democracia","lat":14.22919,"lon":-90.94806,"population":13400},{"id":3589917,"name":"San Juan Chamelco","ascii":"San Juan Chamelco","lat":15.42433,"lon":-90.33044,"population":13264},{"id":3589770,"name":"San Mateo Ixtatán","ascii":"San Mateo Ixtatan","lat":15.83194,"lon":-91.47806,"population":13213},{"id":3595148,"name":"Joyabaj","ascii":"Joyabaj","lat":14.99311,"lon":-90.80161,"population":13164},{"id":3598462,"name":"Chiquimulilla","ascii":"Chiquimulilla","lat":14.0838,"lon":-90.38547,"population":12842},{"id":3591574,"name":"Pastores","ascii":"Pastores","lat":14.59433,"lon":-90.75473,"population":12621},{"id":3599793,"name":"Almolonga","ascii":"Almolonga","lat":14.81591,"lon":-91.49464,"population":12299},{"id":3589285,"name":"Santa Lucía Milpas Altas","ascii":"Santa Lucia Milpas Altas","lat":14.57655,"lon":-90.67632,"population":12234},{"id":3600008,"name":"Acatenango","ascii":"Acatenango","lat":14.55451,"lon":-90.94368,"population":12136},{"id":3596389,"name":"El Quetzal","ascii":"El Quetzal","lat":14.76865,"lon":-91.81757,"population":12122},{"id":3590690,"name":"Sacapulas","ascii":"Sacapulas","lat":15.28801,"lon":-91.08914,"population":12088},{"id":3588858,"name":"Senahú","ascii":"Senahu","lat":15.4164,"lon":-89.82215,"population":12084},{"id":3595721,"name":"Flores Costa Cuca","ascii":"Flores Costa Cuca","lat":14.63238,"lon":-91.86341,"population":11984},{"id":3592770,"name":"Magdalena Milpas Altas","ascii":"Magdalena Milpas Altas","lat":14.54801,"lon":-90.67477,"population":11856},{"id":3598804,"name":"Chajul","ascii":"Chajul","lat":15.48523,"lon":-91.0352,"population":11657},{"id":3599633,"name":"Atescatempa","ascii":"Atescatempa","lat":14.1755,"lon":-89.74184,"population":11543},{"id":3598131,"name":"Melchor de Mencos","ascii":"Melchor de Mencos","lat":17.06606,"lon":-89.15229,"population":11457},{"id":3598129,"name":"Ciudad Tecún Umán","ascii":"Ciudad Tecun Uman","lat":14.67737,"lon":-92.14039,"population":11432},{"id":3591750,"name":"Panajachel","ascii":"Panajachel","lat":14.74185,"lon":-91.15676,"population":11142},{"id":3592145,"name":"Nueva Concepción","ascii":"Nueva Concepcion","lat":14.2,"lon":-91.3,"population":11121},{"id":3589913,"name":"San Juan Cotzal","ascii":"San Juan Cotzal","lat":15.43368,"lon":-91.03481,"population":11046},{"id":3597750,"name":"Cuyotenango","ascii":"Cuyotenango","lat":14.54006,"lon":-91.57179,"population":10825},{"id":3589456,"name":"Santa Catarina Mita","ascii":"Santa Catarina Mita","lat":14.45131,"lon":-89.74285,"population":10817},{"id":3597837,"name":"Cubulco","ascii":"Cubulco","lat":15.10452,"lon":-90.62871,"population":10681},{"id":3597722,"name":"Dolores","ascii":"Dolores","lat":16.51178,"lon":-89.41704,"population":10604},{"id":3590547,"name":"San Agustín Acasaguastlán","ascii":"San Agustin Acasaguastlan","lat":14.945,"lon":-89.96967,"population":10335},{"id":3592019,"name":"Oratorio","ascii":"Oratorio","lat":14.22806,"lon":-90.17583,"population":10155},{"id":3592126,"name":"Nueva Santa Rosa","ascii":"Nueva Santa Rosa","lat":14.38111,"lon":-90.27611,"population":10130},{"id":11449731,"name":"Nuevo León","ascii":"Nuevo Leon","lat":15.79369,"lon":-91.09237,"population":10000},{"id":3595406,"name":"Huitán","ascii":"Huitan","lat":15.0492,"lon":-91.63944,"population":9958},{"id":3598787,"name":"Champerico","ascii":"Champerico","lat":14.29206,"lon":-91.91339,"population":9941},{"id":3589780,"name":"San Martín Jilotepeque","ascii":"San Martin Jilotepeque","lat":14.78008,"lon":-90.79259,"population":9846},{"id":3589637,"name":"San Pedro La Laguna","ascii":"San Pedro La Laguna","lat":14.69297,"lon":-91.27201,"population":9681},{"id":3591629,"name":"Parramos","ascii":"Parramos","lat":14.60891,"lon":-90.80303,"population":9613},{"id":3589507,"name":"Santa Ana","ascii":"Santa Ana","lat":16.80582,"lon":-89.82708,"population":9523},{"id":3587578,"name":"Zacualpa","ascii":"Zacualpa","lat":15.02681,"lon":-90.87815,"population":9241},{"id":3590323,"name":"San Cristóbal Cucho","ascii":"San Cristobal Cucho","lat":14.90505,"lon":-91.78123,"population":9152},{"id":3588984,"name":"Sayaxché","ascii":"Sayaxche","lat":16.52446,"lon":-90.18801,"population":9100},{"id":3588603,"name":"Tactic","ascii":"Tactic","lat":15.32218,"lon":-90.35448,"population":8999},{"id":3590567,"name":"Samayac","ascii":"Samayac","lat":14.58084,"lon":-91.46135,"population":8994},{"id":3595757,"name":"Estanzuela","ascii":"Estanzuela","lat":14.99777,"lon":-89.57285,"population":8937},{"id":3598005,"name":"Concepción Huista","ascii":"Concepcion Huista","lat":15.62378,"lon":-91.66521,"population":8925},{"id":3595929,"name":"El Tumbador","ascii":"El Tumbador","lat":14.86375,"lon":-91.93416,"population":8856},{"id":3589072,"name":"Santo Domingo Xenacoj","ascii":"Santo Domingo Xenacoj","lat":14.68057,"lon":-90.70012,"population":8791},{"id":3589569,"name":"San Raimundo","ascii":"San Raimundo","lat":14.76462,"lon":-90.59493,"population":8689},{"id":3594422,"name":"La Libertad","ascii":"La Libertad","lat":16.7885,"lon":-90.11698,"population":8646},{"id":3598692,"name":"Chiantla","ascii":"Chiantla","lat":15.35484,"lon":-91.45807,"population":8465},{"id":3589727,"name":"San Miguel Dueñas","ascii":"San Miguel Duenas","lat":14.52241,"lon":-90.79938,"population":8424},{"id":3597772,"name":"Cunén","ascii":"Cunen","lat":15.33626,"lon":-91.02776,"population":8400},{"id":3595181,"name":"Jocotán","ascii":"Jocotan","lat":14.82072,"lon":-89.38991,"population":8387},{"id":3591885,"name":"Pajapita","ascii":"Pajapita","lat":14.72152,"lon":-92.03521,"population":8164},{"id":3592322,"name":"Moyuta","ascii":"Moyuta","lat":14.03861,"lon":-90.08083,"population":8145},{"id":3592108,"name":"Nuevo Progreso","ascii":"Nuevo Progreso","lat":14.79174,"lon":-91.91946,"population":8113},{"id":3590114,"name":"San Jerónimo","ascii":"San Jeronimo","lat":15.06032,"lon":-90.2405,"population":8093},{"id":3597993,"name":"Concepción Chiquirichapa","ascii":"Concepcion Chiquirichapa","lat":14.8551,"lon":-91.6236,"population":8080},{"id":3589408,"name":"Santa Cruz Balanyá","ascii":"Santa Cruz Balanya","lat":14.68522,"lon":-90.91906,"population":7825},{"id":3590475,"name":"San Antonio Aguas Calientes","ascii":"San Antonio Aguas Calientes","lat":14.54676,"lon":-90.78054,"population":7811},{"id":3590449,"name":"San Antonio La Paz","ascii":"San Antonio La Paz","lat":14.75888,"lon":-90.28485,"population":7781},{"id":3598968,"name":"Casillas","ascii":"Casillas","lat":14.41915,"lon":-90.24328,"population":7698},{"id":3590804,"name":"Río Bravo","ascii":"Rio Bravo","lat":14.40042,"lon":-91.31713,"population":7568},{"id":3589706,"name":"San Miguel Sigüilá","ascii":"San Miguel Siguila","lat":14.89547,"lon":-91.61457,"population":7551},{"id":3592635,"name":"Mataquescuintla","ascii":"Mataquescuintla","lat":14.52917,"lon":-90.18417,"population":7539},{"id":3598825,"name":"Chahal","ascii":"Chahal","lat":15.79122,"lon":-89.60518,"population":7465},{"id":3596423,"name":"El Progreso","ascii":"El Progreso","lat":14.35604,"lon":-89.84854,"population":7350},{"id":3590537,"name":"San Andrés","ascii":"San Andres","lat":16.96863,"lon":-89.91181,"population":7235},{"id":3589036,"name":"San Vicente Pacaya","ascii":"San Vicente Pacaya","lat":14.41466,"lon":-90.63613,"population":7162},{"id":3598277,"name":"Chuarrancho","ascii":"Chuarrancho","lat":14.81794,"lon":-90.51568,"population":7149},{"id":3589062,"name":"Santo Tomás La Unión","ascii":"Santo Tomas La Union","lat":14.63219,"lon":-91.41075,"population":7081},{"id":3589256,"name":"Santa María Chiquimula","ascii":"Santa Maria Chiquimula","lat":15.02992,"lon":-91.3292,"population":6980},{"id":3590347,"name":"San Carlos Sija","ascii":"San Carlos Sija","lat":14.98436,"lon":-91.54912,"population":6831},{"id":3589841,"name":"San Luis","ascii":"San Luis","lat":16.19889,"lon":-89.44028,"population":6776},{"id":3588043,"name":"Uspantán","ascii":"Uspantan","lat":15.34672,"lon":-90.8705,"population":6664},{"id":3588491,"name":"Taxisco","ascii":"Taxisco","lat":14.06719,"lon":-90.46791,"population":6518},{"id":3594423,"name":"La Libertad","ascii":"La Libertad","lat":15.51421,"lon":-91.86944,"population":6439},{"id":3588612,"name":"Tacaná","ascii":"Tacana","lat":15.24058,"lon":-92.06721,"population":6438},{"id":3588469,"name":"Teculután","ascii":"Teculutan","lat":14.98901,"lon":-89.71936,"population":6407},{"id":3590053,"name":"San José Acatempa","ascii":"San Jose Acatempa","lat":14.26528,"lon":-90.12694,"population":6367},{"id":3589074,"name":"Santo Domingo Suchitepéquez","ascii":"Santo Domingo Suchitepequez","lat":14.47901,"lon":-91.48327,"population":6270},{"id":3590393,"name":"San Bartolomé Milpas Altas","ascii":"San Bartolome Milpas Altas","lat":14.6069,"lon":-90.67807,"population":6261},{"id":3589398,"name":"Santa Cruz Naranjo","ascii":"Santa Cruz Naranjo","lat":14.38806,"lon":-90.36972,"population":6254},{"id":3589669,"name":"San Pablo La Laguna","ascii":"San Pablo La Laguna","lat":14.72092,"lon":-91.27242,"population":6186},{"id":3597976,"name":"Concepción Tutuapa","ascii":"Concepcion Tutuapa","lat":15.2394,"lon":-91.8446,"population":6006},{"id":3590788,"name":"Río Hondo","ascii":"Rio Hondo","lat":15.04505,"lon":-89.58523,"population":5997},{"id":3589975,"name":"San José Poaquil","ascii":"San Jose Poaquil","lat":14.81808,"lon":-90.91248,"population":5987},{"id":3589159,"name":"Santa Rosa de Lima","ascii":"Santa Rosa de Lima","lat":14.38806,"lon":-90.29556,"population":5984},{"id":3589395,"name":"Santa Cruz Verapaz","ascii":"Santa Cruz Verapaz","lat":15.37342,"lon":-90.42857,"population":5843},{"id":3590458,"name":"San Antonio Huista","ascii":"San Antonio Huista","lat":15.6501,"lon":-91.77163,"population":5669},{"id":3599912,"name":"Aguacatán","ascii":"Aguacatan","lat":15.34222,"lon":-91.31141,"population":5572},{"id":3589774,"name":"San Mateo","ascii":"San Mateo","lat":14.858,"lon":-91.59004,"population":5534},{"id":3590384,"name":"San Bernardino","ascii":"San Bernardino","lat":14.5424,"lon":-91.45811,"population":5501},{"id":3591028,"name":"Purulhá","ascii":"Purulha","lat":15.23566,"lon":-90.23571,"population":5370},{"id":3589433,"name":"Santa Clara La Laguna","ascii":"Santa Clara La Laguna","lat":14.71509,"lon":-91.30355,"population":5306},{"id":3595366,"name":"Ipala","ascii":"Ipala","lat":14.61987,"lon":-89.6194,"population":5283},{"id":3590522,"name":"San Andrés Villa Seca","ascii":"San Andres Villa Seca","lat":14.57801,"lon":-91.58539,"population":5102},{"id":3588040,"name":"Usumatlán","ascii":"Usumatlan","lat":14.94779,"lon":-89.77712,"population":4987},{"id":3589355,"name":"Santa Eulalia","ascii":"Santa Eulalia","lat":15.7306,"lon":-91.45846,"population":4921},{"id":3590030,"name":"San José del Golfo","ascii":"San Jose del Golfo","lat":14.76414,"lon":-90.37228,"population":4908},{"id":3594143,"name":"La Reforma","ascii":"La Reforma","lat":14.80104,"lon":-91.82233,"population":4905},{"id":3588206,"name":"Tucurú","ascii":"Tucuru","lat":15.29402,"lon":-90.11916,"population":4772},{"id":3599298,"name":"Cabañas","ascii":"Cabanas","lat":14.93333,"lon":-89.8,"population":4678},{"id":3599265,"name":"Cahabón","ascii":"Cahabon","lat":15.60662,"lon":-89.81172,"population":4671},{"id":3589896,"name":"San Juan La Laguna","ascii":"San Juan La Laguna","lat":14.69453,"lon":-91.28666,"population":4608},{"id":3595224,"name":"Jerez","ascii":"Jerez","lat":14.09083,"lon":-89.7511,"population":4421},{"id":3589776,"name":"San Martín Zapotitlán","ascii":"San Martin Zapotitlan","lat":14.60794,"lon":-91.60613,"population":4419},{"id":3592086,"name":"Ocós","ascii":"Ocos","lat":14.50998,"lon":-92.19298,"population":4417},{"id":3588588,"name":"Tajumulco","ascii":"Tajumulco","lat":15.08349,"lon":-91.92225,"population":4329},{"id":3589577,"name":"San Rafael Pie de la Cuesta","ascii":"San Rafael Pie de la Cuesta","lat":14.93052,"lon":-91.91388,"population":4320},{"id":3596940,"name":"El Jícaro","ascii":"El Jicaro","lat":14.91333,"lon":-89.89654,"population":4242},{"id":3591092,"name":"Pueblo Nuevo Viñas","ascii":"Pueblo Nuevo Vinas","lat":14.22576,"lon":-90.47613,"population":4211},{"id":3590318,"name":"San Cristóbal Totonicapán","ascii":"San Cristobal Totonicapan","lat":14.91682,"lon":-91.4406,"population":4191},{"id":3590973,"name":"Quezaltepeque","ascii":"Quezaltepeque","lat":14.63553,"lon":-89.44241,"population":4126},{"id":3590195,"name":"San Gabriel","ascii":"San Gabriel","lat":14.51076,"lon":-91.50745,"population":4118},{"id":3595255,"name":"Iztapa","ascii":"Iztapa","lat":13.93333,"lon":-90.7075,"population":4020},{"id":3590249,"name":"San Francisco","ascii":"San Francisco","lat":16.7978,"lon":-89.93507,"population":3954},{"id":3591210,"name":"Pochuta","ascii":"Pochuta","lat":14.5445,"lon":-91.08904,"population":3879},{"id":3589554,"name":"Sansare","ascii":"Sansare","lat":14.74572,"lon":-90.11615,"population":3792},{"id":3595674,"name":"Génova","ascii":"Genova","lat":14.62216,"lon":-91.8358,"population":3744},{"id":3595282,"name":"Ixtahuacán","ascii":"Ixtahuacan","lat":15.41688,"lon":-91.76927,"population":3708},{"id":3593500,"name":"La Unión","ascii":"La Union","lat":14.96656,"lon":-89.29023,"population":3682},{"id":3589720,"name":"San Miguel Ixtahuacán","ascii":"San Miguel Ixtahuacan","lat":15.27247,"lon":-91.74785,"population":3662},{"id":3589778,"name":"San Martín Sacatepéquez","ascii":"San Martin Sacatepequez","lat":14.82443,"lon":-91.64192,"population":3658},{"id":3589249,"name":"Santa María Ixhuatán","ascii":"Santa Maria Ixhuatan","lat":14.19,"lon":-90.27472,"population":3634},{"id":3590424,"name":"San Antonio Palopó","ascii":"San Antonio Palopo","lat":14.69232,"lon":-91.11638,"population":3588},{"id":3589632,"name":"San Pedro Necta","ascii":"San Pedro Necta","lat":15.49142,"lon":-91.76551,"population":3554},{"id":3593235,"name":"Los Amates","ascii":"Los Amates","lat":15.25645,"lon":-89.09723,"population":3417},{"id":3597966,"name":"Conguaco","ascii":"Conguaco","lat":14.04417,"lon":-90.03111,"population":3415},{"id":3589629,"name":"San Pedro Pinula","ascii":"San Pedro Pinula","lat":14.66349,"lon":-89.84625,"population":3302},{"id":3598006,"name":"Concepción","ascii":"Concepcion","lat":14.78417,"lon":-91.14754,"population":3292},{"id":3588308,"name":"Todos Santos Cuchumatán","ascii":"Todos Santos Cuchumatan","lat":15.50846,"lon":-91.60382,"population":3289},{"id":3589460,"name":"Santa Catarina Barahona","ascii":"Santa Catarina Barahona","lat":14.55135,"lon":-90.78598,"population":3214},{"id":3591106,"name":"Pueblo Nuevo","ascii":"Pueblo Nuevo","lat":14.64709,"lon":-91.53946,"population":3116},{"id":3598958,"name":"Catarina","ascii":"Catarina","lat":14.85354,"lon":-92.07682,"population":3040},{"id":3587593,"name":"Yupiltepeque","ascii":"Yupiltepeque","lat":14.19705,"lon":-89.79262,"population":3028},{"id":3589103,"name":"Santiago Chimaltenango","ascii":"Santiago Chimaltenango","lat":15.47658,"lon":-91.69656,"population":3020},{"id":3589454,"name":"Santa Catarina Palopó","ascii":"Santa Catarina Palopo","lat":14.72335,"lon":-91.13428,"population":2948},{"id":3599253,"name":"Cajolá","ascii":"Cajola","lat":14.92205,"lon":-91.61478,"population":2927},{"id":3595554,"name":"Guanagazapa","ascii":"Guanagazapa","lat":14.22598,"lon":-90.64332,"population":2842},{"id":3599972,"name":"Agua Blanca","ascii":"Agua Blanca","lat":14.49805,"lon":-89.64961,"population":2776},{"id":3589734,"name":"San Miguel Acatán","ascii":"San Miguel Acatan","lat":15.70401,"lon":-91.59771,"population":2773},{"id":3587506,"name":"Zunilito","ascii":"Zunilito","lat":14.61264,"lon":-91.5098,"population":2745},{"id":3595403,"name":"Huité","ascii":"Huite","lat":14.92786,"lon":-89.71627,"population":2712},{"id":3589400,"name":"Santa Cruz Muluá","ascii":"Santa Cruz Mulua","lat":14.58153,"lon":-91.62441,"population":2706},{"id":3598513,"name":"Chinique","ascii":"Chinique","lat":15.04147,"lon":-91.02594,"population":2693},{"id":3589795,"name":"San Marcos La Laguna","ascii":"San Marcos La Laguna","lat":14.72504,"lon":-91.25844,"population":2681},{"id":3589923,"name":"San Juan Bautista","ascii":"San Juan Bautista","lat":14.42274,"lon":-91.17904,"population":2680},{"id":3588460,"name":"Tejutla","ascii":"Tejutla","lat":15.12254,"lon":-91.80635,"population":2653},{"id":3589812,"name":"San Manuel Chaparrón","ascii":"San Manuel Chaparron","lat":14.51987,"lon":-89.76917,"population":2624},{"id":3590524,"name":"San Andrés Semetabaj","ascii":"San Andres Semetabaj","lat":14.74497,"lon":-91.13344,"population":2605},{"id":3589592,"name":"San Rafael Las Flores","ascii":"San Rafael Las Flores","lat":14.47604,"lon":-90.17855,"population":2572},{"id":3592349,"name":"Morazán","ascii":"Morazan","lat":14.93278,"lon":-90.14306,"population":2554},{"id":3589900,"name":"San Juan Ixcoy","ascii":"San Juan Ixcoy","lat":15.60022,"lon":-91.44639,"population":2535},{"id":3592217,"name":"Nentón","ascii":"Nenton","lat":15.80113,"lon":-91.75423,"population":2530},{"id":3590029,"name":"San José El Ídolo","ascii":"San Jose El Idolo","lat":14.45016,"lon":-91.42222,"population":2412},{"id":3598659,"name":"Chiché","ascii":"Chiche","lat":15.00885,"lon":-91.06379,"population":2406},{"id":3589480,"name":"Santa Apolonia","ascii":"Santa Apolonia","lat":14.79049,"lon":-90.97267,"population":2396},{"id":3597301,"name":"El Chol","ascii":"El Chol","lat":14.96055,"lon":-90.48799,"population":2391},{"id":3590017,"name":"San José La Arada","ascii":"San Jose La Arada","lat":14.72266,"lon":-89.58599,"population":2361},{"id":3591955,"name":"Pachalum","ascii":"Pachalum","lat":14.92472,"lon":-90.66278,"population":2344},{"id":3597676,"name":"El Adelanto","ascii":"El Adelanto","lat":14.17102,"lon":-89.82715,"population":2341},{"id":3595329,"name":"Ixchiguán","ascii":"Ixchiguan","lat":15.16375,"lon":-91.93256,"population":2263},{"id":3590987,"name":"Quesada","ascii":"Quesada","lat":14.27028,"lon":-90.04028,"population":2250},{"id":3589880,"name":"San Juan Tecuaco","ascii":"San Juan Tecuaco","lat":14.08361,"lon":-90.26649,"population":2210},{"id":3590325,"name":"San Cristóbal Acasaguastlán","ascii":"San Cristobal Acasaguastlan","lat":14.92485,"lon":-89.87427,"population":2171},{"id":3589869,"name":"San Lorenzo","ascii":"San Lorenzo","lat":14.48606,"lon":-91.51263,"population":2165},{"id":3592751,"name":"Malacatancito","ascii":"Malacatancito","lat":15.24457,"lon":-91.49901,"population":2121},{"id":3598670,"name":"Chicamán","ascii":"Chicaman","lat":15.34786,"lon":-90.79968,"population":2090},{"id":3589709,"name":"San Miguel Panán","ascii":"San Miguel Panan","lat":14.52865,"lon":-91.36733,"population":2024},{"id":3590456,"name":"San Antonio Ilotenango","ascii":"San Antonio Ilotenango","lat":15.05472,"lon":-91.22986,"population":2021},{"id":3594315,"name":"Lanquín","ascii":"Lanquin","lat":15.57568,"lon":-89.98078,"population":2006},{"id":3589498,"name":"Santa Ana Huista","ascii":"Santa Ana Huista","lat":15.68085,"lon":-91.82005,"population":2004},{"id":3590526,"name":"San Andrés Sajcabajá","ascii":"San Andres Sajcabaja","lat":15.17603,"lon":-90.9422,"population":1988},{"id":3589925,"name":"San Juan Atitán","ascii":"San Juan Atitan","lat":15.42886,"lon":-91.62398,"population":1910},{"id":3596249,"name":"El Rodeo","ascii":"El Rodeo","lat":14.91447,"lon":-91.97631,"population":1887},{"id":3591618,"name":"Pasaco","ascii":"Pasaco","lat":13.97722,"lon":-90.20639,"population":1873},{"id":3597802,"name":"Cuilco","ascii":"Cuilco","lat":15.40719,"lon":-91.94667,"population":1713},{"id":3599094,"name":"Canillá","ascii":"Canilla","lat":15.16549,"lon":-90.85256,"population":1698},{"id":3591841,"name":"Palestina de los Altos","ascii":"Palestina de los Altos","lat":14.93338,"lon":-91.69403,"population":1691},{"id":3598041,"name":"Colotenango","ascii":"Colotenango","lat":15.40602,"lon":-91.71267,"population":1690},{"id":3592035,"name":"Olopa","ascii":"Olopa","lat":14.69229,"lon":-89.35003,"population":1690},{"id":3590419,"name":"San Antonio Sacatepéquez","ascii":"San Antonio Sacatepequez","lat":14.9606,"lon":-91.73154,"population":1658},{"id":3588760,"name":"Sibinal","ascii":"Sibinal","lat":15.14963,"lon":-92.04892,"population":1657},{"id":3589903,"name":"San Juan Ermita","ascii":"San Juan Ermita","lat":14.76471,"lon":-89.43014,"population":1623},{"id":3590395,"name":"San Bartolomé Jocotenango","ascii":"San Bartolome Jocotenango","lat":15.19153,"lon":-91.07806,"population":1620},{"id":3587546,"name":"Zapotitlán","ascii":"Zapotitlan","lat":14.13917,"lon":-89.82628,"population":1617},{"id":3599181,"name":"Camotán","ascii":"Camotan","lat":14.82017,"lon":-89.37224,"population":1597},{"id":3595778,"name":"Esquipulas Palo Gordo","ascii":"Esquipulas Palo Gordo","lat":14.94135,"lon":-91.82564,"population":1533},{"id":3589579,"name":"San Rafael Petzal","ascii":"San Rafael Petzal","lat":15.40487,"lon":-91.66451,"population":1525},{"id":3590127,"name":"San Jacinto","ascii":"San Jacinto","lat":14.67687,"lon":-89.50272,"population":1519},{"id":3598031,"name":"Comapa","ascii":"Comapa","lat":14.11282,"lon":-89.91471,"population":1493},{"id":3589247,"name":"Santa María Visitación","ascii":"Santa Maria Visitacion","lat":14.71717,"lon":-91.30844,"population":1487},{"id":3589402,"name":"Santa Cruz La Laguna","ascii":"Santa Cruz La Laguna","lat":14.74421,"lon":-91.20716,"population":1422},{"id":3589287,"name":"Santa Lucia La Reforma","ascii":"Santa Lucia La Reforma","lat":15.12819,"lon":-91.23619,"population":1406},{"id":3589541,"name":"San Sebastián Huehuetenango","ascii":"San Sebastian Huehuetenango","lat":15.38768,"lon":-91.6153,"population":1311},{"id":3589282,"name":"Santa Lucía Utatlán","ascii":"Santa Lucia Utatlan","lat":14.77135,"lon":-91.267,"population":1305},{"id":3597985,"name":"Concepción Las Minas","ascii":"Concepcion Las Minas","lat":14.52173,"lon":-89.45717,"population":1295},{"id":3590399,"name":"San Bartolo","ascii":"San Bartolo","lat":15.08438,"lon":-91.45606,"population":1290},{"id":3589983,"name":"San José Ojetenán","ascii":"San Jose Ojetenan","lat":15.21667,"lon":-91.96667,"population":1269},{"id":3590069,"name":"San José","ascii":"San Jose","lat":16.98333,"lon":-89.9,"population":1201},{"id":3588762,"name":"Sibilia","ascii":"Sibilia","lat":14.99391,"lon":-91.62371,"population":1180},{"id":3590213,"name":"San Francisco la Unión","ascii":"San Francisco la Union","lat":14.9235,"lon":-91.54157,"population":1170},{"id":3589595,"name":"San Rafael La Independencia","ascii":"San Rafael La Independencia","lat":15.7015,"lon":-91.53553,"population":1059},{"id":3589640,"name":"San Pédro Jocopilas","ascii":"San Pedro Jocopilas","lat":15.09525,"lon":-91.15135,"population":1040},{"id":3588554,"name":"Tamahú","ascii":"Tamahu","lat":15.3089,"lon":-90.23599,"population":1012},{"id":3591517,"name":"Patzité","ascii":"Patzite","lat":14.96426,"lon":-91.20788,"population":1003},{"id":3589865,"name":"San Lorenzo","ascii":"San Lorenzo","lat":15.03087,"lon":-91.73534,"population":945},{"id":3595631,"name":"Granados","ascii":"Granados","lat":14.91649,"lon":-90.52292,"population":937},{"id":3589468,"name":"Santa Bárbara","ascii":"Santa Barbara","lat":15.31617,"lon":-91.63279,"population":888},{"id":3590041,"name":"San José Chacayá","ascii":"San Jose Chacaya","lat":14.77096,"lon":-91.21564,"population":839},{"id":3590814,"name":"Río Blanco","ascii":"Rio Blanco","lat":15.0382,"lon":-91.68463,"population":829},{"id":3589543,"name":"San Sebastián Coatán","ascii":"San Sebastian Coatan","lat":15.73584,"lon":-91.56285,"population":801},{"id":3588474,"name":"Tectitán","ascii":"Tectitan","lat":15.3063,"lon":-92.06051,"population":743},{"id":3588726,"name":"Sipacapa","ascii":"Sipacapa","lat":15.21246,"lon":-91.63416,"population":661},{"id":3590312,"name":"San Diego","ascii":"San Diego","lat":14.78979,"lon":-89.77639,"population":557},{"id":3590188,"name":"San Gaspar Ixchil","ascii":"San Gaspar Ixchil","lat":15.38796,"lon":-91.72564,"population":551},{"id":3597339,"name":"El Chal","ascii":"El Chal","lat":16.64255,"lon":-89.65291,"population":0},{"id":9980863,"name":"Fray Bartolomé de Las Casas","ascii":"Fray Bartolome de Las Casas","lat":15.8051,"lon":-89.8605,"population":0},{"id":3594989,"name":"La Blanca","ascii":"La Blanca","lat":14.57889,"lon":-92.14137,"population":0},{"id":3594754,"name":"La Democracia","ascii":"La Democracia","lat":15.62544,"lon":-91.8867,"population":0},{"id":9975226,"name":"La Máquina","ascii":"La Maquina","lat":14.30189,"lon":-91.56703,"population":0},{"id":3593542,"name":"La Tinta","ascii":"La Tinta","lat":15.31667,"lon":-89.88333,"population":0},{"id":3592041,"name":"Olintepeque","ascii":"Olintepeque","lat":14.88605,"lon":-91.51472,"population":0},{"id":3591216,"name":"Playa Grande","ascii":"Playa Grande","lat":15.9855,"lon":-90.77292,"population":0},{"id":3590881,"name":"Raxruhá","ascii":"Raxruha","lat":15.86587,"lon":-90.04061,"population":0},{"id":3590355,"name":"San Carlos Alzatate","ascii":"San Carlos Alzatate","lat":14.49778,"lon":-90.06028,"population":0},{"id":3590090,"name":"San Jorge","ascii":"San Jorge","lat":14.92588,"lon":-89.58875,"population":0},{"id":3589985,"name":"San José Ojetenam","ascii":"San Jose Ojetenam","lat":15.23443,"lon":-91.97317,"population":0},{"id":9975222,"name":"San Juan Ostuncalco","ascii":"San Juan Ostuncalco","lat":14.87328,"lon":-91.6897,"population":0},{"id":3588720,"name":"Siquinalá","ascii":"Siquinala","lat":14.30679,"lon":-90.96709,"population":0},{"id":3588057,"name":"Unión","ascii":"Union","lat":15.92176,"lon":-91.77647,"population":0}]