[{"id":3378644,"name":"Georgetown","nameKo":"조지타운","ascii":"Georgetown","lat":6.80448,"lon":-58.15527,"population":235017},{"id":3377408,"name":"Linden","ascii":"Linden","lat":6.00815,"lon":-58.30724,"population":44690},{"id":3376762,"name":"New Amsterdam","nameKo":"뉴암스테르담","ascii":"New Amsterdam","lat":6.24924,"lon":-57.51578,"population":35039},{"id":7303406,"name":"Anna Regina","ascii":"Anna Regina","lat":7.26555,"lon":-58.48265,"population":12448},{"id":13589438,"name":"Corriverton","ascii":"Corriverton","lat":5.933,"lon":-57.14939,"population":11386},{"id":3379507,"name":"Bartica","ascii":"Bartica","lat":6.40539,"lon":-58.62334,"population":11157},{"id":3376227,"name":"Rose Hall","ascii":"Rose Hall","lat":6.25577,"lon":-57.35502,"population":8000},{"id":3375941,"name":"Skeldon","ascii":"Skeldon","lat":5.87035,"lon":-57.14681,"population":5859},{"id":3376223,"name":"Rosignol","nameKo":"로시뇰","ascii":"Rosignol","lat":6.27095,"lon":-57.53697,"population":5782},{"id":3377267,"name":"Mahaica Village","ascii":"Mahaica Village","lat":6.6817,"lon":-57.92181,"population":4867},{"id":3377263,"name":"Mahdia","ascii":"Mahdia","lat":5.28473,"lon":-59.14982,"population":4200},{"id":3376520,"name":"Parika","ascii":"Parika","lat":6.83712,"lon":-58.42941,"population":4081},{"id":3375409,"name":"Vreed-en-Hoop","ascii":"Vreed-en-Hoop","lat":6.8109,"lon":-58.19375,"population":3073},{"id":3377265,"name":"Mahaicony Village","ascii":"Mahaicony Village","lat":6.57212,"lon":-57.80624,"population":2130},{"id":3376538,"name":"Paradise","ascii":"Paradise","lat":6.76292,"lon":-57.99959,"population":2050},{"id":3375103,"name":"Windsor Forest","ascii":"Windsor Forest","lat":6.84568,"lon":-58.23521,"population":1602},{"id":3378444,"name":"Helena Number One","ascii":"Helena Number One","lat":6.67305,"lon":-57.92454,"population":1568},{"id":3377301,"name":"Mabaruma","ascii":"Mabaruma","lat":8.20377,"lon":-59.78117,"population":717},{"id":3377425,"name":"Lethem","ascii":"Lethem","lat":3.3726,"lon":-59.79967,"population":716},{"id":8314122,"name":"Fort Wellington","ascii":"Fort Wellington","lat":6.39185,"lon":-57.59628,"population":118}]