[{"id":1819729,"name":"Hong Kong","nameKo":"홍콩","ascii":"Hong Kong","lat":22.27832,"lon":114.17469,"population":7396076},{"id":12747063,"name":"New Territories","ascii":"New Territories","lat":22.42441,"lon":114.11095,"population":3984077},{"id":1819609,"name":"Kowloon","nameKo":"주룽","ascii":"Kowloon","lat":22.31667,"lon":114.18333,"population":2232339},{"id":12747064,"name":"Hong Kong Island","ascii":"Hong Kong Island","lat":22.26302,"lon":114.18419,"population":1195529},{"id":1931681,"name":"Victoria","ascii":"Victoria","lat":22.2875,"lon":114.14417,"population":956800},{"id":1818446,"name":"Tuen Mun","ascii":"Tuen Mun","lat":22.39175,"lon":113.97157,"population":507900},{"id":1818920,"name":"Sha Tin","ascii":"Sha Tin","lat":22.38333,"lon":114.18333,"population":495200},{"id":1818953,"name":"Sham Shui Po","ascii":"Sham Shui Po","lat":22.33023,"lon":114.15945,"population":431090},{"id":1818304,"name":"Wong Tai Sin","ascii":"Wong Tai Sin","lat":22.35,"lon":114.18333,"population":425235},{"id":1819607,"name":"Kowloon City","ascii":"Kowloon City","lat":22.33047,"lon":114.19222,"population":418732},{"id":1818506,"name":"Tseung Kwan O","ascii":"Tseung Kwan O","lat":22.32789,"lon":114.24992,"population":412900},{"id":1819595,"name":"Kwai Chung","ascii":"Kwai Chung","lat":22.36828,"lon":114.13877,"population":331600},{"id":1818209,"name":"Tsuen Wan","ascii":"Tsuen Wan","lat":22.37137,"lon":114.11329,"population":318916},{"id":1818558,"name":"Tin Shui Wai","ascii":"Tin Shui Wai","lat":22.45679,"lon":114.00234,"population":282400},{"id":1818673,"name":"Tai Po","nameKo":"다푸","ascii":"Tai Po","lat":22.45007,"lon":114.16877,"population":274100},{"id":1819873,"name":"Fanling","ascii":"Fanling","lat":22.49487,"lon":114.13949,"population":263200},{"id":1819400,"name":"Ma On Shan","ascii":"Ma On Shan","lat":22.40613,"lon":114.24079,"population":215200},{"id":1818225,"name":"Yuen Long","ascii":"Yuen Long","lat":22.44518,"lon":114.02621,"population":200000},{"id":1818222,"name":"Yuen Long San Hui","ascii":"Yuen Long San Hui","lat":22.43333,"lon":114.03333,"population":200000},{"id":13308632,"name":"Kowloon City Centre","ascii":"Kowloon City Centre","lat":22.32979,"lon":114.18889,"population":194290},{"id":1818483,"name":"Tsing Yi Town","ascii":"Tsing Yi Town","lat":22.35,"lon":114.1,"population":182100},{"id":1818223,"name":"Yuen Long Kau Hui","ascii":"Yuen Long Kau Hui","lat":22.44831,"lon":114.03199,"population":169600},{"id":1818379,"name":"Wan Chai","ascii":"Wan Chai","lat":22.28142,"lon":114.17258,"population":166695},{"id":1819757,"name":"Aberdeen","nameKo":"애버딘","ascii":"Aberdeen","lat":22.24802,"lon":114.15289,"population":157400},{"id":1819283,"name":"San Tung Chung Hang","ascii":"San Tung Chung Hang","lat":22.27875,"lon":113.94307,"population":116000},{"id":11101593,"name":"Tung Chung","ascii":"Tung Chung","lat":22.28783,"lon":113.94243,"population":114100},{"id":1818916,"name":"Sha Tin Wai","ascii":"Sha Tin Wai","lat":22.37756,"lon":114.19753,"population":80000},{"id":12719430,"name":"Shap Pat Heung","ascii":"Shap Pat Heung","lat":22.4248,"lon":114.03581,"population":77775},{"id":1819091,"name":"Pok Fu Lam","ascii":"Pok Fu Lam","lat":22.26861,"lon":114.12924,"population":77100},{"id":12689055,"name":"Nam Cheong","ascii":"Nam Cheong","lat":22.32799,"lon":114.15389,"population":74780},{"id":13308633,"name":"Kowloon West End","ascii":"Kowloon West End","lat":22.32848,"lon":114.18514,"population":74710},{"id":1819353,"name":"Mong Kok","ascii":"Mong Kok","lat":22.31935,"lon":114.17136,"population":62967},{"id":1818781,"name":"Siu Lek Yuen","ascii":"Siu Lek Yuen","lat":22.38174,"lon":114.21256,"population":57349},{"id":1818972,"name":"Sau Mau Ping","ascii":"Sau Mau Ping","lat":22.3202,"lon":114.23497,"population":54218},{"id":1818550,"name":"Tiu Keng Leng","ascii":"Tiu Keng Leng","lat":22.29853,"lon":114.25115,"population":51751},{"id":12719433,"name":"LOHAS Park","ascii":"LOHAS Park","lat":22.29315,"lon":114.27245,"population":50000},{"id":12640681,"name":"Mei Foo","ascii":"Mei Foo","lat":22.33719,"lon":114.13856,"population":45990},{"id":1819101,"name":"Ping Shan","ascii":"Ping Shan","lat":22.44111,"lon":114.00608,"population":45400},{"id":12640684,"name":"Kai Tak","ascii":"Kai Tak","lat":22.32425,"lon":114.19741,"population":42552},{"id":8224045,"name":"Jordan","ascii":"Jordan","lat":22.30539,"lon":114.17001,"population":41537},{"id":12689063,"name":"Pat Heung","ascii":"Pat Heung","lat":22.4461,"lon":114.09226,"population":40357},{"id":12689057,"name":"Whampoa","ascii":"Whampoa","lat":22.30504,"lon":114.19021,"population":39134},{"id":12689060,"name":"Choi Wan","ascii":"Choi Wan","lat":22.33385,"lon":114.21368,"population":38405},{"id":12719566,"name":"Mei Foo Sun Chuen","ascii":"Mei Foo Sun Chuen","lat":22.33636,"lon":114.14018,"population":37299},{"id":1818447,"name":"Tsz Wan Shan","ascii":"Tsz Wan Shan","lat":22.35247,"lon":114.20016,"population":37242},{"id":1819791,"name":"Hang Hau","ascii":"Hang Hau","lat":22.31811,"lon":114.26994,"population":36529},{"id":1819050,"name":"Sai Kung","ascii":"Sai Kung","lat":22.38333,"lon":114.26667,"population":35800},{"id":10170102,"name":"Tai Koo","ascii":"Tai Koo","lat":22.2841,"lon":114.21631,"population":35373},{"id":12719589,"name":"Taikoo Shing","ascii":"Taikoo Shing","lat":22.28613,"lon":114.2187,"population":34799},{"id":1818266,"name":"Yau Tong","ascii":"Yau Tong","lat":22.29569,"lon":114.23599,"population":34755},{"id":1818721,"name":"Tai Kok Tsui","ascii":"Tai Kok Tsui","lat":22.32146,"lon":114.163,"population":33801},{"id":1818892,"name":"Shek Lei","ascii":"Shek Lei","lat":22.36613,"lon":114.13982,"population":31788},{"id":12719843,"name":"Whampoa Garden","ascii":"Whampoa Garden","lat":22.30534,"lon":114.18936,"population":30038},{"id":1818268,"name":"Yau Ma Tei","ascii":"Yau Ma Tei","lat":22.3138,"lon":114.16857,"population":29644},{"id":12746539,"name":"Lower Wong Tai Sin Estate (I & II)","ascii":"Lower Wong Tai Sin Estate (I & II)","lat":22.33923,"lon":114.19441,"population":29542},{"id":12719432,"name":"South Horizons","ascii":"South Horizons","lat":22.24383,"lon":114.14828,"population":29391},{"id":12719791,"name":"South Horizons (Estate)","ascii":"South Horizons (Estate)","lat":22.24411,"lon":114.14616,"population":29180},{"id":1819529,"name":"Leighton Hill","ascii":"Leighton Hill","lat":22.2761,"lon":114.18398,"population":29160},{"id":1819923,"name":"Chuk Yuen","ascii":"Chuk Yuen","lat":22.34544,"lon":114.19327,"population":28645},{"id":12640693,"name":"Lei Tung","ascii":"Lei Tung","lat":22.24052,"lon":114.15757,"population":26350},{"id":1818385,"name":"Wah Fu","ascii":"Wah Fu","lat":22.25474,"lon":114.13622,"population":26275},{"id":1818950,"name":"Sham Tseng","ascii":"Sham Tseng","lat":22.36667,"lon":114.05,"population":25893},{"id":12719555,"name":"Shek Kip Mei Estate","ascii":"Shek Kip Mei Estate","lat":22.33412,"lon":114.16531,"population":25561},{"id":12746532,"name":"Choi Wan Estate (I & II)","ascii":"Choi Wan Estate (I & II)","lat":22.33337,"lon":114.21331,"population":25241},{"id":1818501,"name":"Tsim Sha Tsui","nameKo":"짐사저이","ascii":"Tsim Sha Tsui","lat":22.3,"lon":114.16667,"population":24557},{"id":12719443,"name":"Wu Kai Sha","ascii":"Wu Kai Sha","lat":22.43016,"lon":114.24212,"population":23511},{"id":12689059,"name":"Laguna City","ascii":"Laguna City","lat":22.30554,"lon":114.22861,"population":22718},{"id":1818817,"name":"Shuen Wan","ascii":"Shuen Wan","lat":22.46767,"lon":114.20812,"population":22465},{"id":1819855,"name":"Fo Tan","ascii":"Fo Tan","lat":22.39846,"lon":114.19293,"population":22127},{"id":1819685,"name":"Kam Tin","ascii":"Kam Tin","lat":22.44123,"lon":114.06019,"population":21876},{"id":12746541,"name":"Tsz Ching Estate","ascii":"Tsz Ching Estate","lat":22.35099,"lon":114.20056,"population":21845},{"id":1819775,"name":"Ha Tsuen","ascii":"Ha Tsuen","lat":22.44724,"lon":113.9916,"population":21060},{"id":1818614,"name":"Tai Wo Hau","ascii":"Tai Wo Hau","lat":22.36718,"lon":114.12347,"population":20848},{"id":1819980,"name":"Chek Chue","nameKo":"첵취","ascii":"Chek Chue","lat":22.21849,"lon":114.21241,"population":20683},{"id":1818883,"name":"Shek O","ascii":"Shek O","lat":22.23344,"lon":114.25121,"population":20683},{"id":1818845,"name":"Sheung Shui","ascii":"Sheung Shui","lat":22.51667,"lon":114.11667,"population":20514},{"id":1819726,"name":"Hong Lok Yuen","ascii":"Hong Lok Yuen","lat":22.46315,"lon":114.1552,"population":20389},{"id":12689069,"name":"Fairview Park","ascii":"Fairview Park","lat":22.46738,"lon":114.04766,"population":20268},{"id":1819394,"name":"Ma Tau Wai","ascii":"Ma Tau Wai","lat":22.32074,"lon":114.18743,"population":20185},{"id":1818628,"name":"Tai Wai","ascii":"Tai Wai","lat":22.37286,"lon":114.17897,"population":19924},{"id":1819731,"name":"Ho Man Tin","ascii":"Ho Man Tin","lat":22.31584,"lon":114.18181,"population":19830},{"id":1819968,"name":"Cheung Chau","ascii":"Cheung Chau","lat":22.21085,"lon":114.02787,"population":19769},{"id":12687143,"name":"Shui Chuen O","ascii":"Shui Chuen O","lat":22.37161,"lon":114.19778,"population":19719},{"id":1818996,"name":"San Tin","ascii":"San Tin","lat":22.50166,"lon":114.06932,"population":19617},{"id":1818444,"name":"Tuen Mun San Hui","ascii":"Tuen Mun San Hui","lat":22.39877,"lon":113.97596,"population":19398},{"id":12689056,"name":"Olympic","ascii":"Olympic","lat":22.31939,"lon":114.15736,"population":19373},{"id":1819894,"name":"Discovery Bay","nameKo":"디스커버리 베이","ascii":"Discovery Bay","lat":22.3,"lon":114.01667,"population":19336},{"id":12640687,"name":"The Peak","ascii":"The Peak","lat":22.26202,"lon":114.15649,"population":19202},{"id":12640671,"name":"Sung Wong Toi","ascii":"Sung Wong Toi","lat":22.32466,"lon":114.19149,"population":19078},{"id":12640674,"name":"So Uk","ascii":"So Uk","lat":22.34131,"lon":114.15679,"population":18956},{"id":1819602,"name":"Kowloon Tong","ascii":"Kowloon Tong","lat":22.33312,"lon":114.17969,"population":18849},{"id":12719587,"name":"Siu Sai Wan Estate","ascii":"Siu Sai Wan Estate","lat":22.26155,"lon":114.24881,"population":18803},{"id":1819029,"name":"Sai Wan Ho","ascii":"Sai Wan Ho","lat":22.28449,"lon":114.2232,"population":18771},{"id":12719581,"name":"So Uk Estate","ascii":"So Uk Estate","lat":22.34153,"lon":114.15653,"population":18748},{"id":12719848,"name":"Tak Long Estate","ascii":"Tak Long Estate","lat":22.3302,"lon":114.20338,"population":18720},{"id":12719547,"name":"Keng Hau","ascii":"Keng Hau","lat":22.36507,"lon":114.17472,"population":18707},{"id":12719552,"name":"Un Chau Estate","ascii":"Un Chau Estate","lat":22.33633,"lon":114.15616,"population":18670},{"id":1819554,"name":"Lam Tin","ascii":"Lam Tin","lat":22.30933,"lon":114.23634,"population":18666},{"id":12719787,"name":"Lei Tung Estate","ascii":"Lei Tung Estate","lat":22.24115,"lon":114.15523,"population":18575},{"id":1819003,"name":"San Po Kong","ascii":"San Po Kong","lat":22.33546,"lon":114.19669,"population":18199},{"id":12719439,"name":"Hok Yuen","ascii":"Hok Yuen","lat":22.31027,"lon":114.18816,"population":18091},{"id":12719440,"name":"Laguna Verde","ascii":"Laguna Verde","lat":22.30719,"lon":114.19071,"population":18091},{"id":1818905,"name":"Shek Kip Mei","ascii":"Shek Kip Mei","lat":22.33146,"lon":114.16799,"population":18078},{"id":12719592,"name":"Heng Fa Chuen","ascii":"Heng Fa Chuen","lat":22.27668,"lon":114.24077,"population":17963},{"id":12719542,"name":"Aldrich Bay","ascii":"Aldrich Bay","lat":22.28203,"lon":114.22474,"population":17925},{"id":12746531,"name":"Choi Hung Estate","ascii":"Choi Hung Estate","lat":22.33636,"lon":114.20581,"population":17817},{"id":1818654,"name":"Tai Shui Hang","ascii":"Tai Shui Hang","lat":22.40631,"lon":114.22385,"population":17647},{"id":1818349,"name":"Wo Che","ascii":"Wo Che","lat":22.39016,"lon":114.19217,"population":17572},{"id":1818695,"name":"Tai Mei Tuk","ascii":"Tai Mei Tuk","lat":22.47447,"lon":114.23458,"population":17544},{"id":12640682,"name":"Kadoorie","ascii":"Kadoorie","lat":22.32247,"lon":114.17556,"population":17422},{"id":12719847,"name":"Oi Man Estate","ascii":"Oi Man Estate","lat":22.31197,"lon":114.17853,"population":17407},{"id":12689054,"name":"Discovery Park","ascii":"Discovery Park","lat":22.37621,"lon":114.11141,"population":17325},{"id":1818574,"name":"Ting Kau","ascii":"Ting Kau","lat":22.36956,"lon":114.07907,"population":17009},{"id":12746517,"name":"Chuk Yuen North Estate","ascii":"Chuk Yuen North Estate","lat":22.34592,"lon":114.19197,"population":16989},{"id":1818365,"name":"Wang Tau Hom","ascii":"Wang Tau Hom","lat":22.3401,"lon":114.18732,"population":16936},{"id":12719553,"name":"Pak Tin Estate","ascii":"Pak Tin Estate","lat":22.33713,"lon":114.16673,"population":16843},{"id":1818557,"name":"Tin Wan","ascii":"Tin Wan","lat":22.25113,"lon":114.14726,"population":16811},{"id":12746547,"name":"Wang Tau Hom Estate","ascii":"Wang Tau Hom Estate","lat":22.34009,"lon":114.18673,"population":16794},{"id":1819577,"name":"Kwun Tong","nameKo":"관탕","ascii":"Kwun Tong","lat":22.31184,"lon":114.22176,"population":16766},{"id":12719445,"name":"Kam Ying","ascii":"Kam Ying","lat":22.42285,"lon":114.23664,"population":16691},{"id":1818992,"name":"San Tin","ascii":"San Tin","lat":22.37193,"lon":114.18385,"population":16628},{"id":12689062,"name":"Sun Tin Wai","ascii":"Sun Tin Wai","lat":22.37058,"lon":114.18696,"population":16628},{"id":12719540,"name":"Sam Shing","ascii":"Sam Shing","lat":22.38128,"lon":113.97872,"population":16423},{"id":9172583,"name":"Wong Chuk Hang","ascii":"Wong Chuk Hang","lat":22.23981,"lon":114.17001,"population":16316},{"id":1818259,"name":"Yeung Uk Tsuen","ascii":"Yeung Uk Tsuen","lat":22.45,"lon":114.01667,"population":16236},{"id":12719438,"name":"Braemar Hill","ascii":"Braemar Hill","lat":22.28282,"lon":114.20034,"population":16171},{"id":12719569,"name":"Hoi Lai Estate","ascii":"Hoi Lai Estate","lat":22.33182,"lon":114.14667,"population":16071},{"id":1819339,"name":"Mount Davis","ascii":"Mount Davis","lat":22.27862,"lon":114.11777,"population":16030},{"id":12687141,"name":"Pok Hong","ascii":"Pok Hong","lat":22.37558,"lon":114.19584,"population":15817},{"id":12719572,"name":"Fu Cheong Estate","ascii":"Fu Cheong Estate","lat":22.32891,"lon":114.15399,"population":15655},{"id":1818544,"name":"To Kwa Wan","ascii":"To Kwa Wan","lat":22.31693,"lon":114.19052,"population":15646},{"id":12719444,"name":"Lee On","ascii":"Lee On","lat":22.42635,"lon":114.24133,"population":15621},{"id":12689065,"name":"Butterfly","ascii":"Butterfly","lat":22.37591,"lon":113.96251,"population":15488},{"id":12687144,"name":"Prince Edward","ascii":"Prince Edward","lat":22.3236,"lon":114.17938,"population":15481},{"id":7778986,"name":"Fortress Hill","ascii":"Fortress Hill","lat":22.28858,"lon":114.19417,"population":15464},{"id":1819361,"name":"Mid Levels","ascii":"Mid Levels","lat":22.28399,"lon":114.14958,"population":15464},{"id":12746524,"name":"Tung Tau Estate","ascii":"Tung Tau Estate","lat":22.33212,"lon":114.19277,"population":15440},{"id":12640679,"name":"City One","ascii":"City One","lat":22.38679,"lon":114.20275,"population":15407},{"id":12719544,"name":"City Garden","ascii":"City Garden","lat":22.28997,"lon":114.19259,"population":15212},{"id":12719635,"name":"Yiu Tung Estate","ascii":"Yiu Tung Estate","lat":22.27849,"lon":114.22299,"population":15061},{"id":1819952,"name":"Cheung Sha Wan","ascii":"Cheung Sha Wan","lat":22.33447,"lon":114.1558,"population":14966},{"id":12719442,"name":"Yu Chui","ascii":"Yu Chui","lat":22.38059,"lon":114.2053,"population":14944},{"id":1818880,"name":"Shek Pai Wan Estate","ascii":"Shek Pai Wan Estate","lat":22.2493,"lon":114.15812,"population":14927},{"id":1819932,"name":"Choi Hung","ascii":"Choi Hung","lat":22.33548,"lon":114.20638,"population":14773},{"id":1819983,"name":"Che Ha","ascii":"Che Ha","lat":22.43021,"lon":114.26264,"population":14753},{"id":1819031,"name":"Sai Wan","ascii":"Sai Wan","lat":22.28124,"lon":114.12554,"population":14650},{"id":1818771,"name":"So Kwun Wat","ascii":"So Kwun Wat","lat":22.37594,"lon":114.00682,"population":14475},{"id":1819706,"name":"Jardine's Lookout","ascii":"Jardine's Lookout","lat":22.26857,"lon":114.19252,"population":14459},{"id":1819374,"name":"Ma Wan","ascii":"Ma Wan","lat":22.3523,"lon":114.06002,"population":14409},{"id":1819395,"name":"Ma Tau Kok","ascii":"Ma Tau Kok","lat":22.3215,"lon":114.1905,"population":14397},{"id":12719629,"name":"Hing Wah Estate (I & II)","ascii":"Hing Wah Estate (I & II)","lat":22.26309,"lon":114.23506,"population":14339},{"id":1819652,"name":"Kau Wa Keng","ascii":"Kau Wa Keng","lat":22.3459,"lon":114.13684,"population":14283},{"id":12719429,"name":"Lok Fu","ascii":"Lok Fu","lat":22.33727,"lon":114.18725,"population":14170},{"id":12689050,"name":"Luk Yeung","ascii":"Luk Yeung","lat":22.37371,"lon":114.11917,"population":14154},{"id":12746518,"name":"Chuk Yuen South Estate","ascii":"Chuk Yuen South Estate","lat":22.34457,"lon":114.19282,"population":14147},{"id":1818264,"name":"Yau Yat Chuen","ascii":"Yau Yat Chuen","lat":22.33101,"lon":114.17413,"population":14059},{"id":1818413,"name":"Tung Tau Tsuen","ascii":"Tung Tau Tsuen","lat":22.45291,"lon":114.02873,"population":13928},{"id":1819718,"name":"Hung Hom","ascii":"Hung Hom","lat":22.30715,"lon":114.18532,"population":13762},{"id":6691573,"name":"Tai Yuen Estate","ascii":"Tai Yuen Estate","lat":22.45574,"lon":114.16971,"population":13614},{"id":1819026,"name":"Sai Ying Pun","ascii":"Sai Ying Pun","lat":22.28998,"lon":114.14223,"population":13600},{"id":12719546,"name":"Tin Hau","ascii":"Tin Hau","lat":22.28093,"lon":114.1924,"population":13521},{"id":12719545,"name":"Victoria Park","ascii":"Victoria Park","lat":22.28464,"lon":114.19051,"population":13521},{"id":12689053,"name":"Fuk Loi","ascii":"Fuk Loi","lat":22.37405,"lon":114.11352,"population":13490},{"id":1818911,"name":"Shau Kei Wan","ascii":"Shau Kei Wan","lat":22.27771,"lon":114.22864,"population":13442},{"id":12719541,"name":"Wah Kwai","ascii":"Wah Kwai","lat":22.25097,"lon":114.14005,"population":13309},{"id":1819783,"name":"Happy Valley","ascii":"Happy Valley","lat":22.26912,"lon":114.18619,"population":13248},{"id":8504415,"name":"Kowloon Bay","ascii":"Kowloon Bay","lat":22.32662,"lon":114.20777,"population":13200},{"id":12719543,"name":"Kornhill","ascii":"Kornhill","lat":22.28213,"lon":114.21566,"population":13083},{"id":12689066,"name":"Wu King","ascii":"Wu King","lat":22.37607,"lon":113.96537,"population":13070},{"id":1818428,"name":"Causeway Bay","nameKo":"코즈웨이 베이","ascii":"Causeway Bay","lat":22.28189,"lon":114.18515,"population":12777},{"id":1818616,"name":"Tai Wo","ascii":"Tai Wo","lat":22.45151,"lon":114.16115,"population":12752},{"id":12719830,"name":"Laguna Verde (Estate)","ascii":"Laguna Verde (Estate)","lat":22.30767,"lon":114.19288,"population":12664},{"id":12689068,"name":"Yuet Wu","ascii":"Yuet Wu","lat":22.37529,"lon":113.96814,"population":12513},{"id":12719437,"name":"Mount Parker","ascii":"Mount Parker","lat":22.26638,"lon":114.21833,"population":12348},{"id":12719822,"name":"Ho Man Tin Estate","ascii":"Ho Man Tin Estate","lat":22.3149,"lon":114.18252,"population":12329},{"id":12689067,"name":"Siu Hei","ascii":"Siu Hei","lat":22.37359,"lon":113.9671,"population":12206},{"id":1818868,"name":"Shek Wai Kok","ascii":"Shek Wai Kok","lat":22.37546,"lon":114.12411,"population":12198},{"id":12746538,"name":"Upper Wong Tai Sin Estate","ascii":"Upper Wong Tai Sin Estate","lat":22.3433,"lon":114.19193,"population":12176},{"id":12746545,"name":"Fung Tak Estate","ascii":"Fung Tak Estate","lat":22.34432,"lon":114.20087,"population":12066},{"id":1819142,"name":"Pak Shek Kok","ascii":"Pak Shek Kok","lat":22.42734,"lon":114.20366,"population":12000},{"id":12719431,"name":"Ap Lei Chau Estate","ascii":"Ap Lei Chau Estate","lat":22.24473,"lon":114.15052,"population":11960},{"id":12719838,"name":"Kai Ching Estate","ascii":"Kai Ching Estate","lat":22.33289,"lon":114.20304,"population":11876},{"id":12640694,"name":"Hung Shui Kiu","ascii":"Hung Shui Kiu","lat":22.43163,"lon":113.98815,"population":11851},{"id":12719441,"name":"Kwong Yuen","ascii":"Kwong Yuen","lat":22.38005,"lon":114.21361,"population":11716},{"id":1818692,"name":"Tai Mong Tsai","ascii":"Tai Mong Tsai","lat":22.40034,"lon":114.30249,"population":11526},{"id":1818734,"name":"Tai Hang","ascii":"Tai Hang","lat":22.27851,"lon":114.1922,"population":11425},{"id":12719809,"name":"Charming Garden","ascii":"Charming Garden","lat":22.31382,"lon":114.1647,"population":11335},{"id":12719557,"name":"Lei Cheng Uk Estate","ascii":"Lei Cheng Uk Estate","lat":22.33937,"lon":114.15921,"population":11259},{"id":1819064,"name":"Quarry Bay","ascii":"Quarry Bay","lat":22.28768,"lon":114.2135,"population":11198},{"id":8223932,"name":"Central","nameKo":"쭝완","ascii":"Central","lat":22.28299,"lon":114.15846,"population":11077},{"id":12719579,"name":"Lai Tsui Court","ascii":"Lai Tsui Court","lat":22.33376,"lon":114.15506,"population":10438},{"id":12746544,"name":"Tsui Chuk Garden","ascii":"Tsui Chuk Garden","lat":22.34639,"lon":114.18766,"population":10071},{"id":12746546,"name":"Lok Fu Estate","ascii":"Lok Fu Estate","lat":22.33719,"lon":114.18672,"population":9944},{"id":12719795,"name":"Chi Fu Fa Yuen","ascii":"Chi Fu Fa Yuen","lat":22.25582,"lon":114.13928,"population":9813},{"id":12719808,"name":"Hoi Fu Court","ascii":"Hoi Fu Court","lat":22.31631,"lon":114.16466,"population":9540},{"id":12719630,"name":"Wan Tsui Estate","ascii":"Wan Tsui Estate","lat":22.26123,"lon":114.2374,"population":9532},{"id":12719548,"name":"Jat Min Chuen","ascii":"Jat Min Chuen","lat":22.37609,"lon":114.1914,"population":9424},{"id":12719793,"name":"Wah Kwai Estate","ascii":"Wah Kwai Estate","lat":22.25044,"lon":114.13964,"population":9321},{"id":12719614,"name":"Fullview Garden","ascii":"Fullview Garden","lat":22.26251,"lon":114.25191,"population":9175},{"id":12719616,"name":"Oi Tung Estate","ascii":"Oi Tung Estate","lat":22.28173,"lon":114.22786,"population":9128},{"id":12719632,"name":"Island Resort","ascii":"Island Resort","lat":22.26665,"lon":114.2508,"population":9025},{"id":12746526,"name":"Rhythm Garden","ascii":"Rhythm Garden","lat":22.33617,"lon":114.20272,"population":8980},{"id":12719788,"name":"Residence Bel-air","ascii":"Residence Bel-air","lat":22.25466,"lon":114.13289,"population":8795},{"id":12719849,"name":"Lok Man Sun Chuen","ascii":"Lok Man Sun Chuen","lat":22.3163,"lon":114.18616,"population":8696},{"id":12719617,"name":"Aldrich Garden","ascii":"Aldrich Garden","lat":22.28082,"lon":114.22857,"population":8644},{"id":12719785,"name":"Tin Wan Estate","ascii":"Tin Wan Estate","lat":22.25073,"lon":114.1487,"population":8491},{"id":12719790,"name":"Aberdeen Centre","ascii":"Aberdeen Centre","lat":22.24842,"lon":114.15406,"population":8353},{"id":12719623,"name":"Yue Wan Estate","ascii":"Yue Wan Estate","lat":22.26592,"lon":114.24129,"population":7998},{"id":12719810,"name":"Metro Harbour","ascii":"Metro Harbour","lat":22.32447,"lon":114.16028,"population":7887},{"id":1819112,"name":"Peng Chau","ascii":"Peng Chau","lat":22.28333,"lon":114.03333,"population":7821},{"id":12719584,"name":"The Belcher's","ascii":"The Belcher's","lat":22.28481,"lon":114.13329,"population":7265},{"id":12719551,"name":"Tai Hang Estate (East & West)","ascii":"Tai Hang Estate (East & West)","lat":22.33209,"lon":114.17068,"population":7263},{"id":12719571,"name":"Hoi Lok Court","ascii":"Hoi Lok Court","lat":22.32781,"lon":114.14913,"population":7247},{"id":12746543,"name":"Tsz Hong Estate","ascii":"Tsz Hong Estate","lat":22.34747,"lon":114.20274,"population":7079},{"id":12719603,"name":"Nam Fung Sun Chuen","ascii":"Nam Fung Sun Chuen","lat":22.28247,"lon":114.21475,"population":6877},{"id":12719836,"name":"Chong Chien Court - Wyler Gardens","ascii":"Chong Chien Court - Wyler Gardens","lat":22.31811,"lon":114.19205,"population":6746},{"id":12719825,"name":"Hung Hom Estate","ascii":"Hung Hom Estate","lat":22.308,"lon":114.18929,"population":6744},{"id":12719831,"name":"Harbour Place","ascii":"Harbour Place","lat":22.30323,"lon":114.18619,"population":6704},{"id":12719613,"name":"Harmony Garden","ascii":"Harmony Garden","lat":22.26573,"lon":114.2487,"population":6697},{"id":12719844,"name":"Whampoa Estate","ascii":"Whampoa Estate","lat":22.30624,"lon":114.18819,"population":6647},{"id":12719828,"name":"Ka Wai Chuen","ascii":"Ka Wai Chuen","lat":22.30791,"lon":114.18648,"population":6634},{"id":12746519,"name":"Grand View Garden","ascii":"Grand View Garden","lat":22.34132,"lon":114.20779,"population":6615},{"id":12746548,"name":"Lung Poon Court","ascii":"Lung Poon Court","lat":22.34239,"lon":114.19987,"population":6550},{"id":12719561,"name":"Banyan Garden","ascii":"Banyan Garden","lat":22.3346,"lon":114.14797,"population":6515},{"id":12719634,"name":"Lei King Wan","ascii":"Lei King Wan","lat":22.28389,"lon":114.22328,"population":6389},{"id":12719624,"name":"Tsui Wan Estate","ascii":"Tsui Wan Estate","lat":22.2682,"lon":114.24028,"population":6288},{"id":12719599,"name":"Tung Hei Court","ascii":"Tung Hei Court","lat":22.28031,"lon":114.21886,"population":6262},{"id":12719813,"name":"Island Harbourview","ascii":"Island Harbourview","lat":22.31842,"lon":114.15745,"population":6236},{"id":12719586,"name":"Lai Tak Tsuen","ascii":"Lai Tak Tsuen","lat":22.27789,"lon":114.1947,"population":6211},{"id":12719564,"name":"Nam Shan Estate","ascii":"Nam Shan Estate","lat":22.33477,"lon":114.17182,"population":6208},{"id":12719580,"name":"Lai Kok Estate","ascii":"Lai Kok Estate","lat":22.33227,"lon":114.15691,"population":6200},{"id":12719585,"name":"Kwun Lung Lau","ascii":"Kwun Lung Lau","lat":22.28044,"lon":114.12758,"population":6156},{"id":12719628,"name":"Hing Tung Estate","ascii":"Hing Tung Estate","lat":22.28151,"lon":114.21943,"population":6076},{"id":12719610,"name":"Greenwood Terrace","ascii":"Greenwood Terrace","lat":22.26718,"lon":114.23492,"population":6061},{"id":12746516,"name":"Tin Ma Court","ascii":"Tin Ma Court","lat":22.34321,"lon":114.18691,"population":6034},{"id":12719560,"name":"Liberte","ascii":"Liberte","lat":22.33465,"lon":114.14886,"population":6009},{"id":1818789,"name":"Siu Chik Sha","ascii":"Siu Chik Sha","lat":22.30086,"lon":114.27471,"population":6005},{"id":1818211,"name":"Yung Shue Wan","ascii":"Yung Shue Wan","lat":22.22623,"lon":114.11241,"population":6000},{"id":12719627,"name":"Hing Man Estate","ascii":"Hing Man Estate","lat":22.26682,"lon":114.2327,"population":5990},{"id":12746528,"name":"Galaxia","ascii":"Galaxia","lat":22.34121,"lon":114.20218,"population":5964},{"id":12746542,"name":"Tsz Man Estate","ascii":"Tsz Man Estate","lat":22.34816,"lon":114.20287,"population":5936},{"id":12719814,"name":"Sorrento","ascii":"Sorrento","lat":22.30641,"lon":114.16226,"population":5802},{"id":12746540,"name":"Kingsford Terrace","ascii":"Kingsford Terrace","lat":22.34031,"lon":114.21125,"population":5698},{"id":12719846,"name":"Sky Tower","ascii":"Sky Tower","lat":22.3235,"lon":114.18982,"population":5678},{"id":12719609,"name":"Kornhill Garden","ascii":"Kornhill Garden","lat":22.2853,"lon":114.21601,"population":5619},{"id":12719556,"name":"The Pacifica","ascii":"The Pacifica","lat":22.33448,"lon":114.14988,"population":5604},{"id":12746536,"name":"Fu Shan Estate","ascii":"Fu Shan Estate","lat":22.34278,"lon":114.20865,"population":5572},{"id":1819333,"name":"Mui Wo Kau Tsuen","ascii":"Mui Wo Kau Tsuen","lat":22.26886,"lon":113.98609,"population":5485},{"id":12719612,"name":"Cheerful Garden","ascii":"Cheerful Garden","lat":22.263,"lon":114.25063,"population":5367},{"id":12719800,"name":"Baguio Villa","ascii":"Baguio Villa","lat":22.26234,"lon":114.13364,"population":5339},{"id":12719596,"name":"Ming Wah Dai Ha","ascii":"Ming Wah Dai Ha","lat":22.27778,"lon":114.23108,"population":5299},{"id":12746523,"name":"Tung Wui Estate","ascii":"Tung Wui Estate","lat":22.33228,"lon":114.19393,"population":5280},{"id":12719608,"name":"Healthy Village","ascii":"Healthy Village","lat":22.29117,"lon":114.20624,"population":5278},{"id":12719574,"name":"Cullinan West","ascii":"Cullinan West","lat":22.32702,"lon":114.15409,"population":5276},{"id":12719798,"name":"Yue On Court","ascii":"Yue On Court","lat":22.24304,"lon":114.15746,"population":5175},{"id":1818770,"name":"So Kwun Wat Tsuen","ascii":"So Kwun Wat Tsuen","lat":22.3849,"lon":114.00448,"population":5172},{"id":1818775,"name":"Sok Kwu Wan","ascii":"Sok Kwu Wan","lat":22.20453,"lon":114.13159,"population":5100},{"id":12719598,"name":"Tung Yuk Court","ascii":"Tung Yuk Court","lat":22.2824,"lon":114.22681,"population":5052},{"id":12719550,"name":"Cosmopolitan Estate","ascii":"Cosmopolitan Estate","lat":22.32161,"lon":114.16162,"population":5035},{"id":8223931,"name":"Admiralty","ascii":"Admiralty","lat":22.28025,"lon":114.16337,"population":5031},{"id":12719549,"name":"Parc Oasis","ascii":"Parc Oasis","lat":22.33332,"lon":114.17488,"population":5005},{"id":1819326,"name":"Nai Chung","ascii":"Nai Chung","lat":22.43116,"lon":114.25753,"population":5001},{"id":1819230,"name":"Ngong Ping","ascii":"Ngong Ping","lat":22.25556,"lon":113.90391,"population":5001},{"id":1819072,"name":"Pui O","ascii":"Pui O","lat":22.24597,"lon":113.97817,"population":5001},{"id":1818923,"name":"Sha Tau Kok","ascii":"Sha Tau Kok","lat":22.54569,"lon":114.22379,"population":5001},{"id":12719835,"name":"Ma Tau Wai Estate","ascii":"Ma Tau Wai Estate","lat":22.32376,"lon":114.18678,"population":4942},{"id":12719824,"name":"Chun Man Court","ascii":"Chun Man Court","lat":22.31543,"lon":114.17927,"population":4929},{"id":12719595,"name":"Provident Centre","ascii":"Provident Centre","lat":22.29214,"lon":114.19566,"population":4873},{"id":12719622,"name":"Grand Promenade","ascii":"Grand Promenade","lat":22.28499,"lon":114.225,"population":4801},{"id":12719565,"name":"Nam Cheong Estate","ascii":"Nam Cheong Estate","lat":22.32593,"lon":114.15744,"population":4684},{"id":12719805,"name":"Park Avenue","ascii":"Park Avenue","lat":22.3163,"lon":114.16295,"population":4651},{"id":12719558,"name":"Fortune Estate","ascii":"Fortune Estate","lat":22.33556,"lon":114.15373,"population":4587},{"id":12719590,"name":"Tai On Lau","ascii":"Tai On Lau","lat":22.28274,"lon":114.2221,"population":4561},{"id":12719806,"name":"The Long Beach","ascii":"The Long Beach","lat":22.31925,"lon":114.15582,"population":4472},{"id":12719621,"name":"New Jade Garden","ascii":"New Jade Garden","lat":22.26376,"lon":114.23685,"population":4440},{"id":12719626,"name":"Lok Hin Terrace","ascii":"Lok Hin Terrace","lat":22.26424,"lon":114.2412,"population":4425},{"id":12746530,"name":"Mei Tung Estate","ascii":"Mei Tung Estate","lat":22.33314,"lon":114.18986,"population":4411},{"id":12719842,"name":"Grand Waterfront","ascii":"Grand Waterfront","lat":22.31921,"lon":114.19375,"population":4400},{"id":12719819,"name":"Royal Peninsula","ascii":"Royal Peninsula","lat":22.30469,"lon":114.18452,"population":4396},{"id":12719576,"name":"Aqua Marine","ascii":"Aqua Marine","lat":22.33258,"lon":114.14867,"population":4367},{"id":12719815,"name":"Prosperous Garden","ascii":"Prosperous Garden","lat":22.31009,"lon":114.16829,"population":4090},{"id":12719794,"name":"Broadview Court","ascii":"Broadview Court","lat":22.24269,"lon":114.16566,"population":4087},{"id":12719811,"name":"The Waterfront","ascii":"The Waterfront","lat":22.30463,"lon":114.16303,"population":4002},{"id":12746549,"name":"King Shan Court","ascii":"King Shan Court","lat":22.34195,"lon":114.21019,"population":3999},{"id":12719591,"name":"Bedford Garden","ascii":"Bedford Garden","lat":22.28962,"lon":114.20454,"population":3950},{"id":12746534,"name":"Kai Tak Garden","ascii":"Kai Tak Garden","lat":22.3378,"lon":114.19461,"population":3928},{"id":12746533,"name":"Choi Fai Estate","ascii":"Choi Fai Estate","lat":22.33539,"lon":114.21811,"population":3923},{"id":12719577,"name":"Chak On Estate","ascii":"Chak On Estate","lat":22.34029,"lon":114.16454,"population":3913},{"id":12719796,"name":"Ka Lung Court","ascii":"Ka Lung Court","lat":22.24948,"lon":114.13869,"population":3906},{"id":12719804,"name":"The Central Park","ascii":"The Central Park","lat":22.31715,"lon":114.16182,"population":3873},{"id":12719615,"name":"Fortress Garden","ascii":"Fortress Garden","lat":22.28744,"lon":114.19411,"population":3860},{"id":12719575,"name":"Wing Cheong Estate","ascii":"Wing Cheong Estate","lat":22.32928,"lon":114.15548,"population":3620},{"id":12719606,"name":"Chai Wan Estate","ascii":"Chai Wan Estate","lat":22.26428,"lon":114.2423,"population":3578},{"id":12746537,"name":"Fu Keung Court","ascii":"Fu Keung Court","lat":22.34034,"lon":114.18453,"population":3557},{"id":12719578,"name":"Lai On Estate","ascii":"Lai On Estate","lat":22.33135,"lon":114.15857,"population":3534},{"id":12719601,"name":"Tung Tao Court","ascii":"Tung Tao Court","lat":22.28181,"lon":114.22549,"population":3506},{"id":12719567,"name":"Hoi Ying Estate","ascii":"Hoi Ying Estate","lat":22.32853,"lon":114.14825,"population":3444},{"id":12719827,"name":"Mei King Mansion","ascii":"Mei King Mansion","lat":22.31606,"lon":114.19047,"population":3421},{"id":12719568,"name":"Hoi Tat Estate","ascii":"Hoi Tat Estate","lat":22.33017,"lon":114.14946,"population":3415},{"id":12719594,"name":"Kai Tsui Court","ascii":"Kai Tsui Court","lat":22.26158,"lon":114.25105,"population":3379},{"id":12719803,"name":"Harbour Green","ascii":"Harbour Green","lat":22.32127,"lon":114.15931,"population":3329},{"id":12719604,"name":"Fung Wah Estate","ascii":"Fung Wah Estate","lat":22.26079,"lon":114.23137,"population":3303},{"id":1818684,"name":"Tai O","nameKo":"타이오","ascii":"Tai O","lat":22.25515,"lon":113.86309,"population":3300},{"id":12719818,"name":"Celestial Heights","ascii":"Celestial Heights","lat":22.31922,"lon":114.18556,"population":3265},{"id":12746550,"name":"The Latitude","ascii":"The Latitude","lat":22.33339,"lon":114.19664,"population":3264},{"id":12719602,"name":"Tung Chun Court","ascii":"Tung Chun Court","lat":22.27772,"lon":114.22206,"population":3242},{"id":12719563,"name":"Cheung Sha Wan Estate","ascii":"Cheung Sha Wan Estate","lat":22.33453,"lon":114.15623,"population":3209},{"id":12719841,"name":"Mantin Heights","ascii":"Mantin Heights","lat":22.31926,"lon":114.18187,"population":3189},{"id":12719570,"name":"Manhattan Hill","ascii":"Manhattan Hill","lat":22.33458,"lon":114.14231,"population":3140},{"id":12746522,"name":"Sha Tin Pass Estate","ascii":"Sha Tin Pass Estate","lat":22.34981,"lon":114.19515,"population":3063},{"id":12719631,"name":"Braemar Hill Mansions","ascii":"Braemar Hill Mansions","lat":22.28543,"lon":114.20114,"population":3045},{"id":12719799,"name":"Yue Fai Court","ascii":"Yue Fai Court","lat":22.2498,"lon":114.15678,"population":3025},{"id":12719802,"name":"Pokfulam Gardens","ascii":"Pokfulam Gardens","lat":22.25776,"lon":114.13751,"population":3005},{"id":12719619,"name":"Metropole Building","ascii":"Metropole Building","lat":22.29056,"lon":114.19942,"population":2980},{"id":12719789,"name":"South Wave Court","ascii":"South Wave Court","lat":22.24463,"lon":114.16623,"population":2939},{"id":12719820,"name":"On Wo Yuen","ascii":"On Wo Yuen","lat":22.31653,"lon":114.19132,"population":2781},{"id":12719839,"name":"One Kai Tak","ascii":"One Kai Tak","lat":22.32971,"lon":114.20049,"population":2777},{"id":1818236,"name":"Yue Kwong Chuen","ascii":"Yue Kwong Chuen","lat":22.25158,"lon":114.15764,"population":2679},{"id":12719583,"name":"Queen's Terrace","ascii":"Queen's Terrace","lat":22.28702,"lon":114.14723,"population":2573},{"id":12719607,"name":"Healthy Gardens","ascii":"Healthy Gardens","lat":22.29153,"lon":114.20387,"population":2532},{"id":12719582,"name":"The Merton","ascii":"The Merton","lat":22.28333,"lon":114.12633,"population":2474},{"id":1819535,"name":"Lau Fau Shan","ascii":"Lau Fau Shan","lat":22.28328,"lon":113.93416,"population":2230},{"id":1818573,"name":"Ting Kok","ascii":"Ting Kok","lat":22.47285,"lon":114.21995,"population":2000},{"id":1818818,"name":"Shouson Hill","ascii":"Shouson Hill","lat":22.24843,"lon":114.17993,"population":1737}]