[{"id":3718426,"name":"Port-au-Prince","nameKo":"포르토프랭스","ascii":"Port-au-Prince","lat":18.54349,"lon":-72.33881,"population":1234742},{"id":3728338,"name":"Carrefour","ascii":"Carrefour","lat":18.54114,"lon":-72.39922,"population":442156},{"id":3726786,"name":"Delmas","ascii":"Delmas","lat":18.54478,"lon":-72.30036,"population":382920},{"id":3718420,"name":"Port-de-Paix","nameKo":"포르드페이","ascii":"Port-de-Paix","lat":19.93984,"lon":-72.83037,"population":306217},{"id":3719028,"name":"Pétionville","ascii":"Petionville","lat":18.5125,"lon":-72.28528,"population":283052},{"id":3727135,"name":"Croix-des-Bouquets","ascii":"Croix-des-Bouquets","lat":18.57677,"lon":-72.22625,"population":229127},{"id":3723779,"name":"Jacmel","nameKo":"자크멜","ascii":"Jacmel","lat":18.23569,"lon":-72.53686,"population":137966},{"id":3728474,"name":"Cap-Haïtien","nameKo":"카프아이시앵","ascii":"Cap-Haitien","lat":19.75938,"lon":-72.19815,"population":134815},{"id":3722286,"name":"Léogâne","ascii":"Leogane","lat":18.5111,"lon":-72.63343,"population":134190},{"id":3731088,"name":"Arcahaie","ascii":"Arcahaie","lat":18.77019,"lon":-72.51226,"population":130306},{"id":3728097,"name":"Les Cayes","nameKo":"르카예","ascii":"Les Cayes","lat":18.19199,"lon":-73.74948,"population":125799},{"id":3718962,"name":"Tigwav","ascii":"Tigwav","lat":18.43117,"lon":-72.86521,"population":117504},{"id":3723593,"name":"Jérémie","nameKo":"제레미","ascii":"Jeremie","lat":18.65,"lon":-74.11667,"population":97503},{"id":3717560,"name":"Saint-Michel de l'Atalaye","ascii":"Saint-Michel de l'Atalaye","lat":19.37084,"lon":-72.33472,"population":95216},{"id":3720824,"name":"Miragoâne","ascii":"Miragoane","lat":18.44599,"lon":-73.08957,"population":89202},{"id":3724696,"name":"Gonaïves","ascii":"Gonaives","lat":19.44755,"lon":-72.68928,"population":84961},{"id":3717588,"name":"Saint-Marc","ascii":"Saint-Marc","lat":19.11136,"lon":-72.70078,"population":66226},{"id":3716667,"name":"Thomazeau","ascii":"Thomazeau","lat":18.65297,"lon":-72.09391,"population":52017},{"id":3724337,"name":"Grangwav","ascii":"Grangwav","lat":18.4259,"lon":-72.76995,"population":49288},{"id":3716044,"name":"Verrettes","ascii":"Verrettes","lat":19.0505,"lon":-72.46585,"population":48724},{"id":3723440,"name":"Kenscoff","ascii":"Kenscoff","lat":18.44773,"lon":-72.28398,"population":42175},{"id":3717546,"name":"Saint-Raphaël","ascii":"Saint-Raphael","lat":19.43877,"lon":-72.1991,"population":37739},{"id":3740016,"name":"Ti Port-de-Paix","ascii":"Ti Port-de-Paix","lat":19.93333,"lon":-72.83333,"population":34657},{"id":3722124,"name":"Lenbe","ascii":"Lenbe","lat":19.70603,"lon":-72.40336,"population":32645},{"id":3724233,"name":"Gressier","ascii":"Gressier","lat":18.54091,"lon":-72.52679,"population":25947},{"id":3716737,"name":"Terrier Rouge","ascii":"Terrier Rouge","lat":19.63634,"lon":-71.95483,"population":21328},{"id":3723841,"name":"Hinche","nameKo":"앵슈","ascii":"Hinche","lat":19.1409,"lon":-72.01194,"population":18590},{"id":3725276,"name":"Fond Parisien","ascii":"Fond Parisien","lat":18.50547,"lon":-71.98122,"population":18256},{"id":3724331,"name":"Grand Gosier","ascii":"Grand Gosier","lat":18.18543,"lon":-71.9182,"population":17059},{"id":3726674,"name":"Désarmes","ascii":"Desarmes","lat":18.99345,"lon":-72.39058,"population":15594},{"id":3726540,"name":"Dessalines","ascii":"Dessalines","lat":19.26177,"lon":-72.51611,"population":12288},{"id":3717600,"name":"Saint-Louis du Nord","ascii":"Saint-Louis du Nord","lat":19.93397,"lon":-72.72138,"population":11849},{"id":3725170,"name":"Fort Liberté","ascii":"Fort Liberte","lat":19.66254,"lon":-71.8351,"population":11465},{"id":3716224,"name":"Trou du Nord","ascii":"Trou du Nord","lat":19.61668,"lon":-72.02442,"population":10569},{"id":3719436,"name":"Ouanaminthe","ascii":"Ouanaminthe","lat":19.54934,"lon":-71.72475,"population":10118},{"id":12558105,"name":"Sassier","ascii":"Sassier","lat":18.58336,"lon":-74.11833,"population":10000},{"id":3720811,"name":"Mirebalais","ascii":"Mirebalais","lat":18.83455,"lon":-72.1048,"population":9082},{"id":3724439,"name":"Grande Rivière du Nord","ascii":"Grande Riviere du Nord","lat":19.57744,"lon":-72.16872,"population":8836},{"id":3722253,"name":"Les Anglais","ascii":"Les Anglais","lat":18.3054,"lon":-74.21968,"population":8247},{"id":3722579,"name":"Lascahobas","ascii":"Lascahobas","lat":18.83047,"lon":-71.93563,"population":7574},{"id":3727327,"name":"Cornillon","ascii":"Cornillon","lat":18.67546,"lon":-71.95271,"population":7572},{"id":3724145,"name":"Gros Morne","ascii":"Gros Morne","lat":19.6708,"lon":-72.67808,"population":7294},{"id":3731132,"name":"Anse à Galets","ascii":"Anse a Galets","lat":18.83449,"lon":-72.86644,"population":7178},{"id":3718834,"name":"Pignon","ascii":"Pignon","lat":19.33594,"lon":-72.11662,"population":6731},{"id":3727055,"name":"Dame-Marie","ascii":"Dame-Marie","lat":18.56107,"lon":-74.42167,"population":6036},{"id":3716980,"name":"Sources Chaudes","ascii":"Sources Chaudes","lat":18.48392,"lon":-74.28673,"population":5544},{"id":3720854,"name":"Milot","ascii":"Milot","lat":19.60837,"lon":-72.21319,"population":5534},{"id":3723618,"name":"Jean-Rabel","ascii":"Jean-Rabel","lat":19.85379,"lon":-73.19131,"population":5419},{"id":3731095,"name":"Aquin","ascii":"Aquin","lat":18.27974,"lon":-73.39433,"population":5246},{"id":3721711,"name":"Mayisad","ascii":"Mayisad","lat":19.17607,"lon":-72.13958,"population":5204},{"id":3726263,"name":"Dondon","ascii":"Dondon","lat":19.52734,"lon":-72.24337,"population":5029},{"id":3716669,"name":"Thomassique","ascii":"Thomassique","lat":19.08209,"lon":-71.83855,"population":4857},{"id":3731105,"name":"Anse Rouge","ascii":"Anse Rouge","lat":19.63382,"lon":-73.0553,"population":4437},{"id":3722339,"name":"Borgne","ascii":"Borgne","lat":19.84507,"lon":-72.52349,"population":4288},{"id":3718826,"name":"Pilate","ascii":"Pilate","lat":19.66745,"lon":-72.55229,"population":4227},{"id":3718666,"name":"Plaisance","ascii":"Plaisance","lat":19.59795,"lon":-72.46994,"population":4152},{"id":3731087,"name":"Arcahaie","ascii":"Arcahaie","lat":19.81667,"lon":-72.91667,"population":4119},{"id":3728964,"name":"Cabaret","ascii":"Cabaret","lat":18.73582,"lon":-72.41929,"population":3951},{"id":3727902,"name":"Chardonnière","ascii":"Chardonniere","lat":18.27484,"lon":-74.16613,"population":3930},{"id":3718431,"name":"Port-à-Piment","ascii":"Port-a-Piment","lat":18.24963,"lon":-74.0971,"population":3819},{"id":3722110,"name":"Limonade","ascii":"Limonade","lat":19.67014,"lon":-72.1243,"population":3810},{"id":3725519,"name":"Ferrier","ascii":"Ferrier","lat":19.61549,"lon":-71.77792,"population":3804},{"id":3716663,"name":"Thomonde","ascii":"Thomonde","lat":19.0173,"lon":-71.96235,"population":3696},{"id":3731233,"name":"Acul du Nord","ascii":"Acul du Nord","lat":19.68075,"lon":-72.31978,"population":3454},{"id":3720765,"name":"Môle Saint-Nicolas","ascii":"Mole Saint-Nicolas","lat":19.80794,"lon":-73.37786,"population":3224},{"id":3718411,"name":"Port-Margot","ascii":"Port-Margot","lat":19.7518,"lon":-72.43006,"population":3070},{"id":3716619,"name":"Tiburon","ascii":"Tiburon","lat":18.32589,"lon":-74.39598,"population":3054},{"id":3728054,"name":"Cerca la Source","ascii":"Cerca la Source","lat":19.16696,"lon":-71.79015,"population":2792},{"id":3725222,"name":"Fonds Verrettes","ascii":"Fonds Verrettes","lat":18.39566,"lon":-71.85634,"population":2789},{"id":3727398,"name":"Corail","ascii":"Corail","lat":18.56766,"lon":-73.88942,"population":2782},{"id":3725364,"name":"Fond des Blancs","ascii":"Fond des Blancs","lat":18.27782,"lon":-73.12733,"population":2653},{"id":3730363,"name":"Belle-Anse","ascii":"Belle-Anse","lat":18.23768,"lon":-72.06638,"population":2611},{"id":3718707,"name":"Plaine du Nord","ascii":"Plaine du Nord","lat":19.67707,"lon":-72.26969,"population":2492},{"id":3716679,"name":"Thiotte","ascii":"Thiotte","lat":18.24384,"lon":-71.84157,"population":2461},{"id":3727287,"name":"Kotdefè","ascii":"Kotdefe","lat":18.18872,"lon":-73.00287,"population":2393},{"id":3718924,"name":"Phaëton","ascii":"Phaeton","lat":19.67525,"lon":-71.89691,"population":2297},{"id":3722239,"name":"Les Irois","ascii":"Les Irois","lat":18.4049,"lon":-74.4528,"population":2265},{"id":3721280,"name":"Marmelade","ascii":"Marmelade","lat":19.51736,"lon":-72.36133,"population":2184},{"id":3718938,"name":"Petit Trou de Nippes","ascii":"Petit Trou de Nippes","lat":18.52535,"lon":-73.50815,"population":2130},{"id":3728386,"name":"Carice","ascii":"Carice","lat":19.37795,"lon":-71.8303,"population":2104},{"id":3720667,"name":"Montòrganize","ascii":"Montorganize","lat":19.40815,"lon":-71.78132,"population":2104},{"id":3727297,"name":"Koto","ascii":"Koto","lat":18.20601,"lon":-74.04013,"population":2065},{"id":3729548,"name":"Bombardopolis","ascii":"Bombardopolis","lat":19.69142,"lon":-73.33769,"population":1974},{"id":3716403,"name":"Torbeck","ascii":"Torbeck","lat":18.16338,"lon":-73.80949,"population":1918},{"id":3719099,"name":"Perches","ascii":"Perches","lat":19.52201,"lon":-71.92323,"population":1889},{"id":3726728,"name":"Dérac","ascii":"Derac","lat":19.65476,"lon":-71.81451,"population":1855},{"id":3727944,"name":"Chantal","ascii":"Chantal","lat":18.20169,"lon":-73.88957,"population":1848},{"id":3720455,"name":"Moron","ascii":"Moron","lat":18.56039,"lon":-74.25777,"population":1830},{"id":3718975,"name":"Petite Rivière de Nippes","ascii":"Petite Riviere de Nippes","lat":18.47611,"lon":-73.23495,"population":1794},{"id":3724432,"name":"Grande Saline","ascii":"Grande Saline","lat":19.26513,"lon":-72.76897,"population":1787},{"id":3731126,"name":"Anse-à-Pitre","ascii":"Anse-a-Pitre","lat":18.05,"lon":-71.75,"population":1736},{"id":3731123,"name":"Anse-à-Veau","ascii":"Anse-a-Veau","lat":18.5011,"lon":-73.3449,"population":1731},{"id":3721313,"name":"Marigot","ascii":"Marigot","lat":18.23167,"lon":-72.32289,"population":1698},{"id":3730800,"name":"Baradères","ascii":"Baraderes","lat":18.48255,"lon":-73.63884,"population":1666},{"id":3717916,"name":"Roche-à-Bateau","ascii":"Roche-a-Bateau","lat":18.18182,"lon":-74.00345,"population":1662},{"id":3730932,"name":"Baie de Henne","ascii":"Baie de Henne","lat":19.66307,"lon":-73.20943,"population":1660},{"id":3730937,"name":"Bahon","ascii":"Bahon","lat":19.46959,"lon":-72.11466,"population":1618},{"id":3728093,"name":"Cayes-Jacmel","ascii":"Cayes-Jacmel","lat":18.2311,"lon":-72.39545,"population":1609},{"id":3728428,"name":"Caracol","ascii":"Caracol","lat":19.69274,"lon":-72.01733,"population":1549},{"id":3719008,"name":"Petite Anse","ascii":"Petite Anse","lat":19.63011,"lon":-73.15499,"population":1539},{"id":3717596,"name":"Saint-Louis du Sud","ascii":"Saint-Louis du Sud","lat":18.26241,"lon":-73.54603,"population":1528},{"id":3725663,"name":"Ennery","ascii":"Ennery","lat":19.48342,"lon":-72.48537,"population":1511},{"id":3727984,"name":"Chambellan","ascii":"Chambellan","lat":18.55037,"lon":-74.31317,"population":1397},{"id":3718199,"name":"Ranquitte","ascii":"Ranquitte","lat":19.41327,"lon":-72.08077,"population":1391},{"id":3718278,"name":"Quartier Morin","ascii":"Quartier Morin","lat":19.69696,"lon":-72.15712,"population":1299},{"id":3731257,"name":"Les Abricots","ascii":"Les Abricots","lat":18.64901,"lon":-74.30786,"population":1245},{"id":3725416,"name":"Fond Bassin Bleu","ascii":"Fond Bassin Bleu","lat":19.79445,"lon":-72.79949,"population":1184},{"id":3728122,"name":"Cavaillon","ascii":"Cavaillon","lat":18.29987,"lon":-73.65455,"population":1023}]