[{"id":281184,"name":"Jerusalem","nameKo":"예루살렘","ascii":"Jerusalem","lat":31.76904,"lon":35.21633,"population":971800},{"id":293397,"name":"Tel Aviv","nameKo":"텔아비브","ascii":"Tel Aviv","lat":32.08088,"lon":34.78057,"population":432892},{"id":7498240,"name":"West Jerusalem","ascii":"West Jerusalem","lat":31.78199,"lon":35.21961,"population":400000},{"id":294801,"name":"Haifa","nameKo":"하이파","ascii":"Haifa","lat":32.81303,"lon":34.99928,"population":285316},{"id":293703,"name":"Rishon LeTsiyyon","ascii":"Rishon LeTsiyyon","lat":31.97102,"lon":34.78939,"population":258535},{"id":293918,"name":"Petaẖ Tiqva","nameKo":"페타티크바","ascii":"Petah Tiqva","lat":32.08707,"lon":34.88747,"population":253529},{"id":294071,"name":"Netanya","nameKo":"네타냐","ascii":"Netanya","lat":32.33291,"lon":34.85992,"population":228204},{"id":295629,"name":"Ashdod","nameKo":"아슈도드","ascii":"Ashdod","lat":31.79213,"lon":34.64966,"population":226838},{"id":295514,"name":"Bnei Brak","nameKo":"브네이브라크","ascii":"Bnei Brak","lat":32.08074,"lon":34.8338,"population":214444},{"id":294751,"name":"H̱olon","ascii":"Holon","lat":32.01034,"lon":34.77918,"population":196282},{"id":295530,"name":"Beersheba","nameKo":"베르셰바","ascii":"Beersheba","lat":31.25181,"lon":34.7913,"population":186600},{"id":293788,"name":"Ramat Gan","nameKo":"라마트간","ascii":"Ramat Gan","lat":32.08227,"lon":34.81065,"population":170822},{"id":293725,"name":"Reẖovot","ascii":"Rehovot","lat":31.89421,"lon":34.81199,"population":149392},{"id":295620,"name":"Ashkelon","ascii":"Ashkelon","lat":31.66926,"lon":34.57149,"population":144073},{"id":295548,"name":"Bat Yam","nameKo":"바트얌","ascii":"Bat Yam","lat":32.02379,"lon":34.75185,"population":129012},{"id":295432,"name":"Bet Shemesh","ascii":"Bet Shemesh","lat":31.73072,"lon":34.99293,"population":124957},{"id":294514,"name":"Kfar Saba","ascii":"Kfar Saba","lat":32.175,"lon":34.90694,"population":110456},{"id":293253,"name":"Jaffa","ascii":"Jaffa","lat":32.05043,"lon":34.75224,"population":100000},{"id":294778,"name":"Herzliya","ascii":"Herzliya","lat":32.16627,"lon":34.82536,"population":97470},{"id":294946,"name":"Hadera","ascii":"Hadera","lat":32.44192,"lon":34.9039,"population":97335},{"id":282926,"name":"Modi‘in Makkabbim Re‘ut","ascii":"Modi'in Makkabbim Re'ut","lat":31.89385,"lon":35.01504,"population":93277},{"id":294098,"name":"Nazareth","nameKo":"나사렛","ascii":"Nazareth","lat":32.70087,"lon":35.29719,"population":77445},{"id":294421,"name":"Lod","nameKo":"로드","ascii":"Lod","lat":31.9467,"lon":34.8903,"population":77223},{"id":8199378,"name":"Modiin Ilit","ascii":"Modiin Ilit","lat":31.93221,"lon":35.04416,"population":76374},{"id":293768,"name":"Ramla","nameKo":"라믈라","ascii":"Ramla","lat":31.92624,"lon":34.8635,"population":76246},{"id":293807,"name":"Ra'anana","ascii":"Ra'anana","lat":32.1836,"lon":34.87386,"population":75421},{"id":293690,"name":"Rosh Ha‘Ayin","ascii":"Rosh Ha'Ayin","lat":32.09556,"lon":34.95664,"population":72881},{"id":294760,"name":"Hod HaSharon","ascii":"Hod HaSharon","lat":32.15934,"lon":34.8932,"population":63175},{"id":293842,"name":"Kiryat Gat","ascii":"Kiryat Gat","lat":31.60998,"lon":34.76422,"population":61817},{"id":294999,"name":"Givatayim","ascii":"Givatayim","lat":32.07225,"lon":34.81253,"population":60644},{"id":293845,"name":"Qiryat Ata","ascii":"Qiryat Ata","lat":32.81149,"lon":35.11323,"population":59030},{"id":294117,"name":"Nahariyya","ascii":"Nahariyya","lat":33.00892,"lon":35.09814,"population":58096},{"id":293286,"name":"Umm el Faḥm","ascii":"Umm el Fahm","lat":32.51725,"lon":35.15349,"population":56109},{"id":295277,"name":"Eilat","nameKo":"에일라트","ascii":"Eilat","lat":29.55805,"lon":34.94821,"population":52299},{"id":295721,"name":"Acre","nameKo":"아코","ascii":"Acre","lat":32.92814,"lon":35.07647,"population":51420},{"id":294074,"name":"Ness Ziona","ascii":"Ness Ziona","lat":31.92933,"lon":34.79868,"population":50351},{"id":8428480,"name":"El‘ad","ascii":"El'ad","lat":32.04984,"lon":34.95382,"population":48763},{"id":293222,"name":"Yavné","nameKo":"야브네","ascii":"Yavne","lat":31.87808,"lon":34.73983,"population":47585},{"id":293783,"name":"Ramat HaSharon","nameKo":"라마트하샤론","ascii":"Ramat HaSharon","lat":32.14613,"lon":34.8394,"population":47245},{"id":294577,"name":"Karmi’el","ascii":"Karmi'el","lat":32.91708,"lon":35.30501,"population":46252},{"id":295740,"name":"Afula","nameKo":"아풀라","ascii":"Afula","lat":32.60907,"lon":35.2892,"population":44930},{"id":293943,"name":"Pardés H̱anna Karkur","ascii":"Pardes Hanna Karkur","lat":32.47408,"lon":34.97781,"population":44840},{"id":293322,"name":"Tiberias","nameKo":"티베리아스","ascii":"Tiberias","lat":32.79221,"lon":35.53124,"population":44779},{"id":295130,"name":"Eṭ Ṭaiyiba","ascii":"Et Taiyiba","lat":32.26616,"lon":35.00893,"population":43957},{"id":293844,"name":"Qiryat Bialik","ascii":"Qiryat Bialik","lat":32.8275,"lon":35.08583,"population":43955},{"id":294068,"name":"Netivot","ascii":"Netivot","lat":31.42305,"lon":34.58911,"population":43732},{"id":294097,"name":"Naẕerat ‘Illit","ascii":"Nazerat 'Illit","lat":32.70816,"lon":35.32469,"population":43556},{"id":293831,"name":"Qiryat Motsqin","ascii":"QiryatMotsqin","lat":32.83706,"lon":35.0776,"population":43303},{"id":293539,"name":"Shefar‘am","ascii":"Shefar'am","lat":32.80583,"lon":35.16895,"population":42137},{"id":12031840,"name":"Kiryat Ono","ascii":"Kiryat Ono","lat":32.06124,"lon":34.85618,"population":39986},{"id":293822,"name":"Qiryat Yam","ascii":"Qiryat Yam","lat":32.84966,"lon":35.06973,"population":39897},{"id":293962,"name":"Or Yehuda","nameKo":"오르예후다","ascii":"Or Yehuda","lat":32.02923,"lon":34.85788,"population":36813},{"id":295328,"name":"Dimona","nameKo":"디모나","ascii":"Dimona","lat":31.07079,"lon":35.03269,"population":36192},{"id":293100,"name":"Safed","nameKo":"제파트","ascii":"Safed","lat":32.96465,"lon":35.496,"population":36094},{"id":293992,"name":"Ofaqim","ascii":"Ofaqim","lat":31.3141,"lon":34.62025,"population":34666},{"id":293655,"name":"Sakhnīn","nameKo":"사크닌","ascii":"Sakhnin","lat":32.86422,"lon":35.29707,"population":31702},{"id":295064,"name":"Gedera","nameKo":"게데라","ascii":"Gedera","lat":31.81456,"lon":34.77998,"population":30798},{"id":295571,"name":"Bāqa el Gharbīya","ascii":"Baqa el Gharbiya","lat":32.41806,"lon":35.04312,"population":29950},{"id":10227184,"name":"Yehud-Monosson","ascii":"Yehud-Monosson","lat":32.0284,"lon":34.8796,"population":29312},{"id":294981,"name":"Giv'at Shmuel","ascii":"Giv'at Shmuel","lat":32.07817,"lon":34.84858,"population":28628},{"id":295657,"name":"Arad","ascii":"Arad","lat":31.25882,"lon":35.21282,"population":27967},{"id":293308,"name":"Tirat Karmel","ascii":"Tirat Karmel","lat":32.76021,"lon":34.97183,"population":27822},{"id":295525,"name":"Be’er Ya‘aqov","ascii":"Be'er Ya'aqov","lat":31.93864,"lon":34.83749,"population":27768},{"id":293619,"name":"Sderot","ascii":"Sderot","lat":31.525,"lon":34.59693,"population":27635},{"id":295127,"name":"Eṭ Ṭīra","ascii":"Et Tira","lat":32.2341,"lon":34.95023,"population":26552},{"id":293426,"name":"Tamra","ascii":"Tamra","lat":32.85301,"lon":35.1987,"population":25917},{"id":294210,"name":"Migdal Ha‘Emeq","ascii":"Migdal Ha'Emeq","lat":32.67597,"lon":35.23986,"population":25675},{"id":293207,"name":"Yehud","ascii":"Yehud","lat":32.03317,"lon":34.89091,"population":25600},{"id":293835,"name":"Qiryat Mal’akhi","ascii":"Qiryat Mal'akhi","lat":31.72888,"lon":34.74632,"population":25362},{"id":295089,"name":"Ganei Tikva","ascii":"Ganei Tikva","lat":32.05971,"lon":34.8732,"population":25093},{"id":295365,"name":"Daliyat al Karmel","ascii":"Daliyat al Karmel","lat":32.69383,"lon":35.04686,"population":25000},{"id":293837,"name":"Qiryat HaYovel","ascii":"Qiryat HaYovel","lat":31.76667,"lon":35.16667,"population":25000},{"id":295655,"name":"‘Ar‘ara","ascii":"'Ar'ara","lat":32.49553,"lon":35.09411,"population":24904},{"id":294492,"name":"Kfar Yona","ascii":"KfarYona","lat":32.31669,"lon":34.93507,"population":24778},{"id":294078,"name":"Nesher","ascii":"Nesher","lat":32.76622,"lon":35.04425,"population":24148},{"id":294245,"name":"Mevasseret Tsiyyon","ascii":"MevasseretTsiyyon","lat":31.80186,"lon":35.15072,"population":24052},{"id":295080,"name":"Gan Yavne","ascii":"Gan Yavne","lat":31.78737,"lon":34.70659,"population":23869},{"id":294604,"name":"Kafr Qāsim","ascii":"Kafr Qasim","lat":32.11406,"lon":34.97624,"population":23823},{"id":293153,"name":"Yoqne‘am ‘Illit","ascii":"Yoqne'am 'Illit","lat":32.65385,"lon":35.10382,"population":23796},{"id":293067,"name":"Zikhron Ya‘aqov","ascii":"Zikhron Ya'aqov","lat":32.56645,"lon":34.95628,"population":23206},{"id":294387,"name":"Maghār","ascii":"Maghar","lat":32.88984,"lon":35.40703,"population":22957},{"id":294610,"name":"Kafr Kannā","ascii":"Kafr Kanna","lat":32.7466,"lon":35.34242,"population":22751},{"id":293825,"name":"Qiryat Shmona","nameKo":"키르야트시모나","ascii":"QiryatShmona","lat":33.20733,"lon":35.57212,"population":22512},{"id":11524864,"name":"Kadima Zoran","ascii":"Kadima Zoran","lat":32.27782,"lon":34.9194,"population":22490},{"id":293420,"name":"maalot Tarshīhā","ascii":"maalot Tarshiha","lat":33.01667,"lon":35.26667,"population":21836},{"id":8374209,"name":"H̱ura","ascii":"Hura","lat":31.30084,"lon":34.93606,"population":21558},{"id":294622,"name":"Judeida Makr","ascii":"Judeida Makr","lat":32.9282,"lon":35.15705,"population":21163},{"id":8374220,"name":"Kuseifa","ascii":"Kuseifa","lat":31.24535,"lon":35.0931,"population":21079},{"id":8428283,"name":"Shoham","ascii":"Shoham","lat":31.99866,"lon":34.94559,"population":20740},{"id":8199394,"name":"Ariel","ascii":"Ariel","lat":32.1065,"lon":35.18449,"population":20540},{"id":8310136,"name":"Tel Sheva‘","ascii":"Tel Sheva'","lat":31.24864,"lon":34.86007,"population":20204},{"id":294608,"name":"Kafr Mandā","ascii":"Kafr Manda","lat":32.81034,"lon":35.26009,"population":20188},{"id":8184212,"name":"Rahat","ascii":"Rahat","lat":31.39547,"lon":34.75699,"population":19586},{"id":294605,"name":"Kafr Qari‘","ascii":"Kafr Qari'","lat":32.50666,"lon":35.05392,"population":19018},{"id":293969,"name":"Or Akiva","ascii":"Or Akiva","lat":32.5064,"lon":34.92087,"population":18972},{"id":293254,"name":"Yāfā","ascii":"Yafa","lat":32.68923,"lon":35.27832,"population":18905},{"id":293823,"name":"Qiryat Tiv‘on","ascii":"Qiryat Tiv'on","lat":32.71618,"lon":35.12494,"population":18130},{"id":8374203,"name":"‘Ar‘ara BaNegev","ascii":"'Ar'ara BaNegev","lat":31.16046,"lon":35.02274,"population":17640},{"id":293181,"name":"Yirkā","ascii":"Yirka","lat":32.95435,"lon":35.21197,"population":17171},{"id":293896,"name":"Qalansuwa","ascii":"Qalansuwa","lat":32.28493,"lon":34.98106,"population":16898},{"id":295435,"name":"Bet She’an","nameKo":"베트셰안","ascii":"Bet She'an","lat":32.49728,"lon":35.49632,"population":16800},{"id":295410,"name":"Binyamina","ascii":"Binyamina","lat":32.5232,"lon":34.94499,"population":15847},{"id":12156557,"name":"Binyamina-Giv'at Ada","ascii":"Binyamina-Giv'at Ada","lat":32.51824,"lon":34.95398,"population":15847},{"id":295174,"name":"Er Reina","ascii":"Er Reina","lat":32.72339,"lon":35.31622,"population":15621},{"id":281187,"name":"Giv`at H̱ananya","ascii":"Giv`at Hananya","lat":31.76667,"lon":35.23333,"population":15500},{"id":294373,"name":"Majd el Kurūm","ascii":"Majd el Kurum","lat":32.92186,"lon":35.25568,"population":15455},{"id":294626,"name":"Jisr ez Zarqā","ascii":"Jisr ez Zarqa","lat":32.53684,"lon":34.9127,"population":14930},{"id":294303,"name":"Mazkeret Batya","ascii":"Mazkeret Batya","lat":31.85357,"lon":34.84646,"population":14837},{"id":11979755,"name":"Maale Iron","ascii":"Maale Iron","lat":32.55382,"lon":35.18412,"population":14833},{"id":294658,"name":"Iksāl","ascii":"Iksal","lat":32.68164,"lon":35.32365,"population":14784},{"id":295765,"name":"Abū Sinān","ascii":"Abu Sinan","lat":32.95891,"lon":35.17152,"population":14099},{"id":294615,"name":"Kābūl","ascii":"Kabul","lat":32.86856,"lon":35.21171,"population":14095},{"id":8184241,"name":"Laqiyya","ascii":"Laqiyya","lat":31.3185,"lon":34.8589,"population":14075},{"id":295122,"name":"Even Yehuda","ascii":"Even Yehuda","lat":32.26959,"lon":34.88759,"population":13826},{"id":295285,"name":"‘Ein Māhil","ascii":"'Ein Mahil","lat":32.72304,"lon":35.35303,"population":13335},{"id":294663,"name":"I‘billīn","ascii":"I'billin","lat":32.82233,"lon":35.19271,"population":13305},{"id":295269,"name":"El Fureidīs","ascii":"El Fureidis","lat":32.59812,"lon":34.95153,"population":13247},{"id":293354,"name":"Tel Mond","ascii":"Tel Mond","lat":32.24995,"lon":34.91737,"population":13144},{"id":294114,"name":"Naḥf","ascii":"Nahf","lat":32.93444,"lon":35.31679,"population":13113},{"id":295584,"name":"Azor","ascii":"Azor","lat":32.0243,"lon":34.80632,"population":12957},{"id":293721,"name":"Rekhasim","ascii":"Rekhasim","lat":32.74907,"lon":35.09901,"population":12668},{"id":295341,"name":"Deir el Asad","ascii":"Deir el Asad","lat":32.93598,"lon":35.26998,"population":12514},{"id":294642,"name":"‘Isfiyā","ascii":"'Isfiya","lat":32.71836,"lon":35.06509,"population":12503},{"id":294630,"name":"Jatt","ascii":"Jatt","lat":32.39843,"lon":35.03933,"population":12100},{"id":295523,"name":"Beit Jann","ascii":"Beit Jann","lat":32.96464,"lon":35.38152,"population":12001},{"id":167444,"name":"Majdal Shams","ascii":"Majdal Shams","lat":33.27029,"lon":35.7716,"population":11180},{"id":294552,"name":"Qiryat ‘Eqron","ascii":"Qiryat 'Eqron","lat":31.86119,"lon":34.82275,"population":11001},{"id":8184332,"name":"Segev Shalom","ascii":"Segev Shalom","lat":31.19918,"lon":34.83956,"population":10362},{"id":295339,"name":"Deir Ḥannā","ascii":"Deir Hanna","lat":32.86196,"lon":35.36365,"population":10339},{"id":293203,"name":"Yeroẖam","ascii":"Yeroham","lat":30.98822,"lon":34.93176,"population":10294},{"id":294634,"name":"Jaljūlya","ascii":"Jaljulya","lat":32.1547,"lon":34.95372,"population":10148},{"id":294600,"name":"Kfar Yasif","ascii":"Kfar Yasif","lat":32.95451,"lon":35.1623,"population":10133},{"id":8478264,"name":"Herzliya Pituah","ascii":"Herzliya Pituah","lat":32.17409,"lon":34.8028,"population":10000},{"id":12156812,"name":"Basma","ascii":"Basma","lat":32.52904,"lon":35.10059,"population":9779},{"id":11979636,"name":"Bu'ayna-Nujaydat","ascii":"Bu'ayna-Nujaydat","lat":32.80966,"lon":35.36987,"population":9645},{"id":294809,"name":"H̱atsor HaGelilit","ascii":"HatsorHaGelilit","lat":32.98049,"lon":35.54243,"population":9272},{"id":295613,"name":"Atlit","ascii":"Atlit","lat":32.68889,"lon":34.94236,"population":8875},{"id":11979665,"name":"Kisra - Sume'a","ascii":"Kisra - Sume'a","lat":32.97262,"lon":35.29877,"population":8818},{"id":8141161,"name":"Kokhav Ya’ir","ascii":"Kokhav Ya'ir","lat":32.22623,"lon":35.00222,"population":8702},{"id":8062538,"name":"Meitar","ascii":"Meitar","lat":31.32726,"lon":34.93855,"population":8438},{"id":295411,"name":"Bi’na","ascii":"Bi'na","lat":32.93066,"lon":35.27157,"population":8381},{"id":294654,"name":"‘Ilūṭ","ascii":"'Ilut","lat":32.71639,"lon":35.25944,"population":8356},{"id":295370,"name":"Dabbūrīya","ascii":"Dabburiya","lat":32.69256,"lon":35.37123,"population":8305},{"id":8264669,"name":"Zarzir","ascii":"Zarzir","lat":32.72754,"lon":35.21381,"population":7942},{"id":295553,"name":"Basmat Ṭab‘ūn","ascii":"Basmat Tab'un","lat":32.73898,"lon":35.15716,"population":7916},{"id":295380,"name":"Bu‘eina","ascii":"Bu`eina","lat":32.80636,"lon":35.36486,"population":7900},{"id":293773,"name":"Ramat Yishay","ascii":"Ramat Yishay","lat":32.70444,"lon":35.1707,"population":7785},{"id":293793,"name":"Rama","ascii":"Rama","lat":32.93844,"lon":35.3675,"population":7728},{"id":295772,"name":"Abū Ghaush","ascii":"Abu Ghaush","lat":31.80592,"lon":35.1093,"population":7698},{"id":8141842,"name":"H̱arish","ascii":"Harish","lat":32.46096,"lon":35.0435,"population":7569},{"id":293982,"name":"‘Omer","ascii":"'Omer","lat":31.26489,"lon":34.84766,"population":7530},{"id":443093,"name":"Katzrin","ascii":"Katzrin","lat":32.99194,"lon":35.69139,"population":7132},{"id":295404,"name":"Bīr el Maksūr","ascii":"Bir el Maksur","lat":32.77732,"lon":35.22069,"population":7106},{"id":295475,"name":"Bet Dagan","ascii":"Bet Dagan","lat":32.00191,"lon":34.82977,"population":7099},{"id":8142386,"name":"Zemer","ascii":"Zemer","lat":32.36658,"lon":35.03312,"population":7094},{"id":295515,"name":"Bnei Ayish","ascii":"Bnei Ayish","lat":31.79,"lon":34.759,"population":6978},{"id":293595,"name":"Sha‘av","ascii":"Sha'av","lat":32.88943,"lon":35.24093,"population":6941},{"id":293298,"name":"Tūbā Zangarīya","ascii":"Tuba Zangariya","lat":32.96606,"lon":35.59304,"population":6776},{"id":11979655,"name":"Yanuah Jat","ascii":"Yanuah Jat","lat":32.9798,"lon":35.23806,"population":6679},{"id":12156671,"name":"Yanuh-Jat","ascii":"Yanuh-Jat","lat":32.98515,"lon":35.2491,"population":6614},{"id":294545,"name":"Kfar H̱abad","ascii":"KfarHabad","lat":31.98793,"lon":34.8516,"population":6598},{"id":293522,"name":"Shlomi","ascii":"Shlomi","lat":33.07186,"lon":35.14527,"population":6511},{"id":294620,"name":"Jūlis","ascii":"Julis","lat":32.94267,"lon":35.18278,"population":6465},{"id":6693244,"name":"Lehavim","ascii":"Lehavim","lat":31.37284,"lon":34.81619,"population":6415},{"id":294666,"name":"Ḥurfeish","ascii":"Hurfeish","lat":33.01711,"lon":35.34835,"population":6410},{"id":293821,"name":"Qiryat Ye‘arim","ascii":"Qiryat Ye'arim","lat":31.803,"lon":35.102,"population":6128},{"id":11979772,"name":"Tsur Itshak","ascii":"Tsur Itshak","lat":32.24047,"lon":34.99788,"population":6044},{"id":295473,"name":"Bet El‘azari","ascii":"Bet El'azari","lat":31.84429,"lon":34.80368,"population":6042},{"id":12156807,"name":"Shibli–Umm al-Ghanam","ascii":"Shibli-Umm al-Ghanam","lat":32.68395,"lon":35.39621,"population":5995},{"id":293942,"name":"Pardesiyya","ascii":"Pardesiyya","lat":32.30577,"lon":34.90911,"population":5930},{"id":295379,"name":"Buqei‘a","ascii":"Buqei'a","lat":32.97747,"lon":35.33345,"population":5893},{"id":295291,"name":"‘Eilabun","ascii":"'Eilabun","lat":32.83693,"lon":35.40029,"population":5752},{"id":12156436,"name":"Bir Hadaj","ascii":"Bir Hadaj","lat":31.02416,"lon":34.70857,"population":5735},{"id":12156432,"name":"AlSayid Tribe","ascii":"AlSayid Tribe","lat":31.28252,"lon":34.91505,"population":5663},{"id":8265524,"name":"Ka‘abiyya","ascii":"Ka'abiyya","lat":32.74985,"lon":35.18361,"population":5504},{"id":386445,"name":"Kfar Veradim","ascii":"KfarVeradim","lat":32.99385,"lon":35.27793,"population":5486},{"id":7117228,"name":"Caesarea","ascii":"Caesarea","lat":32.51888,"lon":34.90459,"population":5343},{"id":8141252,"name":"Bat H̱efer","ascii":"Bat Hefer","lat":32.33307,"lon":35.01272,"population":5301},{"id":294166,"name":"Mitzpe Ramon","ascii":"Mitzpe Ramon","lat":30.60944,"lon":34.80111,"population":5211},{"id":386042,"name":"Shibli","ascii":"Shibli","lat":32.69464,"lon":35.39252,"population":4800},{"id":293020,"name":"Tsur Hadassa","ascii":"TsurHadassa","lat":31.71912,"lon":35.09708,"population":4700},{"id":293126,"name":"Zalafa","ascii":"Zalafa","lat":32.54805,"lon":35.1852,"population":4639},{"id":8199392,"name":"Talmon","ascii":"Talmon","lat":31.93927,"lon":35.13539,"population":4575},{"id":293220,"name":"Yavne’el","ascii":"Yavne'el","lat":32.70619,"lon":35.50435,"population":4460},{"id":294502,"name":"Kfar Tavor","ascii":"KfarTavor","lat":32.68655,"lon":35.42118,"population":4311},{"id":293657,"name":"Sājūr","ascii":"Sajur","lat":32.94266,"lon":35.34136,"population":4270},{"id":293262,"name":"Yad Binyamin","ascii":"Yad Binyamin","lat":31.7974,"lon":34.82083,"population":4268},{"id":294140,"name":"Muṣmuṣ","ascii":"Musmus","lat":32.54358,"lon":35.15619,"population":4215},{"id":12156429,"name":"Umm Batin","ascii":"Umm Batin","lat":31.27735,"lon":34.88246,"population":4093},{"id":294142,"name":"Muqeibila","ascii":"Muqeibila","lat":32.51424,"lon":35.29617,"population":4081},{"id":293633,"name":"Savyon","ascii":"Savyon","lat":32.04966,"lon":34.8777,"population":4036},{"id":295249,"name":"El Mazra‘a","ascii":"El Mazra`a","lat":32.98338,"lon":35.09837,"population":3900},{"id":282597,"name":"Naẖal Teqoa‘","ascii":"Nahal Teqoa'","lat":31.65406,"lon":35.22822,"population":3882},{"id":294613,"name":"Kafr Barā","ascii":"Kafr Bara","lat":32.13136,"lon":34.97079,"population":3678},{"id":8428532,"name":"Matan","ascii":"Matan","lat":32.15856,"lon":34.97413,"population":3600},{"id":294571,"name":"Kaukab Abū el Hījā","ascii":"Kaukab Abu el Hija","lat":32.83155,"lon":35.24848,"population":3589},{"id":8183198,"name":"‘Ein Naqūbā","ascii":"'Ein Naquba","lat":31.79366,"lon":35.12064,"population":3505},{"id":295232,"name":"Elyakhin","ascii":"Elyakhin","lat":32.40793,"lon":34.92433,"population":3415},{"id":294611,"name":"Kafr Kammā","ascii":"Kafr Kamma","lat":32.72129,"lon":35.44122,"population":3373},{"id":386253,"name":"Sallama","ascii":"Sallama","lat":32.89443,"lon":35.36931,"population":3340},{"id":282582,"name":"Har Adar","ascii":"Har Adar","lat":31.82754,"lon":35.13093,"population":3300},{"id":293014,"name":"Tsur Moshe","ascii":"TsurMoshe","lat":32.29819,"lon":34.91313,"population":3291},{"id":293273,"name":"‘Uzeir","ascii":"'Uzeir","lat":32.79212,"lon":35.32984,"population":3276},{"id":295104,"name":"Fassūta","ascii":"Fassuta","lat":33.04895,"lon":35.30893,"population":3172},{"id":293688,"name":"Rosh Pinna","ascii":"Rosh Pinna","lat":32.96894,"lon":35.54258,"population":3148},{"id":294627,"name":"Jīsh","ascii":"Jish","lat":33.02216,"lon":35.44694,"population":3105},{"id":295157,"name":"Esh Sheikh Dannūn","ascii":"Esh Sheikh Dannun","lat":32.9941,"lon":35.14805,"population":2887},{"id":163684,"name":"Tel Qatsir","ascii":"Tel Qatsir","lat":32.70545,"lon":35.61761,"population":2878},{"id":294661,"name":"Ibṭīn","ascii":"Ibtin","lat":32.7615,"lon":35.11402,"population":2835},{"id":8199382,"name":"Hashmonaim","ascii":"Hashmonaim","lat":31.92973,"lon":35.0215,"population":2771},{"id":294607,"name":"Kafr Miṣr","ascii":"Kafr Misr","lat":32.64521,"lon":35.42147,"population":2750},{"id":294205,"name":"Mi‘ilyā","ascii":"Mi`ilya","lat":33.02781,"lon":35.25658,"population":2700},{"id":8265522,"name":"Nofit","ascii":"Nofit","lat":32.76226,"lon":35.1477,"population":2689},{"id":294998,"name":"Giv‘at Brenner","ascii":"Giv'at Brenner","lat":31.86684,"lon":34.80097,"population":2678},{"id":8340977,"name":"Gan Ner","ascii":"Gan Ner","lat":32.53106,"lon":35.3377,"population":2670},{"id":8199384,"name":"Kfar NaOranim","ascii":"Kfar NaOranim","lat":31.91982,"lon":35.03669,"population":2657},{"id":8199422,"name":"Revava","ascii":"Revava","lat":32.11926,"lon":35.12896,"population":2632},{"id":293449,"name":"Sūlam","ascii":"Sulam","lat":32.60606,"lon":35.33408,"population":2609},{"id":173882,"name":"Ghajar","ascii":"Ghajar","lat":33.27115,"lon":35.62288,"population":2607},{"id":8264691,"name":"Shimshit","ascii":"Shimshit","lat":32.73137,"lon":35.24409,"population":2514},{"id":283989,"name":"El‘azar","ascii":"El'azar","lat":31.65977,"lon":35.14316,"population":2510},{"id":8199383,"name":"Lapid","ascii":"Lapid","lat":31.91764,"lon":35.03222,"population":2497},{"id":294539,"name":"Niẕẕan","ascii":"Nizzan","lat":31.73854,"lon":34.62985,"population":2461},{"id":282727,"name":"Miẕpé Yeriẖo","ascii":"Mizpe Yeriho","lat":31.81672,"lon":35.39405,"population":2453},{"id":294099,"name":"Nā‘ūra","ascii":"Na'ura","lat":32.61403,"lon":35.39168,"population":2324},{"id":8139973,"name":"Aẖuzzat Baraq","ascii":"Ahuzzat Baraq","lat":32.64187,"lon":35.33834,"population":2279},{"id":8072868,"name":"Merkaz Shapira","ascii":"Merkaz Shapira","lat":31.69874,"lon":34.70895,"population":2210},{"id":390265,"name":"Bet H̱ashmonay","ascii":"Bet Hashmonay","lat":31.88969,"lon":34.91673,"population":2197},{"id":293319,"name":"Tifraẖ","ascii":"Tifrah","lat":31.32657,"lon":34.67689,"population":2178},{"id":8199389,"name":"Na'ale","ascii":"Na'ale","lat":31.96236,"lon":35.06553,"population":2148},{"id":8199379,"name":"Nof Ayalon","ascii":"Nof Ayalon","lat":31.87111,"lon":34.99081,"population":2128},{"id":283047,"name":"Kokhav HaShaẖar","ascii":"Kokhav HaShahar","lat":31.96028,"lon":35.34923,"population":2122},{"id":293508,"name":"Shtulim","ascii":"Shtulim","lat":31.77354,"lon":34.68388,"population":2116},{"id":172119,"name":"‘Ein Qunīya","ascii":"'Ein Quniya","lat":33.23752,"lon":35.73131,"population":2098},{"id":295565,"name":"Bareqet","ascii":"Bareqet","lat":32.01839,"lon":34.94416,"population":2082},{"id":293580,"name":"Bet Yitsẖaq Sha’ar H̱efer","ascii":"BetYitshaqSha'arHefer","lat":32.33462,"lon":34.89052,"population":2079},{"id":294392,"name":"Ma‘galim","ascii":"Ma'galim","lat":31.39688,"lon":34.5995,"population":2061},{"id":443090,"name":"H̱aspin","ascii":"Haspin","lat":32.84571,"lon":35.79295,"population":2055},{"id":386169,"name":"Hosha‘ya","ascii":"Hosha'ya","lat":32.75809,"lon":35.2948,"population":2051},{"id":8140105,"name":"Giv‘at Avni","ascii":"Giv'at Avni","lat":32.77682,"lon":35.43747,"population":2049},{"id":386194,"name":"Rumat Heib","ascii":"Rumat Heib","lat":32.77802,"lon":35.30571,"population":2047},{"id":294410,"name":"Ma‘agan Mikha’el","ascii":"Ma'agan Mikha'el","lat":32.55549,"lon":34.91638,"population":2039},{"id":8374146,"name":"Khirbat Abu Tulūl","ascii":"Khirbat Abu Tulul","lat":31.14229,"lon":34.91424,"population":2023},{"id":294470,"name":"Meisir","ascii":"Meisir","lat":32.44445,"lon":35.04134,"population":2017},{"id":294498,"name":"Kefar Vitqin","ascii":"Kefar Vitqin","lat":32.38036,"lon":34.87537,"population":1973},{"id":6929924,"name":"Midreshet Ben-Gurion","ascii":"Midreshet Ben-Gurion","lat":30.85154,"lon":34.7834,"population":1972},{"id":8264692,"name":"Giv‘at Ela","ascii":"Giv'at Ela","lat":32.72377,"lon":35.24469,"population":1964},{"id":294214,"name":"Migdal","ascii":"Migdal","lat":32.8392,"lon":35.50145,"population":1952},{"id":294003,"name":"Nordiyya","ascii":"Nordiyya","lat":32.3147,"lon":34.89617,"population":1950},{"id":294508,"name":"Kfar Shmaryahu","ascii":"KfarShmaryahu","lat":32.18529,"lon":34.82082,"population":1938},{"id":293590,"name":"Sha‘alvim","ascii":"Sha'alvim","lat":31.86996,"lon":34.98722,"population":1928},{"id":8265550,"name":"‘Adi","ascii":"'Adi","lat":32.78486,"lon":35.17282,"population":1910},{"id":293585,"name":"Sha‘ar Efrayim","ascii":"Sha'ar Efrayim","lat":32.29067,"lon":34.9984,"population":1907},{"id":295730,"name":"Aẖi‘ezer","ascii":"Ahi'ezer","lat":31.98133,"lon":34.87213,"population":1906},{"id":294089,"name":"Nein","nameKo":"이스라엘 나인","ascii":"Nein","lat":32.63063,"lon":35.34885,"population":1876},{"id":295131,"name":"Taiyiba","ascii":"Taiyiba","lat":32.60415,"lon":35.44483,"population":1843},{"id":295123,"name":"Even Shemu’el","ascii":"Even Shemu'el","lat":31.57641,"lon":34.76342,"population":1807},{"id":294093,"name":"Neẖalim","ascii":"Nehalim","lat":32.06012,"lon":34.91069,"population":1788},{"id":8199388,"name":"Nili","ascii":"Nili","lat":31.96396,"lon":35.04853,"population":1786},{"id":8183071,"name":"Karmé Yosef","ascii":"Karme Yosef","lat":31.84833,"lon":34.92024,"population":1730},{"id":293191,"name":"Yesud HaMa‘ala","ascii":"Yesud HaMa'ala","lat":33.0592,"lon":35.61033,"population":1730},{"id":294135,"name":"Na‘an","ascii":"Na'an","lat":31.88282,"lon":34.85832,"population":1717},{"id":295421,"name":"Bet Zayit","ascii":"Bet Zayit","lat":31.78233,"lon":35.16161,"population":1708},{"id":8066409,"name":"‘Aramsha","ascii":"'Aramsha","lat":33.08781,"lon":35.22836,"population":1682},{"id":295424,"name":"Bet Yitsẖaq","ascii":"BetYitshaq","lat":32.32751,"lon":34.88878,"population":1674},{"id":293648,"name":"Ṣandala","ascii":"Sandala","lat":32.52234,"lon":35.32325,"population":1644},{"id":293248,"name":"Yagur","ascii":"Yagur","lat":32.7421,"lon":35.0774,"population":1617},{"id":294247,"name":"Metulla","ascii":"Metulla","lat":33.27918,"lon":35.5795,"population":1615},{"id":295042,"name":"Gesher HaZiv","ascii":"GesherHaZiv","lat":33.03995,"lon":35.11189,"population":1614},{"id":293852,"name":"Qidron","ascii":"Qidron","lat":31.81405,"lon":34.79714,"population":1607},{"id":295185,"name":"Ein Sarid","ascii":"Ein Sarid","lat":32.27413,"lon":34.93408,"population":1603},{"id":294533,"name":"Kfar Hess","ascii":"Kfar Hess","lat":32.24714,"lon":34.93562,"population":1593},{"id":293617,"name":"Sde ‘Uziyyahu","ascii":"Sde 'Uziyyahu","lat":31.75,"lon":34.68333,"population":1571},{"id":295182,"name":"Ein Vered","ascii":"Ein Vered","lat":32.26667,"lon":34.93333,"population":1512},{"id":295743,"name":"Afiqim","ascii":"Afiqim","lat":32.68046,"lon":35.57776,"population":1511},{"id":293410,"name":"Tel ‘Adashim","ascii":"Tel 'Adashim","lat":32.65627,"lon":35.30216,"population":1504},{"id":294505,"name":"Kfar Syrkin","ascii":"KfarSyrkin","lat":32.07804,"lon":34.92261,"population":1502},{"id":295582,"name":"‘Azriqam","ascii":"'Azriqam","lat":31.7507,"lon":34.69933,"population":1495},{"id":9618076,"name":"Kammana","ascii":"Kammana","lat":32.91366,"lon":35.35991,"population":1495},{"id":8262019,"name":"Moreshet","ascii":"Moreshet","lat":32.82859,"lon":35.23466,"population":1489},{"id":294091,"name":"Neẖusha","ascii":"Nehusha","lat":31.63064,"lon":34.9531,"population":1484},{"id":293616,"name":"Sde Warburg","ascii":"Sde Warburg","lat":32.20361,"lon":34.90722,"population":1478},{"id":8309927,"name":"H̱amam","ascii":"Hamam","lat":32.82955,"lon":35.49195,"population":1473},{"id":294537,"name":"Kfar HaRo’e","ascii":"KfarHaRo'e","lat":32.39245,"lon":34.91163,"population":1460},{"id":293701,"name":"Rishpon","ascii":"Rishpon","lat":32.20254,"lon":34.82322,"population":1458},{"id":294980,"name":"Giv‘at Ye‘arim","ascii":"Giv'at Ye'arim","lat":31.78653,"lon":35.09182,"population":1455},{"id":295011,"name":"Gilat","ascii":"Gilat","lat":31.3276,"lon":34.65202,"population":1451},{"id":8199393,"name":"Dolev","ascii":"Dolev","lat":31.92609,"lon":35.13393,"population":1448},{"id":295510,"name":"Bne Re’em","ascii":"BneRe'em","lat":31.77029,"lon":34.79105,"population":1417},{"id":294079,"name":"Nes Harim","ascii":"Nes Harim","lat":31.74547,"lon":35.0574,"population":1414},{"id":295439,"name":"Bet Qama","ascii":"Bet Qama","lat":31.44749,"lon":34.76235,"population":1405},{"id":294204,"name":"Mikhmoret","ascii":"Mikhmoret","lat":32.40535,"lon":34.87091,"population":1403},{"id":386301,"name":"Kammon","ascii":"Kammon","lat":32.90891,"lon":35.36075,"population":1402},{"id":295224,"name":"‘En Boqeq","ascii":"`En Boqeq","lat":31.19941,"lon":35.36253,"population":1400},{"id":294347,"name":"Ma’or","ascii":"Ma'or","lat":32.42306,"lon":35.00513,"population":1398},{"id":11979661,"name":"Yoqneam","ascii":"Yoqneam","lat":32.65497,"lon":35.11381,"population":1398},{"id":294029,"name":"Nir Gallim","ascii":"Nir Gallim","lat":31.82542,"lon":34.68282,"population":1396},{"id":9978429,"name":"Manshīyet Zabda","ascii":"Manshiyet Zabda","lat":32.70638,"lon":35.19354,"population":1389},{"id":293291,"name":"Udim","ascii":"Udim","lat":32.26496,"lon":34.84549,"population":1379},{"id":295728,"name":"Aẖisamakh","ascii":"Ahisamakh","lat":31.93503,"lon":34.90739,"population":1377},{"id":293431,"name":"Tal Shaẖar","ascii":"Tal Shahar","lat":31.80466,"lon":34.90271,"population":1369},{"id":294526,"name":"Kfar Menaẖem","ascii":"KfarMenahem","lat":31.73139,"lon":34.83547,"population":1366},{"id":294517,"name":"Kfar Rosh HaNiqra","ascii":"KfarRoshHaNiqra","lat":33.08571,"lon":35.11588,"population":1363},{"id":294302,"name":"Matsliaẖ","ascii":"Matsliah","lat":31.90669,"lon":34.87134,"population":1363},{"id":294043,"name":"Nevve Yaraq","ascii":"NevveYaraq","lat":32.13247,"lon":34.92447,"population":1348},{"id":390289,"name":"Mazor","ascii":"Mazor","lat":32.05115,"lon":34.92291,"population":1331},{"id":294286,"name":"Megadim","ascii":"Megadim","lat":32.72815,"lon":34.95631,"population":1329},{"id":294785,"name":"H̱emed","ascii":"Hemed","lat":32.0159,"lon":34.84284,"population":1316},{"id":293976,"name":"Ora","ascii":"Ora","lat":31.75519,"lon":35.15613,"population":1314},{"id":295372,"name":"Bustan HaGalil","ascii":"Bustan HaGalil","lat":32.95119,"lon":35.08298,"population":1305},{"id":293538,"name":"Shefayim","ascii":"Shefayim","lat":32.21743,"lon":34.82454,"population":1302},{"id":294781,"name":"H̱erut","ascii":"Herut","lat":32.24018,"lon":34.91583,"population":1298},{"id":12031827,"name":"Be'er Ganim","ascii":"Be'er Ganim","lat":31.69973,"lon":34.60978,"population":1295},{"id":293310,"name":"Timrat","ascii":"Timrat","lat":32.70302,"lon":35.22359,"population":1292},{"id":293009,"name":"Be’er Toviyya","ascii":"Be'er Toviyya","lat":31.73501,"lon":34.72389,"population":1289},{"id":293038,"name":"Tsofit","ascii":"Tsofit","lat":32.19423,"lon":34.91957,"population":1287},{"id":294021,"name":"Nir Tsevi","ascii":"NirTsevi","lat":31.95291,"lon":34.86408,"population":1286},{"id":295497,"name":"Berekhya","ascii":"Berekhya","lat":31.66895,"lon":34.6258,"population":1274},{"id":294185,"name":"Mishmar Ha‘Emeq","ascii":"Mishmar Ha'Emeq","lat":32.61045,"lon":35.14227,"population":1271},{"id":295458,"name":"Bet HaShitta","ascii":"Bet HaShitta","lat":32.55131,"lon":35.43874,"population":1263},{"id":295395,"name":"Biẕẕaron","ascii":"Bizzaron","lat":31.79446,"lon":34.72806,"population":1258},{"id":294558,"name":"Kfar Bilu","ascii":"KfarBilu","lat":31.87702,"lon":34.82108,"population":1258},{"id":295284,"name":"‘Ein Rāfa","ascii":"'Ein Rafa","lat":31.7902,"lon":35.11528,"population":1250},{"id":295212,"name":"‘En HaMifrats","ascii":"`EnHaMifrats","lat":32.90308,"lon":35.09619,"population":1249},{"id":295455,"name":"Bet H̱ilqiyya","ascii":"Bet Hilqiyya","lat":31.79281,"lon":34.81048,"population":1248},{"id":293476,"name":"Shoresh","ascii":"Shoresh","lat":31.79711,"lon":35.06525,"population":1247},{"id":295143,"name":"Eshta’ol","ascii":"Eshta'ol","lat":31.78072,"lon":35.00994,"population":1238},{"id":294395,"name":"Mabbu‘im","ascii":"Mabbu'im","lat":31.44965,"lon":34.65477,"population":1235},{"id":293620,"name":"Sde Neẖemya","ascii":"Sde Nehemya","lat":33.18756,"lon":35.62235,"population":1235},{"id":293906,"name":"Poriyya","ascii":"Poriyya","lat":32.74311,"lon":35.53816,"population":1234},{"id":10860931,"name":"Giv'ot Bar","ascii":"Giv'ot Bar","lat":31.3565,"lon":34.75525,"population":1230},{"id":294252,"name":"Mesillat Tsiyyon","ascii":"MesillatTsiyyon","lat":31.802,"lon":35.01095,"population":1215},{"id":295545,"name":"Batsra","ascii":"Batsra","lat":32.21412,"lon":34.87676,"population":1213},{"id":294147,"name":"Motsa ‘Illit","ascii":"Motsa`Illit","lat":31.79357,"lon":35.15776,"population":1212},{"id":293679,"name":"Rummāna","ascii":"Rummana","lat":32.78783,"lon":35.31091,"population":1212},{"id":293187,"name":"Yif‘at","ascii":"Yif'at","lat":32.6775,"lon":35.22333,"population":1208},{"id":295007,"name":"Gimzo","ascii":"Gimzo","lat":31.92846,"lon":34.94154,"population":1206},{"id":293543,"name":"Shave Tsiyyon","ascii":"ShaveTsiyyon","lat":32.98098,"lon":35.08331,"population":1205},{"id":293305,"name":"Tirat Yehuda","ascii":"Tirat Yehuda","lat":32.01392,"lon":34.9342,"population":1201},{"id":295037,"name":"Geva‘ Karmel","ascii":"Geva' Karmel","lat":32.66002,"lon":34.94874,"population":1200},{"id":12156602,"name":"Drijat","ascii":"Drijat","lat":31.30069,"lon":35.07632,"population":1199},{"id":295263,"name":"Elishama‘","ascii":"Elishama'","lat":32.15208,"lon":34.92827,"population":1199},{"id":293182,"name":"Yinnon","ascii":"Yinnon","lat":31.74199,"lon":34.78229,"population":1197},{"id":293706,"name":"Riẖaniya","ascii":"Rihaniya","lat":33.04904,"lon":35.48815,"population":1195},{"id":293704,"name":"Rinnatya","ascii":"Rinnatya","lat":32.04428,"lon":34.9276,"population":1195},{"id":294521,"name":"Kfar Netter","ascii":"KfarNetter","lat":32.273,"lon":34.87349,"population":1193},{"id":294532,"name":"Kfar H̱ittim","ascii":"KfarHittim","lat":32.79961,"lon":35.50276,"population":1190},{"id":8261862,"name":"Tal El","ascii":"Tal El","lat":32.92825,"lon":35.18128,"population":1186},{"id":294092,"name":"Nehora","ascii":"Nehora","lat":31.62276,"lon":34.70424,"population":1181},{"id":294995,"name":"Giv‘at H̱ayyim Iẖud","ascii":"Giv'at Hayyim Ihud","lat":32.39775,"lon":34.93213,"population":1176},{"id":295480,"name":"Bet ‘Arif","ascii":"Bet 'Arif","lat":31.99622,"lon":34.93459,"population":1174},{"id":295511,"name":"Bne Dror","ascii":"BneDror","lat":32.2615,"lon":34.90196,"population":1171},{"id":294295,"name":"Matsuva","ascii":"Matsuva","lat":33.06351,"lon":35.15758,"population":1165},{"id":294674,"name":"H̱ulda","ascii":"Hulda","lat":31.83176,"lon":34.88231,"population":1163},{"id":294928,"name":"H̱agor","ascii":"Hagor","lat":32.13932,"lon":34.94695,"population":1162},{"id":293905,"name":"Poria Illit","ascii":"Poria Illit","lat":32.7319,"lon":35.54635,"population":1162},{"id":293755,"name":"Ramot Menashe","ascii":"Ramot Menashe","lat":32.59784,"lon":35.05656,"population":1159},{"id":294044,"name":"Nevve Yamin","ascii":"NevveYamin","lat":32.17217,"lon":34.9393,"population":1155},{"id":295225,"name":"‘En Ayyala","ascii":"'En Ayyala","lat":32.62899,"lon":34.94483,"population":1150},{"id":295635,"name":"‘Arugot","ascii":"'Arugot","lat":31.73503,"lon":34.77016,"population":1147},{"id":295535,"name":"Be’erotayim","ascii":"Be'erotayim","lat":32.32111,"lon":34.98324,"population":1143},{"id":294497,"name":"Kfar Warburg","ascii":"KfarWarburg","lat":31.71945,"lon":34.72405,"population":1143},{"id":294388,"name":"Maggal","ascii":"Maggal","lat":32.38506,"lon":35.0368,"population":1139},{"id":12156768,"name":"Tirabin al-Sana","ascii":"Tirabin al-Sana","lat":31.34479,"lon":34.73867,"population":1139},{"id":295181,"name":"‘En Ya‘aqov","ascii":"'En Ya'aqov","lat":33.00977,"lon":35.22982,"population":1137},{"id":295375,"name":"Burgata","ascii":"Burgata","lat":32.32635,"lon":34.96236,"population":1136},{"id":294680,"name":"H̱osen","ascii":"Hosen","lat":32.99824,"lon":35.29807,"population":1135},{"id":295587,"name":"Ayyelet HaShaẖar","ascii":"Ayyelet HaShahar","lat":33.02224,"lon":35.57716,"population":1134},{"id":295504,"name":"Ben Zakkay","ascii":"Ben Zakkay","lat":31.85612,"lon":34.72747,"population":1132},{"id":293985,"name":"‘Olesh","ascii":"'Olesh","lat":32.33199,"lon":34.98558,"population":1131},{"id":293785,"name":"Ramat HaKovésh","ascii":"Ramat HaKovesh","lat":32.21768,"lon":34.93815,"population":1130},{"id":293256,"name":"Yad Rambam","ascii":"Yad Rambam","lat":31.89997,"lon":34.90027,"population":1124},{"id":293094,"name":"Zekharya","ascii":"Zekharya","lat":31.70927,"lon":34.94488,"population":1124},{"id":293605,"name":"Segev","ascii":"Segev","lat":32.86602,"lon":35.25189,"population":1121},{"id":8265539,"name":"Allon HaGalil","ascii":"Allon HaGalil","lat":32.75742,"lon":35.22089,"population":1118},{"id":293284,"name":"Umm el Quṭūf","ascii":"Umm el Qutuf","lat":32.46718,"lon":35.05811,"population":1117},{"id":295471,"name":"Bet ‘Ezra","ascii":"Bet 'Ezra","lat":31.73606,"lon":34.65594,"population":1116},{"id":8199387,"name":"Beit Horon","ascii":"Beit Horon","lat":31.87581,"lon":35.12999,"population":1115},{"id":294012,"name":"Niẕẕané ‘Oz","ascii":"Nizzane 'Oz","lat":32.306,"lon":35.00374,"population":1115},{"id":293615,"name":"Sde Ya‘aqov","ascii":"Sde Ya'aqov","lat":32.69,"lon":35.13861,"population":1103},{"id":293455,"name":"Sitriyya","ascii":"Sitriyya","lat":31.89238,"lon":34.8438,"population":1102},{"id":293781,"name":"Ramat HaShofet","ascii":"Ramat HaShofet","lat":32.61102,"lon":35.09472,"population":1101},{"id":293080,"name":"Tsrufa","ascii":"Tsrufa","lat":32.64824,"lon":34.94991,"population":1097},{"id":293729,"name":"Regba","ascii":"Regba","lat":32.97721,"lon":35.09864,"population":1096},{"id":293608,"name":"Sdot Yam","ascii":"Sdot Yam","lat":32.49213,"lon":34.89224,"population":1096},{"id":8265537,"name":"Harduf","ascii":"Harduf","lat":32.76342,"lon":35.17469,"population":1095},{"id":295727,"name":"Aẖituv","ascii":"Ahituv","lat":32.38873,"lon":34.99072,"population":1093},{"id":386266,"name":"Yuvallim","ascii":"Yuvallim","lat":32.87756,"lon":35.27031,"population":1093},{"id":8310823,"name":"Gilon","ascii":"Gilon","lat":32.90261,"lon":35.23452,"population":1092},{"id":293718,"name":"Reshafim","ascii":"Reshafim","lat":32.48126,"lon":35.4762,"population":1089},{"id":295696,"name":"‘Amminadav","ascii":"'Amminadav","lat":31.75212,"lon":35.14733,"population":1086},{"id":295576,"name":"Baẖan","ascii":"Bahan","lat":32.35082,"lon":35.01862,"population":1084},{"id":294422,"name":"Li On","ascii":"Li On","lat":31.67744,"lon":34.93464,"population":1082},{"id":293231,"name":"Yarẖiv","ascii":"Yarhiv","lat":32.15239,"lon":34.9679,"population":1082},{"id":295484,"name":"Bet Alfa","ascii":"Bet Alfa","lat":32.51609,"lon":35.43068,"population":1075},{"id":293711,"name":"Revivim","ascii":"Revivim","lat":31.04395,"lon":34.72183,"population":1075},{"id":8309435,"name":"Bar Yuẖay","ascii":"Bar Yuhay","lat":32.99848,"lon":35.44419,"population":1072},{"id":8262022,"name":"Mitspe Aviv","ascii":"MitspeAviv","lat":32.83907,"lon":35.19921,"population":1070},{"id":295513,"name":"Moledet","ascii":"Moledet","lat":32.58613,"lon":35.44201,"population":1068},{"id":8199390,"name":"Giv'on HaHadasha","ascii":"Giv'on HaHadasha","lat":31.84927,"lon":35.16106,"population":1067},{"id":294322,"name":"Mash‘én","ascii":"Mash'en","lat":31.65791,"lon":34.62309,"population":1064},{"id":293078,"name":"Zetan","ascii":"Zetan","lat":31.97534,"lon":34.88928,"population":1064},{"id":294805,"name":"HaZore‘im","ascii":"HaZore'im","lat":32.74707,"lon":35.50274,"population":1060},{"id":294177,"name":"Mishmeret","ascii":"Mishmeret","lat":32.22818,"lon":34.91835,"population":1059},{"id":386234,"name":"Raqqefet","ascii":"Raqqefet","lat":32.85744,"lon":35.26142,"population":1057},{"id":294616,"name":"Kabri","ascii":"Kabri","lat":33.02122,"lon":35.14968,"population":1054},{"id":294449,"name":"Kokhav Michael Sobell","ascii":"Kokhav Michael Sobell","lat":31.62804,"lon":34.66904,"population":1053},{"id":295538,"name":"Be’eri","ascii":"Be'eri","lat":31.42426,"lon":34.49163,"population":1049},{"id":294992,"name":"Giv‘ati","ascii":"Giv'ati","lat":31.733,"lon":34.67995,"population":1047},{"id":295425,"name":"Bet Yehoshua‘","ascii":"Bet Yehoshua'","lat":32.25942,"lon":34.86414,"population":1046},{"id":293092,"name":"Tselafon","ascii":"Tselafon","lat":31.80462,"lon":34.9321,"population":1044},{"id":294520,"name":"Kfar Pines","ascii":"KfarPines","lat":32.48372,"lon":35.00294,"population":1034},{"id":295536,"name":"Be’er Ora","ascii":"Be'er Ora","lat":29.71,"lon":34.987,"population":1033},{"id":294273,"name":"Menaẖemya","ascii":"Menahemya","lat":32.66662,"lon":35.555,"population":1033},{"id":295241,"name":"Elon","ascii":"Elon","lat":33.06365,"lon":35.22009,"population":1031},{"id":8140106,"name":"Mitspe Netofa","ascii":"MitspeNetofa","lat":32.80287,"lon":35.38291,"population":1029},{"id":295223,"name":"‘En Dor","ascii":"'En Dor","lat":32.65614,"lon":35.41703,"population":1026},{"id":294288,"name":"Mefallesim","ascii":"Mefallesim","lat":31.50125,"lon":34.5637,"population":1024},{"id":294178,"name":"Mishmarot","ascii":"Mishmarot","lat":32.48718,"lon":34.98324,"population":1024},{"id":294435,"name":"Lahavot H̱aviva","ascii":"Lahavot Haviva","lat":32.39517,"lon":35.00977,"population":1021},{"id":293336,"name":"Tel Yitsẖaq","ascii":"TelYitshaq","lat":32.25327,"lon":34.87034,"population":1021},{"id":295470,"name":"Bet Gamli’él","ascii":"Bet Gamli'el","lat":31.85555,"lon":34.76249,"population":1019},{"id":293624,"name":"Sde H̱emed","ascii":"Sde Hemed","lat":32.16043,"lon":34.94347,"population":1019},{"id":295437,"name":"Bet Rabban","ascii":"Bet Rabban","lat":31.81677,"lon":34.72937,"population":1018},{"id":295467,"name":"Bet Guvrin","ascii":"Bet Guvrin","lat":31.61294,"lon":34.89571,"population":1016},{"id":293774,"name":"Ramat Yoẖanan","ascii":"Ramat Yohanan","lat":32.79308,"lon":35.12226,"population":1012},{"id":295331,"name":"Dvira","ascii":"Dvira","lat":31.41222,"lon":34.8254,"population":1007},{"id":10247989,"name":"Giv‘at H̱ayyim Me’uẖad","ascii":"Giv'at Hayyim Me'uhad","lat":32.39171,"lon":34.93115,"population":1006},{"id":294184,"name":"Mishmar HaNegev","ascii":"Mishmar HaNegev","lat":31.36416,"lon":34.7187,"population":1005},{"id":295625,"name":"Ashdot Ya‘aqov Iẖud","ascii":"Ashdot Ya'aqov Ihud","lat":32.65843,"lon":35.58117,"population":1003},{"id":293228,"name":"Yashresh","ascii":"Yashresh","lat":31.91481,"lon":34.84911,"population":1001},{"id":173550,"name":"Al Buţayḩah","ascii":"Al Butayhah","lat":32.90871,"lon":35.63199,"population":0},{"id":173601,"name":"Al Khushnīyah","ascii":"Al Khushniyah","lat":32.99941,"lon":35.81084,"population":0},{"id":170378,"name":"Fīq","ascii":"Fiq","lat":32.77935,"lon":35.70032,"population":0}]