[{"id":112931,"name":"Tehran","nameKo":"테헤란","ascii":"Tehran","lat":35.69439,"lon":51.42151,"population":7153309},{"id":124665,"name":"Mashhad","nameKo":"마슈하드","ascii":"Mashhad","lat":36.29807,"lon":59.60567,"population":2307177},{"id":418863,"name":"Isfahan","nameKo":"이스파한","ascii":"Isfahan","lat":32.65246,"lon":51.67462,"population":1547164},{"id":128747,"name":"Karaj","nameKo":"카라지","ascii":"Karaj","lat":35.83266,"lon":50.99155,"population":1448075},{"id":113646,"name":"Tabriz","nameKo":"타브리즈","ascii":"Tabriz","lat":38.08,"lon":46.2919,"population":1424641},{"id":115019,"name":"Shiraz","nameKo":"시라즈","ascii":"Shiraz","lat":29.61031,"lon":52.53113,"population":1249942},{"id":119208,"name":"Qom","nameKo":"쿰","ascii":"Qom","lat":34.6401,"lon":50.8764,"population":900000},{"id":144448,"name":"Ahvaz","nameKo":"아바즈","ascii":"Ahvaz","lat":31.31901,"lon":48.6842,"population":841145},{"id":128226,"name":"Kermanshah","ascii":"Kermanshah","lat":34.31417,"lon":47.065,"population":621100},{"id":118743,"name":"Rasht","nameKo":"라슈트","ascii":"Rasht","lat":37.27611,"lon":49.58862,"population":594590},{"id":128234,"name":"Kerman","nameKo":"케르만","ascii":"Kerman","lat":30.28321,"lon":57.07879,"population":577514},{"id":121801,"name":"Orūmīyeh","ascii":"Orumiyeh","lat":37.55274,"lon":45.07605,"population":577307},{"id":1159301,"name":"Zahedan","nameKo":"자헤단","ascii":"Zahedan","lat":29.4963,"lon":60.8629,"population":551980},{"id":132144,"name":"Hamadān","ascii":"Hamadan","lat":34.79922,"lon":48.51456,"population":528256},{"id":14256,"name":"Āzādshahr","ascii":"Azadshahr","lat":34.79049,"lon":48.57011,"population":514102},{"id":143127,"name":"Arāk","ascii":"Arak","lat":34.09493,"lon":49.69809,"population":503647},{"id":111822,"name":"Yazd","nameKo":"야즈드","ascii":"Yazd","lat":31.89722,"lon":54.3675,"population":477905},{"id":449504,"name":"Eslamshahr","ascii":"Eslamshahr","lat":35.55222,"lon":51.23504,"population":450000},{"id":143083,"name":"Ardabīl","ascii":"Ardabil","lat":38.2498,"lon":48.2933,"population":410753},{"id":145459,"name":"Abadan","nameKo":"아바단","ascii":"Abadan","lat":30.3392,"lon":48.3043,"population":370180},{"id":111453,"name":"Zanjan","ascii":"Zanjan","lat":36.67642,"lon":48.49628,"population":357471},{"id":141681,"name":"Bandar Abbas","nameKo":"반다르아바스","ascii":"Bandar Abbas","lat":27.1865,"lon":56.2808,"population":352173},{"id":117574,"name":"Sanandaj","nameKo":"사난다지","ascii":"Sanandaj","lat":35.31495,"lon":46.99883,"population":349176},{"id":119505,"name":"Qazvin","nameKo":"카즈빈","ascii":"Qazvin","lat":36.26877,"lon":50.0041,"population":333635},{"id":127319,"name":"Khorramshahr","ascii":"Khorramshahr","lat":30.44079,"lon":48.18428,"population":330606},{"id":127349,"name":"Khorramabad","ascii":"Khorramabad","lat":33.48778,"lon":48.35583,"population":329825},{"id":143860,"name":"Shahrīār","ascii":"Shahriar","lat":35.65884,"lon":51.05775,"population":309607},{"id":120292,"name":"Shahr-e Qods","ascii":"Shahr-e Qods","lat":35.7214,"lon":51.109,"population":309605},{"id":418710,"name":"Khomeynī Shahr","ascii":"Khomeyni Shahr","lat":32.6856,"lon":51.53609,"population":277334},{"id":36618,"name":"Dezfūl","ascii":"Dezful","lat":32.41667,"lon":48.21667,"population":264709},{"id":124877,"name":"Marāgheh","ascii":"Maragheh","lat":37.39206,"lon":46.23909,"population":262604},{"id":124878,"name":"Marāgheh","ascii":"Maragheh","lat":35.82916,"lon":59.63324,"population":262604},{"id":116996,"name":"Sari","nameKo":"사리","ascii":"Sari","lat":36.56332,"lon":53.06009,"population":255396},{"id":140044,"name":"Borūjerd","ascii":"Borujerd","lat":33.8973,"lon":48.7516,"population":251958},{"id":32767,"name":"Qarchak","ascii":"Qarchak","lat":35.42873,"lon":51.57757,"population":251834},{"id":132892,"name":"Gorgān","ascii":"Gorgan","lat":36.8427,"lon":54.44391,"population":244937},{"id":32900,"name":"Golestān","ascii":"Golestan","lat":35.5183,"lon":51.1819,"population":240000},{"id":143534,"name":"Āmol","ascii":"Amol","lat":36.46961,"lon":52.35072,"population":237528},{"id":9478811,"name":"Pākdasht","ascii":"Pakdasht","lat":35.47854,"lon":51.6834,"population":236319},{"id":418606,"name":"Najafābād","ascii":"Najafabad","lat":32.63464,"lon":51.36525,"population":235281},{"id":118063,"name":"Sabzevar","ascii":"Sabzevar","lat":36.2126,"lon":57.68191,"population":226183},{"id":122285,"name":"Neyshābūr","ascii":"Neyshabur","lat":36.21329,"lon":58.79575,"population":220929},{"id":122438,"name":"Naz̧arābād","ascii":"Nazarabad","lat":35.95411,"lon":50.60607,"population":213388},{"id":139889,"name":"Būkān","ascii":"Bukan","lat":36.521,"lon":46.2089,"population":213331},{"id":114259,"name":"Sirjan","ascii":"Sirjan","lat":29.45137,"lon":55.6809,"population":207645},{"id":120695,"name":"Qā’em Shahr","ascii":"Qa'em Shahr","lat":36.46306,"lon":52.86007,"population":204953},{"id":142363,"name":"Bābol","ascii":"Babol","lat":36.55102,"lon":52.6786,"population":202796},{"id":6672634,"name":"Nasīm Shahr","ascii":"Nasim Shahr","lat":35.56504,"lon":51.16332,"population":200393},{"id":13405749,"name":"Nasimshahr","ascii":"Nasimshahr","lat":35.56528,"lon":51.1583,"population":200393},{"id":140463,"name":"Bīrjand","ascii":"Birjand","lat":32.86628,"lon":59.22114,"population":196982},{"id":140380,"name":"Bojnūrd","ascii":"Bojnurd","lat":37.47473,"lon":57.32903,"population":192041},{"id":124082,"name":"Mīāneh","ascii":"Mianeh","lat":37.421,"lon":47.715,"population":182848},{"id":6657205,"name":"Fardīs","ascii":"Fardis","lat":35.7555,"lon":50.9967,"population":181174},{"id":112214,"name":"Varāmīn","ascii":"Varamin","lat":35.3242,"lon":51.6457,"population":179603},{"id":125185,"name":"Malāyer","ascii":"Malayer","lat":34.30158,"lon":48.82166,"population":176573},{"id":116667,"name":"Sāveh","ascii":"Saveh","lat":35.0213,"lon":50.3566,"population":175533},{"id":126972,"name":"Khowy","ascii":"Khowy","lat":38.5503,"lon":44.9521,"population":175370},{"id":417472,"name":"Shāhīn Shahr","ascii":"Shahin Shahr","lat":32.85788,"lon":51.5529,"population":173329},{"id":139817,"name":"Bushehr","ascii":"Bushehr","lat":28.96887,"lon":50.83657,"population":165377},{"id":141663,"name":"Bandar-e Māhshahr","ascii":"Bandar-e Mahshahr","lat":30.55655,"lon":49.18852,"population":162797},{"id":125446,"name":"Mahābād","ascii":"Mahabad","lat":36.7631,"lon":45.7222,"population":162434},{"id":117392,"name":"Saqqez","ascii":"Saqqez","lat":36.24992,"lon":46.2735,"population":151237},{"id":124721,"name":"Marvdasht","ascii":"Marvdasht","lat":29.87407,"lon":52.80258,"population":148858},{"id":118994,"name":"Rafsanjān","ascii":"Rafsanjan","lat":30.4067,"lon":55.9939,"population":147680},{"id":41548,"name":"Kamālshahr","ascii":"Kamalshahr","lat":35.86187,"lon":50.87424,"population":141669},{"id":130531,"name":"Jahrom","ascii":"Jahrom","lat":28.5,"lon":53.5605,"population":141634},{"id":130802,"name":"Īlām","ascii":"Ilam","lat":33.6374,"lon":46.4227,"population":140940},{"id":143420,"name":"Andīmeshk","ascii":"Andimeshk","lat":32.4615,"lon":48.35368,"population":135116},{"id":418533,"name":"Shahreẕā","ascii":"Shahreza","lat":32.00877,"lon":51.86407,"population":134952},{"id":124085,"name":"Mīāndoāb","ascii":"Miandoab","lat":36.96667,"lon":46.10961,"population":132819},{"id":135423,"name":"Shahrud","ascii":"Shahrud","lat":36.41819,"lon":54.97628,"population":131889},{"id":132938,"name":"Gonbad-e Kāvūs","ascii":"Gonbad-e Kavus","lat":37.25004,"lon":55.16721,"population":131416},{"id":1160939,"name":"Iranshahr","ascii":"Iranshahr","lat":27.20245,"lon":60.68476,"population":131232},{"id":6925362,"name":"Jīroft","ascii":"Jiroft","lat":28.67806,"lon":57.74056,"population":130429},{"id":115770,"name":"Shahr-e Kord","ascii":"Shahr-e Kord","lat":32.32612,"lon":50.8572,"population":129153},{"id":112646,"name":"Torbat-e Ḩeydarīyeh","ascii":"Torbat-e Heydariyeh","lat":35.27401,"lon":59.21949,"population":125633},{"id":116402,"name":"Semnan","ascii":"Semnan","lat":35.57691,"lon":53.39205,"population":124826},{"id":124862,"name":"Marand","ascii":"Marand","lat":38.4329,"lon":45.7749,"population":124191},{"id":1113217,"name":"Zābol","ascii":"Zabol","lat":31.0306,"lon":61.4949,"population":121989},{"id":135878,"name":"Dorūd","ascii":"Dorud","lat":33.49218,"lon":49.0616,"population":121638},{"id":400771,"name":"Moḩammad Shahr","ascii":"Mohammad Shahr","lat":35.763,"lon":50.9171,"population":119418},{"id":130697,"name":"Īz̄eh","ascii":"Izeh","lat":31.83027,"lon":49.86756,"population":119399},{"id":10865375,"name":"Andīsheh","ascii":"Andisheh","lat":35.74708,"lon":51.27739,"population":116062},{"id":32909,"name":"Shahre Jadide Andisheh","ascii":"Shahre Jadide Andisheh","lat":35.6803,"lon":51.0193,"population":116062},{"id":119115,"name":"Qūchān","ascii":"Quchan","lat":37.106,"lon":58.50955,"population":111752},{"id":124620,"name":"Masjed Soleymān","ascii":"Masjed Soleyman","lat":31.9364,"lon":49.3039,"population":111510},{"id":141679,"name":"Bandar-e Anzalī","ascii":"Bandar-e Anzali","lat":37.47318,"lon":49.45785,"population":110826},{"id":141584,"name":"Bāneh","ascii":"Baneh","lat":35.9975,"lon":45.8853,"population":104799},{"id":121380,"name":"Pārsābād","ascii":"Parsabad","lat":39.6482,"lon":47.9174,"population":101661},{"id":126015,"name":"Lāhījān","ascii":"Lahijan","lat":37.20416,"lon":50.00919,"population":101073},{"id":126409,"name":"Kūhdasht","ascii":"Kuhdasht","lat":33.53335,"lon":47.60999,"population":100208},{"id":141736,"name":"Bam","ascii":"Bam","lat":29.106,"lon":58.357,"population":99268},{"id":134721,"name":"Fasā","ascii":"Fasa","lat":28.9383,"lon":53.6482,"population":98061},{"id":6659672,"name":"Parand","ascii":"Parand","lat":35.47195,"lon":50.97547,"population":97464},{"id":66093,"name":"Yasuj","nameKo":"야수즈","ascii":"Yasuj","lat":30.66824,"lon":51.58796,"population":96786},{"id":128447,"name":"Kāshmar","ascii":"Kashmar","lat":35.23831,"lon":58.46558,"population":96151},{"id":136014,"name":"Dogonbadan","ascii":"Dogonbadan","lat":30.3586,"lon":50.7981,"population":94638},{"id":128321,"name":"Kāzerūn","ascii":"Kazerun","lat":29.61919,"lon":51.6535,"population":94511},{"id":144616,"name":"Ahar","nameKo":"아하르","ascii":"Ahar","lat":38.4774,"lon":47.0699,"population":94348},{"id":140918,"name":"Behshahr","ascii":"Behshahr","lat":36.69235,"lon":53.55262,"population":93500},{"id":124778,"name":"Marīvān","ascii":"Marivan","lat":35.51829,"lon":46.18298,"population":91664},{"id":143921,"name":"Alīgūdarz","ascii":"Aligudarz","lat":33.404,"lon":49.69179,"population":91041},{"id":135175,"name":"Eslāmābād-e Gharb","ascii":"Eslamabad-e Gharb","lat":34.1089,"lon":46.52988,"population":90559},{"id":10570,"name":"Alvand","ascii":"Alvand","lat":36.1893,"lon":50.0643,"population":90000},{"id":418838,"name":"Fūlād Shahr","ascii":"Fulad Shahr","lat":32.48664,"lon":51.39673,"population":88426},{"id":119161,"name":"Qorveh","ascii":"Qorveh","lat":35.1664,"lon":47.80564,"population":87953},{"id":140097,"name":"Borāzjān","ascii":"Borazjan","lat":29.2699,"lon":51.2188,"population":86059},{"id":113514,"name":"Tajrīsh","ascii":"Tajrish","lat":35.8044,"lon":51.4256,"population":86000},{"id":8535197,"name":"Shahr-e Jadīd-e Mehestan","ascii":"Shahr-e Jadid-e Mehestan","lat":35.98907,"lon":50.74512,"population":85200},{"id":13562246,"name":"Bāghestān","ascii":"Baghestan","lat":35.64706,"lon":51.13378,"population":83934},{"id":114930,"name":"Shīrvān","ascii":"Shirvan","lat":37.39669,"lon":57.92952,"population":82790},{"id":117656,"name":"Salmās","ascii":"Salmas","lat":38.1973,"lon":44.7653,"population":81606},{"id":140889,"name":"Bonāb","ascii":"Bonab","lat":37.3404,"lon":46.0561,"population":80359},{"id":140951,"name":"Behbahān","ascii":"Behbahan","lat":30.5959,"lon":50.2417,"population":79327},{"id":139879,"name":"Būmahen","ascii":"Bumahen","lat":35.72972,"lon":51.86884,"population":79034},{"id":418943,"name":"Bahārestān","ascii":"Baharestan","lat":32.48814,"lon":51.77312,"population":79023},{"id":8521444,"name":"Bandar-e Emam Khomeyni","nameKo":"반다르에에맘호메이니","ascii":"Bandar-e Emam Khomeyni","lat":30.43698,"lon":49.10288,"population":78353},{"id":114584,"name":"Shūshtar","ascii":"Shushtar","lat":32.04972,"lon":48.84843,"population":77507},{"id":127403,"name":"Khomeyn","ascii":"Khomeyn","lat":33.63889,"lon":50.08003,"population":77425},{"id":122915,"name":"Nahāvand","ascii":"Nahavand","lat":34.19088,"lon":48.37446,"population":76250},{"id":143748,"name":"Alvand","ascii":"Alvand","lat":36.31885,"lon":49.16773,"population":74889},{"id":118826,"name":"Rāmhormoz","ascii":"Ramhormoz","lat":31.27997,"lon":49.60351,"population":74285},{"id":124210,"name":"Meshgīn Shahr","ascii":"Meshgin Shahr","lat":38.399,"lon":47.682,"population":74109},{"id":122698,"name":"Naqadeh","ascii":"Naqadeh","lat":36.9553,"lon":45.388,"population":73528},{"id":24851,"name":"Nūrābād","ascii":"Nurabad","lat":34.0734,"lon":47.9725,"population":73528},{"id":6681051,"name":"Pardīs","ascii":"Pardis","lat":35.74687,"lon":51.81222,"population":73363},{"id":113491,"name":"Tākestān","ascii":"Takestan","lat":36.07057,"lon":49.69571,"population":71499},{"id":123941,"name":"Mīnāb","ascii":"Minab","lat":27.13104,"lon":57.08716,"population":70790},{"id":145034,"name":"Abhar","ascii":"Abhar","lat":36.1468,"lon":49.218,"population":69889},{"id":136987,"name":"Dehdasht","ascii":"Dehdasht","lat":30.79337,"lon":50.56508,"population":69726},{"id":139223,"name":"Chālūs","ascii":"Chalus","lat":36.655,"lon":51.4204,"population":69638},{"id":1160571,"name":"Khāsh","ascii":"Khash","lat":28.22107,"lon":61.21582,"population":69603},{"id":6655800,"name":"Mobārakeh","ascii":"Mobarakeh","lat":32.3465,"lon":51.4979,"population":69449},{"id":125897,"name":"Langarūd","ascii":"Langarud","lat":37.19548,"lon":50.15263,"population":68148},{"id":138025,"name":"Dāmghān","ascii":"Damghan","lat":36.1679,"lon":54.34292,"population":67694},{"id":134518,"name":"Fīrūzābād","ascii":"Firuzabad","lat":28.84459,"lon":52.57151,"population":66558},{"id":143122,"name":"Ārān Bīdgol","ascii":"Aran Bidgol","lat":34.05751,"lon":51.48291,"population":65404},{"id":400809,"name":"Bāqershahr","ascii":"Baqershahr","lat":35.53164,"lon":51.4048,"population":65388},{"id":137956,"name":"Dārāb","ascii":"Darab","lat":28.75171,"lon":54.54065,"population":63319},{"id":124838,"name":"Māhdāsht","ascii":"Mahdasht","lat":35.7282,"lon":50.8134,"population":62910},{"id":118367,"name":"Robāţ Karīm","ascii":"Robat Karim","lat":35.4846,"lon":51.0829,"population":62753},{"id":125877,"name":"Lār","ascii":"Lar","lat":27.68336,"lon":54.34172,"population":62045},{"id":123205,"name":"Meshkīn Dasht","ascii":"Meshkin Dasht","lat":35.74988,"lon":50.94376,"population":62005},{"id":121110,"name":"Piranshahr","ascii":"Piranshahr","lat":36.701,"lon":45.1413,"population":61973},{"id":128905,"name":"Kāmyārān","ascii":"Kamyaran","lat":34.79535,"lon":46.93682,"population":61642},{"id":1159713,"name":"Sarāvān","ascii":"Saravan","lat":27.37089,"lon":62.33096,"population":60014},{"id":135298,"name":"Esfarāyen","ascii":"Esfarayen","lat":37.07645,"lon":57.51009,"population":59678},{"id":142872,"name":"Asadābād","ascii":"Asadabad","lat":34.78241,"lon":48.12012,"population":59617},{"id":145449,"name":"Abadeh","ascii":"Abadeh","lat":31.1608,"lon":52.6506,"population":59116},{"id":48918,"name":"Ābādeh","ascii":"Abadeh","lat":28.8349,"lon":53.1726,"population":59116},{"id":111421,"name":"Zarand","ascii":"Zarand","lat":30.81271,"lon":56.56399,"population":58983},{"id":1159362,"name":"Torbat-e Jām","ascii":"Torbat-e Jam","lat":35.244,"lon":60.6225,"population":58928},{"id":143073,"name":"Ardakān","ascii":"Ardakan","lat":32.31001,"lon":54.01747,"population":58834},{"id":32843,"name":"Ṣāleḥīeh","ascii":"Salehieh","lat":35.50527,"lon":51.19142,"population":58683},{"id":131962,"name":"Harsīn","ascii":"Harsin","lat":34.2721,"lon":47.5861,"population":57647},{"id":121925,"name":"Nūrābād","ascii":"Nurabad","lat":30.11405,"lon":51.52174,"population":57058},{"id":125188,"name":"Malārd","ascii":"Malard","lat":35.6659,"lon":50.9767,"population":56745},{"id":126082,"name":"Kūt-e ‘Abdollāh","ascii":"Kut-e 'Abdollah","lat":31.23917,"lon":48.65639,"population":56252},{"id":131691,"name":"Hashtgerd","ascii":"Hashtgerd","lat":35.962,"lon":50.6799,"population":55640},{"id":144794,"name":"Ābyek","ascii":"Abyek","lat":36.06667,"lon":50.55,"population":55128},{"id":6672633,"name":"Şabbāshahr","ascii":"Sabbashahr","lat":35.58026,"lon":51.11392,"population":53971},{"id":141653,"name":"Bandar-e Torkaman","ascii":"Bandar-e Torkaman","lat":36.90124,"lon":54.07195,"population":53970},{"id":140521,"name":"Bījār","ascii":"Bijar","lat":35.8668,"lon":47.60506,"population":53871},{"id":120972,"name":"Pīshvā","ascii":"Pishva","lat":35.308,"lon":51.7267,"population":53856},{"id":128831,"name":"Kangāvar","ascii":"Kangavar","lat":34.5043,"lon":47.9653,"population":53414},{"id":134217,"name":"Bandar-e Genāveh","ascii":"Bandar-e Genaveh","lat":29.5791,"lon":50.517,"population":52750},{"id":140046,"name":"Borūjen","ascii":"Borujen","lat":31.96523,"lon":51.2873,"population":52654},{"id":115781,"name":"Shahr-e Bābak","ascii":"Shahr-e Babak","lat":30.1165,"lon":55.1186,"population":52409},{"id":114593,"name":"Shūsh","ascii":"Shush","lat":32.1942,"lon":48.2436,"population":52284},{"id":124193,"name":"Meybod","ascii":"Meybod","lat":32.25014,"lon":54.01658,"population":51874},{"id":120931,"name":"Sarpol-e Z̄ahāb","ascii":"Sarpol-e Zahab","lat":34.46109,"lon":45.86264,"population":51611},{"id":113508,"name":"Takāb","ascii":"Takab","lat":36.4009,"lon":47.1133,"population":51541},{"id":128008,"name":"Khalkhāl","ascii":"Khalkhal","lat":37.61837,"lon":48.52928,"population":51024},{"id":121795,"name":"Oshnavīyeh","ascii":"Oshnaviyeh","lat":37.0397,"lon":45.0983,"population":50661},{"id":41210,"name":"Khorramdarreh","ascii":"Khorramdarreh","lat":36.20777,"lon":49.19527,"population":50528},{"id":113659,"name":"Tabas","ascii":"Tabas","lat":33.59586,"lon":56.92437,"population":49993},{"id":418851,"name":"Falāvarjān","ascii":"Falavarjan","lat":32.5553,"lon":51.50973,"population":49843},{"id":32723,"name":"Īstgāh-e Rāh Āhan-e Garmsār","ascii":"Istgah-e Rah Ahan-e Garmsar","lat":35.23455,"lon":52.30942,"population":49491},{"id":418521,"name":"Rehnān","ascii":"Rehnan","lat":32.68325,"lon":51.60158,"population":49143},{"id":122397,"name":"Nekā","ascii":"Neka","lat":36.65079,"lon":53.29905,"population":48847},{"id":142358,"name":"Bābolsar","ascii":"Babolsar","lat":36.69929,"lon":52.65011,"population":48051},{"id":110831,"name":"Āzādshahr","ascii":"Azadshahr","lat":37.08641,"lon":55.17222,"population":47590},{"id":118191,"name":"Rūdsar","ascii":"Rudsar","lat":37.13696,"lon":50.29174,"population":47502},{"id":142497,"name":"Aznā","ascii":"Azna","lat":33.45643,"lon":49.45646,"population":47489},{"id":142496,"name":"Aznā","ascii":"Azna","lat":33.6095,"lon":48.9307,"population":47482},{"id":1161724,"name":"Chabahar","ascii":"Chabahar","lat":25.2919,"lon":60.643,"population":47287},{"id":121861,"name":"Omīdīyeh","ascii":"Omidiyeh","lat":30.76277,"lon":49.70226,"population":46983},{"id":138742,"name":"Chenārān","ascii":"Chenaran","lat":36.64546,"lon":59.12123,"population":46940},{"id":125206,"name":"Makū","ascii":"Maku","lat":27.8486,"lon":52.423,"population":46581},{"id":1159716,"name":"Sarakhs","ascii":"Sarakhs","lat":36.5449,"lon":61.1577,"population":46499},{"id":117111,"name":"Sardasht","ascii":"Sardasht","lat":36.1552,"lon":45.4788,"population":46412},{"id":136702,"name":"Dehlorān","ascii":"Dehloran","lat":32.6941,"lon":47.2679,"population":46002},{"id":122289,"name":"Neyrīz","ascii":"Neyriz","lat":29.1988,"lon":54.3278,"population":45506},{"id":113343,"name":"Hashtpar","ascii":"Hashtpar","lat":37.79658,"lon":48.90521,"population":45305},{"id":117368,"name":"Sarāb","ascii":"Sarab","lat":37.9408,"lon":47.5367,"population":45031},{"id":133037,"name":"Golpāyegān","ascii":"Golpayegan","lat":33.4537,"lon":50.28836,"population":44916},{"id":122491,"name":"Naţanz","ascii":"Natanz","lat":33.51118,"lon":51.91808,"population":43977},{"id":132961,"name":"Gonābād","ascii":"Gonabad","lat":34.35287,"lon":58.68365,"population":43465},{"id":1160500,"name":"Konārak","ascii":"Konarak","lat":25.3604,"lon":60.3995,"population":43258},{"id":114049,"name":"Sonqor","ascii":"Sonqor","lat":34.78187,"lon":47.59945,"population":43174},{"id":142679,"name":"Āstāneh-ye Ashrafīyeh","ascii":"Astaneh-ye Ashrafiyeh","lat":37.26318,"lon":49.94325,"population":42784},{"id":120954,"name":"Poldasht","ascii":"Poldasht","lat":39.348,"lon":45.071,"population":42170},{"id":116102,"name":"Shādegān","ascii":"Shadegan","lat":30.64924,"lon":48.66497,"population":41733},{"id":137268,"name":"Sūsangerd","ascii":"Susangerd","lat":31.5635,"lon":48.18958,"population":41443},{"id":117793,"name":"Shāhīn Dezh","ascii":"Shahin Dezh","lat":36.6793,"lon":46.5669,"population":41442},{"id":118704,"name":"Rāvar","ascii":"Ravar","lat":31.26562,"lon":56.80545,"population":40167},{"id":120694,"name":"Qā’en","ascii":"Qa'en","lat":33.72654,"lon":59.18439,"population":40157},{"id":121959,"name":"Nowshahr","ascii":"Nowshahr","lat":36.64852,"lon":51.49621,"population":40000},{"id":126572,"name":"Kord Kūy","ascii":"Kord Kuy","lat":36.79307,"lon":54.11214,"population":39881},{"id":142676,"name":"Āstārā","ascii":"Astara","lat":38.43084,"lon":48.86994,"population":39065},{"id":130245,"name":"Javānrūd","ascii":"Javanrud","lat":34.79611,"lon":46.51722,"population":38657},{"id":1159877,"name":"Qaşr-e Qand","ascii":"Qasr-e Qand","lat":26.24833,"lon":60.7525,"population":37722},{"id":1159384,"name":"Tāybād","ascii":"Taybad","lat":34.74,"lon":60.7756,"population":37513},{"id":112656,"name":"Tonekābon","ascii":"Tonekabon","lat":36.81626,"lon":50.87376,"population":37501},{"id":418896,"name":"Dorcheh Pīāz","ascii":"Dorcheh Piaz","lat":32.61528,"lon":51.55556,"population":37462},{"id":124647,"name":"Bardsīr","ascii":"Bardsir","lat":29.92266,"lon":56.57433,"population":37192},{"id":7082152,"name":"Golbahār","ascii":"Golbahar","lat":36.56976,"lon":59.1904,"population":36877},{"id":124274,"name":"Mahrīz","ascii":"Mahriz","lat":31.58428,"lon":54.4428,"population":36720},{"id":406993,"name":"Eqbālīyeh","ascii":"Eqbaliyeh","lat":35.3022,"lon":51.5358,"population":36709},{"id":400833,"name":"Shahrak-e Qīāmdasht","ascii":"Shahrak-e Qiamdasht","lat":35.5237,"lon":51.6505,"population":36446},{"id":135094,"name":"Estahbān","ascii":"Estahban","lat":29.1266,"lon":54.0421,"population":36410},{"id":6648621,"name":"Sheybān","ascii":"Sheyban","lat":31.40794,"lon":48.7946,"population":36374},{"id":117773,"name":"Rāmsar","ascii":"Ramsar","lat":36.91796,"lon":50.64802,"population":35997},{"id":7329809,"name":"Āq Qalā","ascii":"Aq Qala","lat":37.0139,"lon":54.45504,"population":35116},{"id":123485,"name":"Mohr","ascii":"Mohr","lat":27.5521,"lon":52.88157,"population":35000},{"id":142247,"name":"Bāft","ascii":"Baft","lat":29.2331,"lon":56.6022,"population":34517},{"id":133595,"name":"Gerāsh","ascii":"Gerash","lat":27.66966,"lon":54.13586,"population":34469},{"id":134602,"name":"Fereydūn Kenār","ascii":"Fereydun Kenar","lat":36.68489,"lon":52.51917,"population":34097},{"id":136156,"name":"Dīvāndarreh","ascii":"Divandarreh","lat":35.9139,"lon":47.0239,"population":34007},{"id":129512,"name":"Kalāleh","ascii":"Kalaleh","lat":37.37899,"lon":55.493,"population":33700},{"id":418723,"name":"Kelīshād va Sūdarjān","ascii":"Kelishad va Sudarjan","lat":32.55118,"lon":51.52758,"population":33630},{"id":418868,"name":"Dowlatābād","ascii":"Dowlatabad","lat":32.79978,"lon":51.69553,"population":33607},{"id":136399,"name":"Delījān","ascii":"Delijan","lat":33.9905,"lon":50.6838,"population":33508},{"id":6648117,"name":"Shahrak-e Shahīd Chamrān","ascii":"Shahrak-e Shahid Chamran","lat":30.70838,"lon":49.16266,"population":33505},{"id":1160544,"name":"Khvāf","ascii":"Khvaf","lat":34.5763,"lon":60.14093,"population":33189},{"id":120678,"name":"Farrokh Shahr","ascii":"Farrokh Shahr","lat":32.27174,"lon":50.98008,"population":32391},{"id":119730,"name":"Qarah Ẕīā’ od Dīn","ascii":"Qarah Zia' od Din","lat":38.8915,"lon":45.0255,"population":31947},{"id":125328,"name":"Maḩmūdābād","ascii":"Mahmudabad","lat":36.63191,"lon":52.26286,"population":31844},{"id":44439,"name":"Kavār","ascii":"Kavar","lat":29.20505,"lon":52.69043,"population":31711},{"id":130451,"name":"Jam","ascii":"Jam","lat":27.82977,"lon":52.32518,"population":31436},{"id":142255,"name":"Bāfq","ascii":"Bafq","lat":31.6035,"lon":55.40249,"population":31215},{"id":143561,"name":"Amīr Kolā","ascii":"Amir Kola","lat":36.59673,"lon":52.6658,"population":30478},{"id":123927,"name":"Mīnūdasht","ascii":"Minudasht","lat":37.23015,"lon":55.37211,"population":30085},{"id":135205,"name":"Eshtehārd","ascii":"Eshtehard","lat":35.7255,"lon":50.3662,"population":29993},{"id":401202,"name":"Pāsārgād","ascii":"Pasargad","lat":30.20194,"lon":53.18,"population":29825},{"id":144443,"name":"Ajab Shīr","ascii":"Ajab Shir","lat":37.4776,"lon":45.8943,"population":29675},{"id":418571,"name":"Qahderījān","ascii":"Qahderijan","lat":32.5773,"lon":51.45367,"population":29392},{"id":418699,"name":"Khowrzūq","ascii":"Khowrzuq","lat":32.778,"lon":51.64685,"population":29154},{"id":138042,"name":"Damāvand","ascii":"Damavand","lat":35.71842,"lon":52.06958,"population":29144},{"id":133972,"name":"Germī","ascii":"Germi","lat":39.0215,"lon":48.0801,"population":28967},{"id":142000,"name":"Bahār","ascii":"Bahar","lat":34.9072,"lon":48.4414,"population":28645},{"id":118223,"name":"Rūdehen","ascii":"Rudehen","lat":35.73338,"lon":51.90587,"population":28533},{"id":129933,"name":"Jūybār","ascii":"Juybar","lat":36.64088,"lon":52.91206,"population":28404},{"id":141349,"name":"Bardaskan","ascii":"Bardaskan","lat":35.26218,"lon":57.97075,"population":28233},{"id":134441,"name":"Fūman","ascii":"Fuman","lat":37.224,"lon":49.3125,"population":27763},{"id":144269,"name":"Aleshtar","ascii":"Aleshtar","lat":33.86419,"lon":48.26258,"population":27701},{"id":122869,"name":"Nā’īn","ascii":"Na'in","lat":32.86006,"lon":53.08749,"population":27379},{"id":116406,"name":"Semīrom","ascii":"Semirom","lat":31.41667,"lon":51.56667,"population":27220},{"id":113797,"name":"Nūr","ascii":"Nur","lat":36.57168,"lon":52.0153,"population":26947},{"id":142114,"name":"Bāgh-e Malek","ascii":"Bagh-e Malek","lat":31.52398,"lon":49.88558,"population":26343},{"id":141676,"name":"Bandar-e Deylam","ascii":"Bandar-e Deylam","lat":30.0542,"lon":50.159,"population":25730},{"id":406472,"name":"Shāhedshahr","ascii":"Shahedshahr","lat":35.5729,"lon":51.085,"population":25544},{"id":401118,"name":"Showţ","ascii":"Showt","lat":39.2192,"lon":44.77,"population":25381},{"id":418556,"name":"Goldasht","ascii":"Goldasht","lat":32.62837,"lon":51.43926,"population":25235},{"id":134762,"name":"Fārsān","ascii":"Farsan","lat":32.25694,"lon":50.56095,"population":25071},{"id":119374,"name":"Qeshm","ascii":"Qeshm","lat":26.9492,"lon":56.2691,"population":25000},{"id":137436,"name":"Darreh Shahr","ascii":"Darreh Shahr","lat":33.14447,"lon":47.3799,"population":24961},{"id":418830,"name":"Gaz-e Borkhar","ascii":"Gaz-e Borkhar","lat":32.80482,"lon":51.62087,"population":24433},{"id":145233,"name":"Ābdānān","ascii":"Abdanan","lat":32.9926,"lon":47.4198,"population":23946},{"id":134282,"name":"Gālīkesh","ascii":"Galikesh","lat":37.27259,"lon":55.43394,"population":23394},{"id":132382,"name":"Ḩājjīābād","ascii":"Hajjiabad","lat":28.3091,"lon":55.9017,"population":23309},{"id":141665,"name":"Bandar-e Lengeh","ascii":"Bandar-e Lengeh","lat":26.55792,"lon":54.88067,"population":22768},{"id":141407,"name":"Baravāt","ascii":"Baravat","lat":29.0663,"lon":58.4046,"population":22761},{"id":144696,"name":"Aghajari","ascii":"Aghajari","lat":30.7006,"lon":49.8315,"population":21785},{"id":418446,"name":"Tīrān","ascii":"Tiran","lat":32.70328,"lon":51.15381,"population":21703},{"id":132458,"name":"Hafshejān","ascii":"Hafshejan","lat":32.22662,"lon":50.79314,"population":21352},{"id":142567,"name":"Shāzand","ascii":"Shazand","lat":33.93132,"lon":49.40629,"population":21181},{"id":127033,"name":"Khvānsār","ascii":"Khvansar","lat":33.22052,"lon":50.31497,"population":21146},{"id":7100777,"name":"Mahdishahr","ascii":"Mahdishahr","lat":35.71071,"lon":53.35394,"population":21000},{"id":126914,"name":"Kīsh","ascii":"Kish","lat":26.55778,"lon":54.01944,"population":20922},{"id":134781,"name":"Farrāshband","ascii":"Farrashband","lat":28.86012,"lon":52.09452,"population":20320},{"id":119264,"name":"Qīr","ascii":"Qir","lat":28.4825,"lon":53.0346,"population":20010},{"id":418950,"name":"Abrīsham","ascii":"Abrisham","lat":32.55613,"lon":51.57325,"population":20000},{"id":113723,"name":"Surian","ascii":"Surian","lat":30.4551,"lon":53.651,"population":20000},{"id":135053,"name":"Evaz","ascii":"Evaz","lat":27.7622,"lon":54.00417,"population":19987},{"id":114489,"name":"Sīāhkal","ascii":"Siahkal","lat":37.15328,"lon":49.87136,"population":19924},{"id":125688,"name":"Līkak","ascii":"Likak","lat":30.8949,"lon":50.0931,"population":19857},{"id":118532,"name":"Reẕvānshahr","ascii":"Rezvanshahr","lat":37.54947,"lon":49.13736,"population":19519},{"id":134636,"name":"Fāẕelābād","ascii":"Fazelabad","lat":36.89802,"lon":54.74963,"population":19461},{"id":118805,"name":"Rāmshīr","ascii":"Ramshir","lat":30.89315,"lon":49.40787,"population":19454},{"id":113632,"name":"Taft","ascii":"Taft","lat":31.74384,"lon":54.20278,"population":19394},{"id":6746932,"name":"Mahājerān","ascii":"Mahajeran","lat":34.05042,"lon":49.43498,"population":19346},{"id":1160120,"name":"Nehbandān","ascii":"Nehbandan","lat":31.54185,"lon":60.03648,"population":18304},{"id":143471,"name":"‘Anbarābād","ascii":"'Anbarabad","lat":28.4759,"lon":57.848,"population":18185},{"id":490,"name":"Lavāsān","ascii":"Lavasan","lat":35.82159,"lon":51.64444,"population":18146},{"id":1160907,"name":"Jālq","ascii":"Jalq","lat":27.60287,"lon":62.71023,"population":18098},{"id":141015,"name":"Māsāl","ascii":"Masal","lat":37.3631,"lon":49.1329,"population":17901},{"id":121240,"name":"Pāveh","ascii":"Paveh","lat":35.0434,"lon":46.3565,"population":17779},{"id":418886,"name":"Dastgerd","ascii":"Dastgerd","lat":32.80208,"lon":51.66361,"population":17775},{"id":41428,"name":"Pādegān-e Manjīl","ascii":"Padegan-e Manjil","lat":36.7415,"lon":49.4161,"population":17396},{"id":1160110,"name":"Nīkshahr","ascii":"Nikshahr","lat":26.2258,"lon":60.2143,"population":17000},{"id":142554,"name":"Hashtrūd","ascii":"Hashtrud","lat":37.4779,"lon":47.0508,"population":16888},{"id":143052,"name":"Ardestān","ascii":"Ardestan","lat":33.37939,"lon":52.36981,"population":16058},{"id":132428,"name":"Haftkel","ascii":"Haftkel","lat":31.44686,"lon":49.52951,"population":15802},{"id":124967,"name":"Manjīl","ascii":"Manjil","lat":36.74445,"lon":49.40082,"population":15630},{"id":143499,"name":"Anār","ascii":"Anar","lat":30.87066,"lon":55.27025,"population":15532},{"id":9480732,"name":"Boshrūyeh","ascii":"Boshruyeh","lat":33.86845,"lon":57.42885,"population":15318},{"id":125961,"name":"Lālejīn","ascii":"Lalejin","lat":34.9746,"lon":48.4758,"population":14916},{"id":418593,"name":"Imanshahr","ascii":"Imanshahr","lat":32.47352,"lon":51.47704,"population":14633},{"id":144263,"name":"Alavijeh","ascii":"Alavijeh","lat":33.0548,"lon":51.08331,"population":14550},{"id":137782,"name":"Dargahān","ascii":"Dargahan","lat":26.96316,"lon":56.06278,"population":14525},{"id":113636,"name":"Tafresh","ascii":"Tafresh","lat":34.69307,"lon":50.01601,"population":14399},{"id":1159302,"name":"Zehak","ascii":"Zehak","lat":30.894,"lon":61.6804,"population":14324},{"id":134906,"name":"Fāmenīn","ascii":"Famenin","lat":35.11593,"lon":48.97336,"population":14208},{"id":140494,"name":"Bīleh Savār","ascii":"Bileh Savar","lat":39.37961,"lon":48.35463,"population":14000},{"id":117232,"name":"Sarāyān","ascii":"Sarayan","lat":33.86017,"lon":58.52166,"population":13795},{"id":145303,"name":"'Abās Ābād","ascii":"'Abas Abad","lat":36.72769,"lon":51.10574,"population":13482},{"id":418575,"name":"Pīr Bakrān","ascii":"Pir Bakran","lat":32.46786,"lon":51.55969,"population":13469},{"id":119010,"name":"Rābor","ascii":"Rabor","lat":29.2912,"lon":56.9131,"population":13263},{"id":134894,"name":"Fannūj","ascii":"Fannuj","lat":26.57527,"lon":59.64144,"population":13000},{"id":125726,"name":"Landeh","ascii":"Landeh","lat":30.98215,"lon":50.4206,"population":12772},{"id":134745,"name":"Fārūj","ascii":"Faruj","lat":37.23121,"lon":58.219,"population":12061},{"id":120539,"name":"Arkavaz","ascii":"Arkavaz","lat":33.3828,"lon":46.5983,"population":11977},{"id":121890,"name":"Nūshābād","ascii":"Nushabad","lat":34.0797,"lon":51.4368,"population":11838},{"id":124291,"name":"Mehrān","ascii":"Mehran","lat":33.1222,"lon":46.1646,"population":11831},{"id":8384992,"name":"Darvīsheh","ascii":"Darvisheh","lat":31.24386,"lon":48.66603,"population":11820},{"id":133831,"name":"Gūgān","ascii":"Gugan","lat":37.7831,"lon":45.904,"population":11742},{"id":134601,"name":"Fereydūnshahr","ascii":"Fereydunshahr","lat":32.94195,"lon":50.11991,"population":11562},{"id":125790,"name":"Lavandevīl","ascii":"Lavandevil","lat":38.30954,"lon":48.87244,"population":11235},{"id":403707,"name":"Arvand Kenār","ascii":"Arvand Kenar","lat":29.97775,"lon":48.51777,"population":11173},{"id":127955,"name":"Khān Bebīn","ascii":"Khan Bebin","lat":37.01225,"lon":54.98772,"population":10878},{"id":141124,"name":"Bāsht","ascii":"Basht","lat":30.361,"lon":51.15735,"population":10764},{"id":126411,"name":"Kūhbanān","ascii":"Kuhbanan","lat":31.41029,"lon":56.28255,"population":10761},{"id":144916,"name":"Āb Sard","ascii":"Ab Sard","lat":35.62293,"lon":52.15323,"population":10648},{"id":118244,"name":"Khalīlābād","ascii":"Khalilabad","lat":36.80905,"lon":49.41486,"population":10504},{"id":1159836,"name":"Rāsak","ascii":"Rasak","lat":26.23682,"lon":61.39901,"population":10115},{"id":388686,"name":"Şūfīān","ascii":"Sufian","lat":38.2775,"lon":45.9806,"population":9963},{"id":418569,"name":"Qahjāvarestān","ascii":"Qahjavarestan","lat":32.70247,"lon":51.83882,"population":9712},{"id":418824,"name":"Gorgāb","ascii":"Gorgab","lat":32.86591,"lon":51.59732,"population":9690},{"id":127593,"name":"Khasht","ascii":"Khasht","lat":27.2346,"lon":53.4352,"population":9599},{"id":113760,"name":"Sūrak","ascii":"Surak","lat":36.59488,"lon":53.20762,"population":9208},{"id":135244,"name":"Eshkanān","ascii":"Eshkanan","lat":27.2293,"lon":53.6082,"population":9115},{"id":140586,"name":"Bīdkhūn","ascii":"Bidkhun","lat":27.47885,"lon":52.66722,"population":8886},{"id":115388,"name":"Sharīfābād","ascii":"Sharifabad","lat":35.42698,"lon":51.78456,"population":8870},{"id":7944,"name":"Kolāksar","ascii":"Kolaksar","lat":36.49625,"lon":52.34397,"population":8843},{"id":130081,"name":"Julfa","ascii":"Julfa","lat":38.93788,"lon":45.63329,"population":8810},{"id":142744,"name":"Āshtīān","ascii":"Ashtian","lat":34.52298,"lon":50.00608,"population":8763},{"id":117204,"name":"Sarbīsheh","ascii":"Sarbisheh","lat":32.57566,"lon":59.79821,"population":8715},{"id":141100,"name":"Basţām","ascii":"Bastam","lat":36.48534,"lon":54.99959,"population":8609},{"id":21173,"name":"Nūshīn Shar","ascii":"Nushin Shar","lat":37.7349,"lon":45.0513,"population":8380},{"id":133051,"name":"Golmakān","ascii":"Golmakan","lat":36.48128,"lon":59.15871,"population":8373},{"id":139784,"name":"Chāboksar","ascii":"Chaboksar","lat":36.97372,"lon":50.5701,"population":8224},{"id":130216,"name":"Khārk","ascii":"Khark","lat":29.26139,"lon":50.33056,"population":8196},{"id":116076,"name":"Shaft","ascii":"Shaft","lat":37.1702,"lon":49.3998,"population":8184},{"id":140926,"name":"Bahnemīr","ascii":"Bahnemir","lat":36.66822,"lon":52.76171,"population":7906},{"id":138901,"name":"Chū’ebdeh-ye Yek","ascii":"Chu'ebdeh-ye Yek","lat":30.2035,"lon":48.5538,"population":7906},{"id":117708,"name":"Şāleḩābād","ascii":"Salehabad","lat":34.9237,"lon":48.3427,"population":7899},{"id":127389,"name":"Khondāb","ascii":"Khondab","lat":34.3928,"lon":49.1841,"population":7810},{"id":7637486,"name":"Īzad Shahr","ascii":"Izad Shahr","lat":36.59894,"lon":52.12708,"population":7439},{"id":39590,"name":"Jelīn","ascii":"Jelin","lat":36.85425,"lon":54.53792,"population":7417},{"id":7108455,"name":"Shālāsh","ascii":"Shalash","lat":36.9084,"lon":53.92647,"population":7384},{"id":127131,"name":"Khūr","ascii":"Khur","lat":27.6461,"lon":54.34392,"population":7338},{"id":140762,"name":"Beyram","ascii":"Beyram","lat":27.43203,"lon":53.51413,"population":7300},{"id":125798,"name":"Laţīfī","ascii":"Latifi","lat":27.6901,"lon":54.3872,"population":7300},{"id":125834,"name":"Lashgarābād","ascii":"Lashgarabad","lat":35.85534,"lon":50.7462,"population":7198},{"id":141348,"name":"Bardestān","ascii":"Bardestan","lat":27.87327,"lon":51.96076,"population":7112},{"id":9514746,"name":"Gīvī","ascii":"Givi","lat":37.68585,"lon":48.34204,"population":7101},{"id":418834,"name":"Karkevand","ascii":"Karkevand","lat":32.34244,"lon":51.44584,"population":7058},{"id":418748,"name":"Jowzdān","ascii":"Jowzdan","lat":32.55605,"lon":51.37297,"population":6998},{"id":134715,"name":"Fasham","ascii":"Fasham","lat":35.9306,"lon":51.5266,"population":6945},{"id":117115,"name":"Sardasht-e Zeydūn","ascii":"Sardasht-e Zeydun","lat":30.3277,"lon":50.219,"population":6912},{"id":115607,"name":"Shalamzār","ascii":"Shalamzar","lat":32.0465,"lon":50.81639,"population":6899},{"id":418957,"name":"Aşgharābād","ascii":"Asgharabad","lat":32.65236,"lon":51.48042,"population":6876},{"id":145234,"name":"Ābdān","ascii":"Abdan","lat":28.0799,"lon":51.76815,"population":6827},{"id":144364,"name":"Akhand","ascii":"Akhand","lat":27.4361,"lon":52.75,"population":6775},{"id":136556,"name":"Deh Pahn","ascii":"Deh Pahn","lat":34.34563,"lon":47.13817,"population":6548},{"id":403126,"name":"Shahrak-e Pābedānā","ascii":"Shahrak-e Pabedana","lat":31.13444,"lon":56.39806,"population":6503},{"id":23814,"name":"Kahrīz","ascii":"Kahriz","lat":34.38347,"lon":47.05544,"population":6457},{"id":142703,"name":"Aşlān Dūz","ascii":"Aslan Duz","lat":39.4439,"lon":47.4056,"population":6348},{"id":406165,"name":"Gahrū","ascii":"Gahru","lat":32.00319,"lon":50.88537,"population":6263},{"id":130809,"name":"Īj","ascii":"Ij","lat":29.0214,"lon":54.2459,"population":6246},{"id":141834,"name":"Bālā Deh","ascii":"Bala Deh","lat":27.4023,"lon":53.5799,"population":6162},{"id":129610,"name":"Kujuvar","ascii":"Kujuvar","lat":38.05993,"lon":46.13809,"population":6001},{"id":386346,"name":"Zāgh Marz","ascii":"Zagh Marz","lat":36.80457,"lon":53.30256,"population":5932},{"id":131231,"name":"Hormoz","ascii":"Hormoz","lat":27.095,"lon":56.4529,"population":5891},{"id":26018,"name":"Fīrūzeh","ascii":"Firuzeh","lat":37.59791,"lon":58.79079,"population":5884},{"id":15269,"name":"Nīr","ascii":"Nir","lat":38.0346,"lon":47.9986,"population":5873},{"id":122560,"name":"Nashtārūd","ascii":"Nashtarud","lat":36.7509,"lon":51.02362,"population":5837},{"id":131272,"name":"Halor","ascii":"Halor","lat":26.9669,"lon":56.0834,"population":5828},{"id":144410,"name":"Akbarābād","ascii":"Akbarabad","lat":29.24609,"lon":52.78081,"population":5817},{"id":134788,"name":"Farmahīn","ascii":"Farmahin","lat":34.50383,"lon":49.68437,"population":5756},{"id":131441,"name":"Hashatjīn","ascii":"Hashatjin","lat":37.36885,"lon":48.32155,"population":5725},{"id":127098,"name":"Khūsf","ascii":"Khusf","lat":32.78108,"lon":58.89002,"population":5716},{"id":418463,"name":"Sīn","ascii":"Sin","lat":32.85339,"lon":51.65636,"population":5495},{"id":136983,"name":"Dehdez","ascii":"Dehdez","lat":31.7096,"lon":50.28827,"population":5490},{"id":134459,"name":"Fīshvar","ascii":"Fishvar","lat":27.79832,"lon":53.68469,"population":5395},{"id":32904,"name":"Shahrak-e Emām Ḩasan","ascii":"Shahrak-e Emam Hasan","lat":35.48846,"lon":51.34567,"population":5394},{"id":142587,"name":"Āyask","ascii":"Ayask","lat":33.88744,"lon":58.38236,"population":5143},{"id":137202,"name":"Dastnā’","ascii":"Dastna'","lat":32.05834,"lon":50.77051,"population":5143},{"id":116739,"name":"Sarvābād","ascii":"Sarvabad","lat":35.3126,"lon":46.3669,"population":5121},{"id":39874,"name":"Āq Qāyeh","ascii":"Aq Qayeh","lat":37.27472,"lon":55.15889,"population":5114},{"id":143064,"name":"Ardāq","ascii":"Ardaq","lat":36.05273,"lon":49.82412,"population":5043},{"id":113791,"name":"Sūleqān","ascii":"Suleqan","lat":35.82209,"lon":51.26476,"population":5013},{"id":111887,"name":"Yengī Emām","ascii":"Yengi Emam","lat":35.9387,"lon":50.7218,"population":4999},{"id":1160984,"name":"Hīchān","ascii":"Hichan","lat":26.3512,"lon":60.0746,"population":4970},{"id":403541,"name":"Dowrāhak","ascii":"Dowrahak","lat":27.94693,"lon":51.96059,"population":4852},{"id":113363,"name":"Ţāleb ābād","ascii":"Taleb abad","lat":35.5013,"lon":51.53147,"population":4850},{"id":122026,"name":"Kahak","ascii":"Kahak","lat":34.3938,"lon":50.8643,"population":4837},{"id":126035,"name":"Bandar-e Lāft","ascii":"Bandar-e Laft","lat":26.896,"lon":55.7584,"population":4668},{"id":129574,"name":"Kākhk","ascii":"Kakhk","lat":34.14804,"lon":58.64622,"population":4625},{"id":112207,"name":"Varāvī","ascii":"Varavi","lat":27.466,"lon":53.0542,"population":4622},{"id":113074,"name":"Ţasūj","ascii":"Tasuj","lat":29.26691,"lon":52.69946,"population":4555},{"id":390093,"name":"Bezenjān","ascii":"Bezenjan","lat":29.25525,"lon":56.6969,"population":4517},{"id":111058,"name":"Ziabar (Gaskar)","ascii":"Ziabar (Gaskar)","lat":37.4261,"lon":49.2459,"population":4500},{"id":38003,"name":"Ḩavīq","ascii":"Haviq","lat":38.14984,"lon":48.8833,"population":4261},{"id":17511,"name":"Ebrāhīmābād-e Ajīrlū","ascii":"Ebrahimabad-e Ajirlu","lat":39.621,"lon":47.9184,"population":4259},{"id":130366,"name":"Jongīyeh","ascii":"Jongiyeh","lat":31.25583,"lon":48.61667,"population":4183},{"id":122111,"name":"Noşratābād","ascii":"Nosratabad","lat":29.9,"lon":59.98333,"population":4182},{"id":113650,"name":"Ţabl","ascii":"Tabl","lat":26.757,"lon":55.7256,"population":4069},{"id":417469,"name":"Zafreh","ascii":"Zafreh","lat":32.50384,"lon":51.49653,"population":4000},{"id":118139,"name":"Rūyān","ascii":"Ruyan","lat":36.35038,"lon":55.0025,"population":3770},{"id":123036,"name":"Mūrmūrī","ascii":"Murmuri","lat":32.7262,"lon":47.6784,"population":3768},{"id":6243,"name":"Haft Cheshmeh","ascii":"Haft Cheshmeh","lat":33.6272,"lon":46.3593,"population":3497},{"id":123117,"name":"Mūd","ascii":"Mud","lat":32.70811,"lon":59.52342,"population":3477},{"id":122653,"name":"Anārestān","ascii":"Anarestan","lat":28.0307,"lon":52.06186,"population":3400},{"id":118452,"name":"Rīz","ascii":"Riz","lat":28.0525,"lon":52.0725,"population":3282},{"id":9904,"name":"Ţāleqān","ascii":"Taleqan","lat":36.17449,"lon":50.76908,"population":3211},{"id":1160463,"name":"Kohak","ascii":"Kohak","lat":30.8273,"lon":61.7576,"population":3201},{"id":122324,"name":"Neshlaj","ascii":"Neshlaj","lat":33.98933,"lon":51.07356,"population":3024},{"id":112160,"name":"Varjavī","ascii":"Varjavi","lat":37.3348,"lon":46.2407,"population":2989},{"id":136301,"name":"Deyhūk","ascii":"Deyhuk","lat":33.29399,"lon":57.51859,"population":2959},{"id":390054,"name":"Kūh Sefīd","ascii":"Kuh Sefid","lat":29.2762,"lon":56.8014,"population":2850},{"id":8595861,"name":"Āb‘alī","ascii":"Ab'ali","lat":35.76322,"lon":51.96514,"population":2758},{"id":119537,"name":"Qazānchī","ascii":"Qazanchi","lat":34.44163,"lon":47.02407,"population":2755},{"id":142209,"name":"Bāghān","ascii":"Baghan","lat":29.29887,"lon":52.64912,"population":2744},{"id":39189,"name":"Qarah Qāshlī","ascii":"Qarah Qashli","lat":36.89674,"lon":54.17388,"population":2731},{"id":135484,"name":"Ebrāhīm Samī‘","ascii":"Ebrahim Sami'","lat":38.9558,"lon":46.6683,"population":2721},{"id":401555,"name":"Lūmār","ascii":"Lumar","lat":33.56522,"lon":46.814,"population":2696},{"id":135511,"name":"Ebrāhīmābād","ascii":"Ebrahimabad","lat":35.97249,"lon":46.83319,"population":2682},{"id":117362,"name":"Sarāb Bāgh","ascii":"Sarab Bagh","lat":32.89813,"lon":47.57381,"population":2659},{"id":127585,"name":"Khesht Sar","ascii":"Khesht Sar","lat":36.61273,"lon":52.19817,"population":2656},{"id":38007,"name":"Ārāllū","ascii":"Arallu","lat":38.1444,"lon":48.424,"population":2650},{"id":115533,"name":"Shamsābād","ascii":"Shamsabad","lat":32.16642,"lon":50.85349,"population":2609},{"id":418857,"name":"Eshkāvand","ascii":"Eshkavand","lat":32.57883,"lon":51.75915,"population":2557},{"id":134714,"name":"Fashand","ascii":"Fashand","lat":36.03278,"lon":50.75612,"population":2334},{"id":120869,"name":"Posht-e Pīān","ascii":"Posht-e Pian","lat":31.96609,"lon":49.77605,"population":2325},{"id":122232,"name":"Neyāsar","ascii":"Neyasar","lat":33.97258,"lon":51.14869,"population":2319},{"id":142975,"name":"Ārmardeh","ascii":"Armardeh","lat":35.9324,"lon":45.796,"population":2305},{"id":139981,"name":"Bozbāz","ascii":"Bozbaz","lat":27.4673,"lon":52.7212,"population":2286},{"id":418671,"name":"Lārgān","ascii":"Largan","lat":32.49384,"lon":51.5125,"population":2259},{"id":119247,"name":"Qohūrd-e ‘Olyā","ascii":"Qohurd-e `Olya","lat":35.43979,"lon":48.07362,"population":2115},{"id":130807,"name":"Īch","ascii":"Ich","lat":36.45269,"lon":48.21246,"population":2086},{"id":117422,"name":"Sankhvāst","ascii":"Sankhvast","lat":37.09916,"lon":56.85183,"population":2077},{"id":6657192,"name":"Shahrak-e Nahāl Va Baz̄r","ascii":"Shahrak-e Nahal Va Bazr","lat":35.79016,"lon":50.94951,"population":2001},{"id":119714,"name":"Qarnābād","ascii":"Qarnabad","lat":36.82185,"lon":54.59186,"population":1961},{"id":140216,"name":"Shahrak-e Kūlūrī","ascii":"Shahrak-e Kuluri","lat":32.35276,"lon":48.47059,"population":1941},{"id":136661,"name":"Dehnow","ascii":"Dehnow","lat":27.4519,"lon":52.7364,"population":1930},{"id":143320,"name":"Anūch","ascii":"Anuch","lat":34.10829,"lon":48.57375,"population":1833},{"id":6711214,"name":"Delgoshā","ascii":"Delgosha","lat":33.4057,"lon":46.5948,"population":1819},{"id":112025,"name":"Vasīān","ascii":"Vasian","lat":33.49083,"lon":48.04917,"population":1817},{"id":142177,"name":"Baghdādeh","ascii":"Baghdadeh","lat":33.77163,"lon":58.31735,"population":1808},{"id":385215,"name":"Tāzehābād Kolā","ascii":"Tazehabad Kola","lat":36.77298,"lon":53.27227,"population":1807},{"id":13535724,"name":"Dabudasht","ascii":"Dabudasht","lat":36.47982,"lon":52.45056,"population":1758},{"id":389871,"name":"Şāleḩābād","ascii":"Salehabad","lat":33.4697,"lon":46.188,"population":1751},{"id":37767,"name":"Omīdcheh","ascii":"Omidcheh","lat":38.28667,"lon":48.14139,"population":1710},{"id":1160945,"name":"Hīdūj","ascii":"Hiduj","lat":27.00048,"lon":62.11779,"population":1674},{"id":124491,"name":"Mazīnān","ascii":"Mazinan","lat":36.3088,"lon":56.81607,"population":1661},{"id":39770,"name":"Moghān","ascii":"Moghan","lat":36.37569,"lon":54.95713,"population":1631},{"id":143435,"name":"Andarvar","ascii":"Andarvar","lat":36.58239,"lon":51.73466,"population":1611},{"id":140525,"name":"Bīhūd","ascii":"Bihud","lat":33.77483,"lon":58.86007,"population":1577},{"id":142211,"name":"Bāghān","ascii":"Baghan","lat":28.21,"lon":51.88186,"population":1574},{"id":401299,"name":"Forūtaqeh","ascii":"Forutaqeh","lat":35.21402,"lon":58.51039,"population":1515},{"id":117698,"name":"Soleh Bon","ascii":"Soleh Bon","lat":35.76841,"lon":52.56091,"population":1500},{"id":385253,"name":"Zenīvand","ascii":"Zenivand","lat":36.79539,"lon":53.32058,"population":1484},{"id":140956,"name":"Bahābād","ascii":"Bahabad","lat":34.32728,"lon":58.7179,"population":1423},{"id":144422,"name":"Ākand","ascii":"Akand","lat":36.69501,"lon":53.07981,"population":1416},{"id":139307,"name":"Chalandar","ascii":"Chalandar","lat":36.57424,"lon":51.68816,"population":1383},{"id":8016,"name":"Gālesh Pol","ascii":"Galesh Pol","lat":36.5828,"lon":52.28556,"population":1368},{"id":992,"name":"‘Abdollāhābād","ascii":"'Abdollahabad","lat":36.502,"lon":52.12746,"population":1365},{"id":142852,"name":"Āsārā","ascii":"Asara","lat":36.03705,"lon":51.19468,"population":1339},{"id":132747,"name":"Gūk Tappeh","ascii":"Guk Tappeh","lat":39.3348,"lon":48.2294,"population":1335},{"id":131428,"name":"Ḩey","ascii":"Hey","lat":35.65689,"lon":48.7104,"population":1318},{"id":143449,"name":"Andabīl","ascii":"Andabil","lat":37.63325,"lon":48.54678,"population":1302},{"id":12,"name":"Takht-e Qeyşar","ascii":"Takht-e Qeysar","lat":32.05908,"lon":48.86752,"population":1266},{"id":144270,"name":"Ālāsht","ascii":"Alasht","lat":36.06676,"lon":52.83713,"population":1193},{"id":35705,"name":"Ḩīq","ascii":"Hiq","lat":38.3828,"lon":47.581,"population":1188},{"id":116626,"name":"sedeyen-e Yek","ascii":"sedeyen-e Yek","lat":31.36205,"lon":48.81833,"population":1082},{"id":6949363,"name":"Famast","ascii":"Famast","lat":34.03897,"lon":48.4626,"population":1081},{"id":134905,"name":"pamas","ascii":"pamas","lat":34.03791,"lon":48.462,"population":1081},{"id":1159981,"name":"Pīr Sohrāb","ascii":"Pir Sohrab","lat":25.734,"lon":60.8765,"population":1081},{"id":6687174,"name":"Mehr","ascii":"Mehr","lat":33.4294,"lon":46.4654,"population":1060},{"id":6683619,"name":"Bast-e Malakhī","ascii":"Bast-e Malakhi","lat":27.7983,"lon":52.3711,"population":1058},{"id":128898,"name":"Konarak-e ‘Olyā","ascii":"Konarak-e 'Olya","lat":31.79905,"lon":51.14901,"population":1058},{"id":145427,"name":"Abarkūh","ascii":"Abarkuh","lat":31.1289,"lon":53.2824,"population":0},{"id":145407,"name":"Ābbar","ascii":"Abbar","lat":36.92627,"lon":48.95832,"population":0},{"id":144795,"name":"Ābyek","ascii":"Abyek","lat":36.03993,"lon":50.53101,"population":0},{"id":1161887,"name":"Adīmī","ascii":"Adimi","lat":31.11144,"lon":61.41189,"population":0},{"id":144484,"name":"Ahram","ascii":"Ahram","lat":28.8826,"lon":51.2746,"population":0},{"id":144038,"name":"Aliabad-e Katul","ascii":"Aliabad-e Katul","lat":36.91011,"lon":54.86737,"population":0},{"id":143539,"name":"Amlash","ascii":"Amlash","lat":37.0966,"lon":50.18709,"population":0},{"id":143129,"name":"Ārādān","ascii":"Aradan","lat":35.24941,"lon":52.49422,"population":0},{"id":143070,"name":"Ardal","ascii":"Ardal","lat":31.99969,"lon":50.66231,"population":0},{"id":142958,"name":"Arsanjān","ascii":"Arsanjan","lat":29.9124,"lon":53.3085,"population":0},{"id":142862,"name":"Asadīyeh","ascii":"Asadiyeh","lat":32.9428,"lon":59.71998,"population":0},{"id":142768,"name":"Āshkhāneh","ascii":"Ashkhaneh","lat":37.5615,"lon":56.92125,"population":0},{"id":142642,"name":"Āvaj","ascii":"Avaj","lat":35.57959,"lon":49.22313,"population":0},{"id":6686970,"name":"Āz̄arshahr","ascii":"Azarshahr","lat":37.759,"lon":45.9783,"population":0},{"id":415694,"name":"Badreh","ascii":"Badreh","lat":33.30573,"lon":47.03708,"population":0},{"id":9533956,"name":"Bahābād","ascii":"Bahabad","lat":31.87091,"lon":56.02433,"population":0},{"id":141891,"name":"Bajestān","ascii":"Bajestan","lat":34.51639,"lon":58.1845,"population":0},{"id":142857,"name":"Bandar-e ‘Asalūyah","ascii":"Bandar-e `Asaluyah","lat":27.47383,"lon":52.60782,"population":0},{"id":141673,"name":"Bandar-e Gaz","ascii":"Bandar-e Gaz","lat":36.77409,"lon":53.94798,"population":0},{"id":127992,"name":"Bandar-e Khamīr","ascii":"Bandar-e Khamir","lat":26.9521,"lon":55.5851,"population":0},{"id":141104,"name":"Bastak","ascii":"Bastak","lat":27.19908,"lon":54.36676,"population":0},{"id":140891,"name":"Ben","ascii":"Ben","lat":32.54037,"lon":50.74515,"population":0},{"id":23290,"name":"Bostānābād","ascii":"Bostanabad","lat":37.84633,"lon":46.83542,"population":0},{"id":139903,"name":"Bū’īn Zahrā","ascii":"Bu'in Zahra","lat":35.7669,"lon":50.0578,"population":0},{"id":139780,"name":"Chādegān","ascii":"Chadegan","lat":32.76825,"lon":50.62873,"population":0},{"id":139015,"name":"Chaqābol","ascii":"Chaqabol","lat":33.28175,"lon":47.50979,"population":0},{"id":138989,"name":"Charām","ascii":"Charam","lat":30.75561,"lon":50.74522,"population":0},{"id":138799,"name":"Chelgard","ascii":"Chelgard","lat":32.4672,"lon":50.12229,"population":0},{"id":7102155,"name":"Dalgān","ascii":"Dalgan","lat":27.48232,"lon":59.44656,"population":0},{"id":137929,"name":"Dārān","ascii":"Daran","lat":32.98741,"lon":50.4108,"population":0},{"id":137585,"name":"Dargaz","ascii":"Dargaz","lat":37.44447,"lon":59.10809,"population":0},{"id":137125,"name":"Dāvarzan","ascii":"Davarzan","lat":36.35088,"lon":56.87547,"population":0},{"id":137057,"name":"Dehāqān","ascii":"Dehaqan","lat":31.93986,"lon":51.64731,"population":0},{"id":136773,"name":"Dehgolān","ascii":"Dehgolan","lat":35.278,"lon":47.4184,"population":0},{"id":136280,"name":"Deyr","ascii":"Deyr","lat":27.8399,"lon":51.9378,"population":0},{"id":136256,"name":"Dezful","ascii":"Dezful","lat":32.38114,"lon":48.40581,"population":0},{"id":135743,"name":"Dowlatābād","ascii":"Dowlatabad","lat":35.28219,"lon":59.51972,"population":0},{"id":1161297,"name":"Dūst Moḩammad Khān","ascii":"Dust Mohammad Khan","lat":31.1447,"lon":61.7925,"population":0},{"id":135355,"name":"Eqlīd","ascii":"Eqlid","lat":30.89885,"lon":52.69701,"population":0},{"id":129929,"name":"Eyvān","ascii":"Eyvan","lat":33.8272,"lon":46.3097,"population":0},{"id":134962,"name":"Fahraj","ascii":"Fahraj","lat":28.9502,"lon":58.885,"population":0},{"id":112179,"name":"Fardīs","ascii":"Fardis","lat":35.7292,"lon":50.98483,"population":0},{"id":134809,"name":"Farīmān","ascii":"Fariman","lat":35.70685,"lon":59.85006,"population":0},{"id":134735,"name":"Fāryāb","ascii":"Faryab","lat":28.0987,"lon":57.23181,"population":0},{"id":134613,"name":"Ferdows","ascii":"Ferdows","lat":34.0185,"lon":58.17222,"population":0},{"id":134563,"name":"Feyẕābād","ascii":"Feyzabad","lat":35.01891,"lon":58.78343,"population":0},{"id":31020,"name":"Fīrūzeh","ascii":"Firuzeh","lat":36.28639,"lon":58.58586,"population":0},{"id":134462,"name":"Fīrūzkūh","ascii":"Firuzkuh","lat":35.75674,"lon":52.77062,"population":0},{"id":134255,"name":"Galūgāh","ascii":"Galugah","lat":36.72734,"lon":53.80888,"population":0},{"id":133978,"name":"Garmeh","ascii":"Garmeh","lat":36.987,"lon":56.28942,"population":0},{"id":133964,"name":"Garmsār","ascii":"Garmsar","lat":35.21824,"lon":52.34085,"population":0},{"id":133852,"name":"Gāvbandī","ascii":"Gavbandi","lat":27.2083,"lon":53.0361,"population":0},{"id":133345,"name":"Gīlān-e Gharb","ascii":"Gilan-e Gharb","lat":34.1421,"lon":45.9203,"population":0},{"id":40047,"name":"Gomīshān","ascii":"Gomishan","lat":37.0718,"lon":54.07654,"population":0},{"id":133884,"name":"Gotvand","ascii":"Gotvand","lat":32.24585,"lon":48.81315,"population":0},{"id":132380,"name":"Ḩājjīābād","ascii":"Hajjiabad","lat":28.35735,"lon":54.42335,"population":0},{"id":1161048,"name":"Ḩājjīābād","ascii":"Hajjiabad","lat":33.60496,"lon":59.9934,"population":0},{"id":132105,"name":"Ḩamīdīyeh","ascii":"Hamidiyeh","lat":31.48285,"lon":48.4332,"population":0},{"id":131559,"name":"Hendījān","ascii":"Hendijan","lat":30.2363,"lon":49.7119,"population":0},{"id":131528,"name":"Herīs","ascii":"Heris","lat":38.24816,"lon":47.11678,"population":0},{"id":130821,"name":"Hoveyzeh","ascii":"Hoveyzeh","lat":31.4619,"lon":48.074,"population":0},{"id":130524,"name":"Jājarm","ascii":"Jajarm","lat":36.95012,"lon":56.38005,"population":0},{"id":130276,"name":"Jask","ascii":"Jask","lat":25.64533,"lon":57.77552,"population":0},{"id":25883,"name":"Javānrūd","ascii":"Javanrud","lat":34.8067,"lon":46.4913,"population":0},{"id":130091,"name":"Joghtāy","ascii":"Joghtay","lat":36.63619,"lon":57.07284,"population":0},{"id":129904,"name":"Kabūdarāhang","ascii":"Kabudarahang","lat":35.20924,"lon":48.72341,"population":0},{"id":6961608,"name":"Kahnūj","ascii":"Kahnuj","lat":27.9519,"lon":57.6996,"population":0},{"id":8781,"name":"Kalārdasht","ascii":"Kalardasht","lat":36.51094,"lon":51.17343,"population":0},{"id":31265,"name":"Kalāt-e Nāderī","ascii":"Kalat-e Naderi","lat":36.99532,"lon":59.76472,"population":0},{"id":129201,"name":"Kaleybar","ascii":"Kaleybar","lat":38.86509,"lon":47.03909,"population":0},{"id":128847,"name":"Kangān","ascii":"Kangan","lat":27.83434,"lon":52.06306,"population":0},{"id":6861211,"name":"Kāshān","ascii":"Kashan","lat":34.00228,"lon":51.43879,"population":0},{"id":128252,"name":"Kerend-e Gharb","ascii":"Kerend-e Gharb","lat":34.2842,"lon":46.2423,"population":0},{"id":128025,"name":"Khalīlābād","ascii":"Khalilabad","lat":35.25395,"lon":58.28566,"population":0},{"id":127613,"name":"Kherāmeh","ascii":"Kherameh","lat":29.49896,"lon":53.31199,"population":0},{"id":127409,"name":"Khomārlū","ascii":"Khomarlu","lat":39.1489,"lon":47.0347,"population":0},{"id":127382,"name":"Khonj","ascii":"Khonj","lat":27.8913,"lon":53.4344,"population":0},{"id":127014,"name":"Khowrmūj","ascii":"Khowrmuj","lat":28.6543,"lon":51.38,"population":0},{"id":127029,"name":"Khūr","ascii":"Khur","lat":33.77512,"lon":55.08329,"population":0},{"id":126962,"name":"Kīā Kolā","ascii":"Kia Kola","lat":36.58028,"lon":52.81253,"population":0},{"id":126715,"name":"Komījān","ascii":"Komijan","lat":34.72142,"lon":49.32653,"population":0},{"id":125938,"name":"Lālī","ascii":"Lali","lat":32.32981,"lon":49.09324,"population":0},{"id":125926,"name":"Lamerd","ascii":"Lamerd","lat":27.334,"lon":53.179,"population":0},{"id":125609,"name":"Lordegān","ascii":"Lordegan","lat":31.51338,"lon":50.82672,"population":0},{"id":125438,"name":"Maḩallāt","ascii":"Mahallat","lat":33.91108,"lon":50.45317,"population":0},{"id":125290,"name":"Māhneshān","ascii":"Mahneshan","lat":36.7444,"lon":47.6725,"population":0},{"id":125205,"name":"Maku","ascii":"Maku","lat":39.28992,"lon":44.46035,"population":0},{"id":125112,"name":"Malekān","ascii":"Malekan","lat":37.14258,"lon":46.10345,"population":0},{"id":6657461,"name":"Māmūnīyeh","ascii":"Mamuniyeh","lat":35.30454,"lon":50.49934,"population":0},{"id":124914,"name":"Manūjān","ascii":"Manujan","lat":27.40698,"lon":57.50128,"population":0},{"id":123295,"name":"Marāveh Tappeh","ascii":"Maraveh Tappeh","lat":37.9041,"lon":55.95596,"population":0},{"id":124622,"name":"Maşīrī","ascii":"Masiri","lat":30.24493,"lon":51.52158,"population":0},{"id":124101,"name":"Mīāndasht","ascii":"Miandasht","lat":33.07612,"lon":50.16432,"population":0},{"id":1160258,"name":"Mīrjāveh","ascii":"Mirjaveh","lat":29.0148,"lon":61.44959,"population":0},{"id":418625,"name":"Mobārakeh","ascii":"Mobarakeh","lat":32.34612,"lon":51.50205,"population":0},{"id":123674,"name":"Moḩammadābād","ascii":"Mohammadabad","lat":28.66877,"lon":59.07341,"population":0},{"id":1160239,"name":"Moḩammadābād","ascii":"Mohammadabad","lat":30.88546,"lon":61.46303,"population":0},{"id":123389,"name":"Mollās̄ānī","ascii":"Mollasani","lat":31.5847,"lon":48.88587,"population":0},{"id":122721,"name":"Namīn","ascii":"Namin","lat":38.4269,"lon":48.4839,"population":0},{"id":118323,"name":"Narmāshīr","ascii":"Narmashir","lat":28.95216,"lon":58.69773,"population":0},{"id":122375,"name":"Neqāb","ascii":"Neqab","lat":36.70792,"lon":57.42146,"population":0},{"id":142902,"name":"Orzū’īyeh","ascii":"Orzu'iyeh","lat":28.45318,"lon":56.35994,"population":0},{"id":121781,"name":"Oskū","ascii":"Osku","lat":37.91504,"lon":46.12258,"population":0},{"id":41151,"name":"Pā’īn-e Bāzār-e Rūdbār","ascii":"Pa'in-e Bazar-e Rudbar","lat":36.8211,"lon":49.4264,"population":0},{"id":120936,"name":"Pol-e Sefīd","ascii":"Pol-e Sefid","lat":36.11787,"lon":53.05531,"population":0},{"id":120949,"name":"Poldokhtar","ascii":"Poldokhtar","lat":33.15249,"lon":47.71014,"population":0},{"id":9260882,"name":"Qā’em Shahr","ascii":"Qa'em Shahr","lat":36.48144,"lon":52.89109,"population":0},{"id":120323,"name":"Qal‘eh Ganj","ascii":"Qal`eh Ganj","lat":27.5236,"lon":57.8811,"population":0},{"id":120499,"name":"Qal‘eh-ye Khvājeh","ascii":"Qal`eh-ye Khvajeh","lat":32.20622,"lon":49.44526,"population":0},{"id":22451,"name":"Qarah Āghāj","ascii":"Qarah Aghaj","lat":37.2187,"lon":47.2167,"population":0},{"id":1159884,"name":"Qaşr-e Qand","ascii":"Qasr-e Qand","lat":26.23244,"lon":60.73932,"population":0},{"id":119586,"name":"Qaşr-e Shīrīn","ascii":"Qasr-e Shirin","lat":34.5156,"lon":45.5791,"population":0},{"id":118824,"name":"Rāmīān","ascii":"Ramian","lat":37.01598,"lon":55.14123,"population":0},{"id":118705,"name":"Ravānsar","ascii":"Ravansar","lat":34.7153,"lon":46.6533,"population":0},{"id":118681,"name":"Razan","ascii":"Razan","lat":35.38625,"lon":49.0334,"population":0},{"id":9533872,"name":"Rey","ascii":"Rey","lat":35.59354,"lon":51.43997,"population":0},{"id":118328,"name":"Roshtkhvār","ascii":"Roshtkhvar","lat":34.97512,"lon":59.62482,"population":0},{"id":120351,"name":"Rūdān","ascii":"Rudan","lat":27.44194,"lon":57.19198,"population":0},{"id":6928551,"name":"Rūdbār","ascii":"Rudbar","lat":28.02899,"lon":57.9961,"population":0},{"id":118123,"name":"Sa‘ādat Shahr","ascii":"Sa`adat Shahr","lat":30.07921,"lon":53.13464,"population":0},{"id":137025,"name":"Şafāshahr","ascii":"Safashahr","lat":30.6131,"lon":53.1954,"population":0},{"id":117835,"name":"Şaḩneh","ascii":"Sahneh","lat":34.4813,"lon":47.6908,"population":0},{"id":117627,"name":"Sāmān","ascii":"Saman","lat":32.45014,"lon":50.91092,"population":0},{"id":117345,"name":"Sarāb-e Dūreh","ascii":"Sarab-e Dureh","lat":33.5639,"lon":48.0221,"population":0},{"id":117304,"name":"Sarābleh","ascii":"Sarableh","lat":33.76772,"lon":46.56578,"population":0},{"id":1159709,"name":"Sarbāz","ascii":"Sarbaz","lat":26.63228,"lon":61.25787,"population":0},{"id":117116,"name":"Sardasht","ascii":"Sardasht","lat":26.45574,"lon":57.90271,"population":0},{"id":116725,"name":"Sarvestān","ascii":"Sarvestan","lat":29.2735,"lon":53.2203,"population":0},{"id":403656,"name":"Sepīdān","ascii":"Sepidan","lat":30.25961,"lon":51.98491,"population":0},{"id":116326,"name":"Seyah Cheshmeh","ascii":"Seyah Cheshmeh","lat":39.06508,"lon":44.38416,"population":0},{"id":116126,"name":"Shabestar","ascii":"Shabestar","lat":38.1804,"lon":45.7028,"population":0},{"id":113556,"name":"Shahr-e Herāt","ascii":"Shahr-e Herat","lat":30.05407,"lon":54.37294,"population":0},{"id":1112446,"name":"Shahrak-e Bākharz","ascii":"Shahrak-e Bakharz","lat":34.99204,"lon":60.31714,"population":0},{"id":115001,"name":"Shīr Gāh","ascii":"Shir Gah","lat":36.29836,"lon":52.88917,"population":0},{"id":137013,"name":"Sīsakht","ascii":"Sisakht","lat":30.86393,"lon":51.4559,"population":0},{"id":114105,"name":"Solţānābād","ascii":"Soltanabad","lat":36.40352,"lon":58.03894,"population":0},{"id":117799,"name":"Solţānīyeh","ascii":"Soltaniyeh","lat":36.43318,"lon":48.79471,"population":0},{"id":113952,"name":"Sorkheh","ascii":"Sorkheh","lat":35.4633,"lon":53.214,"population":0},{"id":113860,"name":"Şowme‘eh Sarā","ascii":"Sowme`eh Sara","lat":37.30134,"lon":49.31504,"population":0},{"id":1159431,"name":"Sūrān","ascii":"Suran","lat":27.2855,"lon":61.9965,"population":0},{"id":9485471,"name":"Taft","ascii":"Taft","lat":31.76056,"lon":54.22303,"population":0},{"id":6709138,"name":"Tāzehābād","ascii":"Tazehabad","lat":34.7387,"lon":46.1496,"population":0},{"id":112616,"name":"Ţorqabeh","ascii":"Torqabeh","lat":36.3104,"lon":59.3735,"population":0},{"id":112422,"name":"Tūyserkān","ascii":"Tuyserkan","lat":34.551,"lon":48.44353,"population":0},{"id":112121,"name":"Varazqān","ascii":"Varazqan","lat":38.67549,"lon":46.11205,"population":0},{"id":1159306,"name":"Zābolī","ascii":"Zaboli","lat":27.131,"lon":61.67445,"population":0},{"id":418418,"name":"Zarrīn Shahr","ascii":"Zarrin Shahr","lat":32.39057,"lon":51.37654,"population":0},{"id":111246,"name":"Zarrīnābād","ascii":"Zarrinabad","lat":36.42622,"lon":48.28158,"population":0}]