[{"id":250441,"name":"Amman","nameKo":"암만","ascii":"Amman","lat":31.95522,"lon":35.94503,"population":1275857},{"id":250090,"name":"Zarqa","nameKo":"자르카","ascii":"Zarqa","lat":32.07275,"lon":36.08796,"population":792665},{"id":248946,"name":"Irbid","nameKo":"이르비드","ascii":"Irbid","lat":32.55556,"lon":35.85,"population":569068},{"id":7838895,"name":"Russeifa","ascii":"Russeifa","lat":32.01778,"lon":36.04639,"population":268237},{"id":248583,"name":"Ḩayy Khildā","ascii":"Hayy Khilda","lat":31.99202,"lon":35.84002,"population":251000},{"id":248460,"name":"Khuraybat as Sūq","ascii":"Khuraybat as Suq","lat":31.87913,"lon":35.92098,"population":186158},{"id":246013,"name":"Wādī as Sīr","ascii":"Wadi as Sir","lat":31.9545,"lon":35.81831,"population":181212},{"id":250336,"name":"Ar Ramthā","ascii":"Ar Ramtha","lat":32.55873,"lon":36.00816,"population":155693},{"id":13286467,"name":"Ṣuwayliḥ","ascii":"Suwaylih","lat":32.0221,"lon":35.84394,"population":151016},{"id":250799,"name":"‘Ajlūn","ascii":"'Ajlun","lat":32.33326,"lon":35.75279,"population":125557},{"id":250258,"name":"As Salţ","ascii":"As Salt","lat":32.03917,"lon":35.72722,"population":107874},{"id":250774,"name":"Aqaba","ascii":"Aqaba","lat":29.52667,"lon":35.00778,"population":95048},{"id":11428685,"name":"Rukban","ascii":"Rukban","lat":33.31405,"lon":38.70342,"population":85000},{"id":13308287,"name":"Marj Al Hamam","ascii":"Marj Al Hamam","lat":31.90274,"lon":35.84645,"population":82788},{"id":248370,"name":"Mādabā","ascii":"Madaba","lat":31.71599,"lon":35.79392,"population":82335},{"id":250582,"name":"Mafraq","nameKo":"마프라크","ascii":"Mafraq","lat":32.34289,"lon":36.20804,"population":57118},{"id":10861986,"name":"Az̧ Z̧ulayl","ascii":"Az Zulayl","lat":32.1208,"lon":36.28008,"population":50931},{"id":248382,"name":"Ma'an","ascii":"Ma'an","lat":30.19624,"lon":35.73405,"population":50350},{"id":250637,"name":"Al Jubayhah","ascii":"Al Jubayhah","lat":32.01071,"lon":35.89802,"population":46834},{"id":247105,"name":"Saḩāb","ascii":"Sahab","lat":31.87032,"lon":36.00479,"population":40241},{"id":250461,"name":"Ḩayy al Quwaysimah","ascii":"Hayy al Quwaysimah","lat":31.91037,"lon":35.94975,"population":32396},{"id":248875,"name":"Jarash","ascii":"Jarash","lat":32.28082,"lon":35.89929,"population":27046},{"id":250198,"name":"Aţ Ţafīlah","ascii":"At Tafilah","lat":30.83752,"lon":35.60442,"population":25429},{"id":248923,"name":"‘Izrā","ascii":"`Izra","lat":31.15889,"lon":35.69278,"population":22756},{"id":250624,"name":"Qīr Moāv","ascii":"Qir Moav","lat":31.18248,"lon":35.69999,"population":22581},{"id":6946409,"name":"Karak City","ascii":"Karak City","lat":31.16368,"lon":35.76204,"population":21678},{"id":248803,"name":"Judita","ascii":"Judita","lat":32.40792,"lon":35.70802,"population":20000},{"id":250718,"name":"Al Fuḩayş","ascii":"Al Fuhays","lat":32.00468,"lon":35.78088,"population":18916},{"id":250152,"name":"Aydūn","ascii":"Aydun","lat":32.50528,"lon":35.85809,"population":18376},{"id":246314,"name":"Umm as Summāq","ascii":"Umm as Summaq","lat":31.88542,"lon":35.8543,"population":18274},{"id":248414,"name":"Kurayyimah","ascii":"Kurayyimah","lat":32.27639,"lon":35.59938,"population":17837},{"id":248299,"name":"Māḩiş","ascii":"Mahis","lat":31.98646,"lon":35.76987,"population":17754},{"id":250420,"name":"‘Anjarah","ascii":"`Anjarah","lat":32.30667,"lon":35.75443,"population":17634},{"id":250267,"name":"Safi","ascii":"Safi","lat":31.03608,"lon":35.46544,"population":15200},{"id":250095,"name":"Al Azraq ash Shamālī","ascii":"Al Azraq ash Shamali","lat":31.88209,"lon":36.83017,"population":14800},{"id":250179,"name":"Aţ Ţurrah","ascii":"At Turrah","lat":32.63979,"lon":35.98943,"population":14619},{"id":246008,"name":"Wādī Mūsá","ascii":"Wadi Musa","lat":30.32096,"lon":35.47895,"population":14000},{"id":246725,"name":"Sūf","ascii":"Suf","lat":32.31372,"lon":35.83713,"population":12942},{"id":250186,"name":"Aţ Ţayyibah","ascii":"At Tayyibah","lat":32.54304,"lon":35.71756,"population":12615},{"id":247068,"name":"Sakib","ascii":"Sakib","lat":32.28431,"lon":35.80909,"population":11586},{"id":250294,"name":"Ash Shajarah","ascii":"Ash Shajarah","lat":32.64391,"lon":35.94175,"population":11243},{"id":248843,"name":"Jāwā","ascii":"Jawa","lat":31.85247,"lon":35.93928,"population":10628},{"id":247074,"name":"Şakhrah","ascii":"Sakhrah","lat":32.37087,"lon":35.84267,"population":10616},{"id":247336,"name":"Rehab","ascii":"Rehab","lat":32.32341,"lon":36.09087,"population":10000},{"id":11352362,"name":"Ruwaished","ascii":"Ruwaished","lat":32.5041,"lon":38.2011,"population":9805},{"id":250124,"name":"‘Ayn Jannā","ascii":"`Ayn Janna","lat":32.33466,"lon":35.7637,"population":9586},{"id":250623,"name":"Al Karāmah","ascii":"Al Karamah","lat":31.95439,"lon":35.58033,"population":9384},{"id":250540,"name":"Al Mazār al Janūbī","ascii":"Al Mazar al Janubi","lat":31.06722,"lon":35.69486,"population":9383},{"id":247015,"name":"Şammā","ascii":"Samma","lat":32.57102,"lon":35.68984,"population":8926},{"id":248734,"name":"Kafr Asad","ascii":"Kafr Asad","lat":32.598,"lon":35.71266,"population":8203},{"id":249930,"name":"Bayt Yāfā","ascii":"Bayt Yafa","lat":32.52253,"lon":35.78618,"population":7788},{"id":250462,"name":"Al Quwayrah","ascii":"Al Quwayrah","lat":29.80045,"lon":35.3116,"population":7372},{"id":250106,"name":"‘Ayy","ascii":"`Ayy","lat":31.13371,"lon":35.64375,"population":7340},{"id":249842,"name":"Buşayrā","ascii":"Busayra","lat":30.73256,"lon":35.60943,"population":7154},{"id":248719,"name":"Kafr Sawm","ascii":"Kafr Sawm","lat":32.68527,"lon":35.80102,"population":7152},{"id":249318,"name":"Ḩakamā","ascii":"Hakama","lat":32.59354,"lon":35.8832,"population":7075},{"id":247061,"name":"Sāl","ascii":"Sal","lat":32.56897,"lon":35.91185,"population":6896},{"id":248250,"name":"Malkā","ascii":"Malka","lat":32.67645,"lon":35.74851,"population":6856},{"id":248738,"name":"Kafr Abīl","ascii":"Kafr Abil","lat":32.41752,"lon":35.66305,"population":6333},{"id":249676,"name":"Dayr Yūsuf","ascii":"Dayr Yusuf","lat":32.48701,"lon":35.79635,"population":6223},{"id":250697,"name":"Al Ḩamrā’","ascii":"Al Hamra'","lat":32.44017,"lon":36.15265,"population":6211},{"id":247103,"name":"Saḩam al Kaffārāt","ascii":"Saham al Kaffarat","lat":32.69848,"lon":35.77438,"population":6203},{"id":247340,"name":"Raymūn","ascii":"Raymun","lat":32.28202,"lon":35.82779,"population":6082},{"id":245989,"name":"Waqqāş","ascii":"Waqqas","lat":32.54214,"lon":35.60508,"population":5678},{"id":250603,"name":"Al Kittah","ascii":"Al Kittah","lat":32.27685,"lon":35.84114,"population":5626},{"id":250738,"name":"Ḩayy al Bunayyāt","ascii":"Hayy al Bunayyat","lat":31.89603,"lon":35.88465,"population":5579},{"id":249184,"name":"Ḩātim","ascii":"Hatim","lat":32.64492,"lon":35.77771,"population":5542},{"id":248627,"name":"Kharjā","ascii":"Kharja","lat":32.65988,"lon":35.88782,"population":5498},{"id":249310,"name":"Ḩalāwah","ascii":"Halawah","lat":32.38433,"lon":35.66167,"population":5376},{"id":247176,"name":"Şabḩā","ascii":"Sabha","lat":32.32696,"lon":36.50159,"population":5315},{"id":248434,"name":"Kitim","ascii":"Kitim","lat":32.43834,"lon":35.89677,"population":5292},{"id":250187,"name":"Al Khinzīrah","ascii":"Al Khinzirah","lat":31.05056,"lon":35.60606,"population":5231},{"id":246522,"name":"Tibnah","ascii":"Tibnah","lat":32.47521,"lon":35.73056,"population":5229},{"id":250052,"name":"Balīlā","ascii":"Balila","lat":32.39109,"lon":35.93832,"population":5206},{"id":247496,"name":"Qumaym","ascii":"Qumaym","lat":32.57174,"lon":35.73452,"population":5111},{"id":245939,"name":"Yarqā","ascii":"Yarqa","lat":31.97583,"lon":35.69638,"population":4786},{"id":249849,"name":"Burmā","ascii":"Burma","lat":32.2193,"lon":35.78507,"population":4735},{"id":249933,"name":"Bayt Īdis","ascii":"Bayt Idis","lat":32.43775,"lon":35.69765,"population":4723},{"id":250821,"name":"Adir","ascii":"Adir","lat":31.20217,"lon":35.76155,"population":4441},{"id":247659,"name":"Qafqafā","ascii":"Qafqafa","lat":32.34851,"lon":35.93864,"population":4402},{"id":250639,"name":"Al Jīzah","ascii":"Al Jizah","lat":31.69893,"lon":35.9553,"population":4397},{"id":246202,"name":"Umm Qays","ascii":"Umm Qays","lat":32.65348,"lon":35.68457,"population":4294},{"id":13353995,"name":"Ash-Shūbak","ascii":"Ash-Shubak","lat":30.51909,"lon":35.55773,"population":4275},{"id":250188,"name":"At-Taybeh","ascii":"At-Taybeh","lat":30.25125,"lon":35.4657,"population":4265},{"id":250345,"name":"Ar Rabbah","ascii":"Ar Rabbah","lat":31.26923,"lon":35.73829,"population":4229},{"id":246345,"name":"Umm al Qiţţayn","ascii":"Umm al Qittayn","lat":32.31449,"lon":36.62826,"population":4225},{"id":245915,"name":"Zaḩar","ascii":"Zahar","lat":32.5667,"lon":35.77811,"population":4150},{"id":250487,"name":"Al Qaşr","ascii":"Al Qasr","lat":31.31407,"lon":35.74393,"population":3840},{"id":250649,"name":"Al Jafr","ascii":"Al Jafr","lat":30.3184,"lon":36.17775,"population":3557},{"id":247363,"name":"Rāsūn","ascii":"Rasun","lat":32.39982,"lon":35.75971,"population":2586},{"id":10793675,"name":"Tala Bay","ascii":"Tala Bay","lat":29.40842,"lon":34.97918,"population":2000},{"id":250290,"name":"Ash Shawbak","ascii":"Ash Shawbak","lat":30.52134,"lon":35.57135,"population":50},{"id":250596,"name":"‘Allān","ascii":"`Allan","lat":32.11815,"lon":35.74351,"population":0},{"id":250142,"name":"‘Ayn al Bāshā","ascii":"`Ayn al Basha","lat":32.05726,"lon":35.83109,"population":0},{"id":248940,"name":"‘Irjān","ascii":"`Irjan","lat":32.39447,"lon":35.73345,"population":0},{"id":7031363,"name":"Ad Dīsah","ascii":"Ad Disah","lat":29.65284,"lon":35.51123,"population":0},{"id":246474,"name":"Adhruḩ","ascii":"Adhruh","lat":30.3307,"lon":35.59659,"population":0},{"id":10862121,"name":"Al ‘Abdallī","ascii":"Al `Abdalli","lat":31.96501,"lon":35.90821,"population":0},{"id":250767,"name":"Al ‘Arīḑ","ascii":"Al `Arid","lat":31.55839,"lon":35.65736,"population":0},{"id":248424,"name":"Al Fayşalīyah","ascii":"Al Faysaliyah","lat":31.74909,"lon":35.76922,"population":0},{"id":250688,"name":"Al Ḩasā","ascii":"Al Hasa","lat":30.82131,"lon":35.97499,"population":0},{"id":250686,"name":"Al Hāshimīyah","ascii":"Al Hashimiyah","lat":32.12901,"lon":36.1213,"population":0},{"id":250675,"name":"Al Ḩişn","ascii":"Al Hisn","lat":32.48454,"lon":35.88406,"population":0},{"id":250662,"name":"Al Ḩusaynīyah","ascii":"Al Husayniyah","lat":31.02606,"lon":35.72294,"population":0},{"id":7015781,"name":"Al Ḩusaynīyah","ascii":"Al Husayniyah","lat":30.59545,"lon":35.79701,"population":0},{"id":250628,"name":"Al Juwayyidah","ascii":"Al Juwayyidah","lat":31.88715,"lon":35.93144,"population":0},{"id":251005,"name":"Al Khālidīyah","ascii":"Al Khalidiyah","lat":32.179,"lon":36.30326,"population":0},{"id":250544,"name":"Al Maşţabah","ascii":"Al Mastabah","lat":32.18434,"lon":35.85588,"population":0},{"id":250538,"name":"Al Mazār ash Shamālī","ascii":"Al Mazar ash Shamali","lat":32.47041,"lon":35.79693,"population":0},{"id":247969,"name":"Al Mughayyir","ascii":"Al Mughayyir","lat":31.40634,"lon":35.77083,"population":0},{"id":248549,"name":"Al Murayghah","ascii":"Al Murayghah","lat":30.09526,"lon":35.52314,"population":0},{"id":407169,"name":"Al Muwaqqar","ascii":"Al Muwaqqar","lat":31.81473,"lon":36.10879,"population":0},{"id":250480,"name":"Al Qaţrānah","ascii":"Al Qatranah","lat":31.25083,"lon":36.04932,"population":0},{"id":385027,"name":"Ar Rīshah","ascii":"Ar Rishah","lat":30.22435,"lon":35.21671,"population":0},{"id":250321,"name":"Ar Ruşayfah","ascii":"Ar Rusayfah","lat":32.01727,"lon":36.03271,"population":0},{"id":250317,"name":"Ar Ruwayshid","ascii":"Ar Ruwayshid","lat":32.50152,"lon":38.20405,"population":0},{"id":250235,"name":"Aş Şubayḩī","ascii":"As Subayhi","lat":32.14844,"lon":35.70535,"population":0},{"id":246816,"name":"Ash Shūnah al Janūbīyah","ascii":"Ash Shunah al Janubiyah","lat":31.8915,"lon":35.6178,"population":0},{"id":250278,"name":"Ash Shūnah ash Shamālīyah","ascii":"Ash Shunah ash Shamaliyah","lat":32.62023,"lon":35.61451,"population":0},{"id":250151,"name":"Ayl","ascii":"Ayl","lat":30.20588,"lon":35.53627,"population":0},{"id":250057,"name":"Bal‘amā","ascii":"Bal`ama","lat":32.23649,"lon":36.08811,"population":0},{"id":248525,"name":"Bīrayn","ascii":"Birayn","lat":32.09943,"lon":35.95783,"population":0},{"id":249693,"name":"Dayr ‘Allā","ascii":"Dayr `Alla","lat":32.19571,"lon":35.62161,"population":0},{"id":249699,"name":"Dayr Abū Sa‘īd","ascii":"Dayr Abu Sa`id","lat":32.49816,"lon":35.68671,"population":0},{"id":10943439,"name":"Dayr al Kahf","ascii":"Dayr al Kahf","lat":32.27535,"lon":36.83949,"population":0},{"id":249664,"name":"Dhībān","ascii":"Dhiban","lat":31.49889,"lon":35.78287,"population":0},{"id":249481,"name":"Fuqū‘","ascii":"Fuqu`","lat":31.36805,"lon":35.7022,"population":0},{"id":250534,"name":"Ghawr al Mazra‘ah","ascii":"Ghawr al Mazra`ah","lat":31.26586,"lon":35.51674,"population":0},{"id":249153,"name":"Ḩawshā","ascii":"Hawsha","lat":32.45144,"lon":36.09903,"population":0},{"id":249095,"name":"Ḩisbān","ascii":"Hisban","lat":31.79819,"lon":35.80986,"population":0},{"id":248774,"name":"Juraynah","ascii":"Juraynah","lat":31.76,"lon":35.79466,"population":0},{"id":248420,"name":"Kufrinjah","ascii":"Kufrinjah","lat":32.29755,"lon":35.70212,"population":0},{"id":248293,"name":"Mā‘īn","ascii":"Ma`in","lat":31.68002,"lon":35.732,"population":0},{"id":250567,"name":"Manshīyat Banī Ḩasan","ascii":"Manshiyat Bani Hasan","lat":32.37066,"lon":36.07933,"population":0},{"id":247916,"name":"Mulayḩ","ascii":"Mulayh","lat":31.58517,"lon":35.80716,"population":0},{"id":250094,"name":"Muthallath al Azraq","ascii":"Muthallath al Azraq","lat":31.83269,"lon":36.81487,"population":0},{"id":10861483,"name":"Muthallath Jāmi‘at Āl al Bayt","ascii":"Muthallath Jami`at Al al Bayt","lat":32.34592,"lon":36.23352,"population":0},{"id":10640344,"name":"Muthallath Şabḩā","ascii":"Muthallath Sabha","lat":32.26011,"lon":36.4678,"population":0},{"id":247724,"name":"Nā‘ūr","ascii":"Na`ur","lat":31.87436,"lon":35.82467,"population":0},{"id":247273,"name":"Rujm ash Shāmī al Gharbī","ascii":"Rujm ash Shami al Gharbi","lat":31.83693,"lon":36.00492,"population":0},{"id":247021,"name":"Samā as Sirḩān","ascii":"Sama as Sirhan","lat":32.46859,"lon":36.24363,"population":0},{"id":247014,"name":"Sammā ar Rawsān","ascii":"Samma ar Rawsan","lat":32.63794,"lon":35.82661,"population":0},{"id":246384,"name":"Umm al Basātīn","ascii":"Umm al Basatin","lat":31.82454,"lon":35.87795,"population":0},{"id":246371,"name":"Umm al Jimāl","ascii":"Umm al Jimal","lat":32.32863,"lon":36.36788,"population":0},{"id":246330,"name":"Umm ar Raşāş","ascii":"Umm ar Rasas","lat":31.51225,"lon":35.91837,"population":0}]