[{"id":1850147,"name":"Tokyo","nameKo":"도쿄","ascii":"Tokyo","lat":35.6895,"lon":139.69171,"population":9733276},{"id":1848354,"name":"Yokohama","nameKo":"요코하마 시","ascii":"Yokohama","lat":35.43333,"lon":139.65,"population":3777491},{"id":1853909,"name":"Osaka","nameKo":"오사카 시","ascii":"Osaka","lat":34.69379,"lon":135.50107,"population":2753862},{"id":1856057,"name":"Nagoya","nameKo":"나고야 시","ascii":"Nagoya","lat":35.18147,"lon":136.90641,"population":2332176},{"id":2128295,"name":"Sapporo","nameKo":"삿포로 시","ascii":"Sapporo","lat":43.06667,"lon":141.35,"population":1973832},{"id":1863967,"name":"Fukuoka","nameKo":"후쿠오카 시","ascii":"Fukuoka","lat":33.6,"lon":130.41667,"population":1612392},{"id":1859642,"name":"Kawasaki","nameKo":"가와사키 시","ascii":"Kawasaki","lat":35.52056,"lon":139.71722,"population":1538262},{"id":1859171,"name":"Kobe","nameKo":"고베 시","ascii":"Kobe","lat":34.6913,"lon":135.183,"population":1525152},{"id":1857910,"name":"Kyoto","nameKo":"교토 시","ascii":"Kyoto","lat":35.02107,"lon":135.75385,"population":1463723},{"id":6940394,"name":"Saitama","ascii":"Saitama","lat":35.90807,"lon":139.65657,"population":1324854},{"id":1862415,"name":"Hiroshima","nameKo":"히로시마 시","ascii":"Hiroshima","lat":34.4,"lon":132.45,"population":1200754},{"id":2111149,"name":"Sendai","ascii":"Sendai","lat":38.26667,"lon":140.86667,"population":1096704},{"id":2113015,"name":"Chiba","nameKo":"지바 시","ascii":"Chiba","lat":35.6,"lon":140.11667,"population":979768},{"id":1859307,"name":"Kitakyushu","nameKo":"기타큐슈 시","ascii":"Kitakyushu","lat":33.85181,"lon":130.85034,"population":940978},{"id":11790342,"name":"Setagaya","ascii":"Setagaya","lat":35.64188,"lon":139.64715,"population":940071},{"id":1853195,"name":"Sakai","nameKo":"사카이 시","ascii":"Sakai","lat":34.58216,"lon":135.46653,"population":826161},{"id":1855431,"name":"Niigata","nameKo":"니가타 시","ascii":"Niigata","lat":37.92259,"lon":139.04125,"population":797591},{"id":1863289,"name":"Hamamatsu","nameKo":"하마마쓰 시","ascii":"Hamamatsu","lat":34.7,"lon":137.73333,"population":791707},{"id":8469289,"name":"Ōta","ascii":"Ota","lat":35.56126,"lon":139.71605,"population":748081},{"id":1858421,"name":"Kumamoto","nameKo":"구마모토 시","ascii":"Kumamoto","lat":32.80589,"lon":130.69181,"population":738907},{"id":1865689,"name":"Aihara","ascii":"Aihara","lat":35.6,"lon":139.31667,"population":725493},{"id":1854383,"name":"Okayama","nameKo":"오카야마 시","ascii":"Okayama","lat":34.65,"lon":133.93333,"population":724691},{"id":11611609,"name":"Sagamihara","ascii":"Sagamihara","lat":35.56707,"lon":139.24167,"population":720780},{"id":11071717,"name":"Edogawe","ascii":"Edogawe","lat":35.69225,"lon":139.87308,"population":697932},{"id":10987897,"name":"Adachi","ascii":"Adachi","lat":35.76318,"lon":139.80761,"population":695043},{"id":1851717,"name":"Shizuoka","nameKo":"시즈오카 시","ascii":"Shizuoka","lat":34.98333,"lon":138.38333,"population":693389},{"id":1863905,"name":"Honchō","nameKo":"후나바시 시","ascii":"Honcho","lat":35.70129,"lon":139.98648,"population":644668},{"id":1859730,"name":"Kawaguchi","nameKo":"가와구치 시","ascii":"Kawaguchi","lat":35.80521,"lon":139.71072,"population":607373},{"id":1860827,"name":"Kagoshima","nameKo":"가고시마 시","ascii":"Kagoshima","lat":31.56667,"lon":130.55,"population":595049},{"id":11836117,"name":"Suginami","ascii":"Suginami","lat":36.2013,"lon":140.28406,"population":588354},{"id":1861321,"name":"Itabashi","ascii":"Itabashi","lat":35.74893,"lon":139.71497,"population":584483},{"id":1863440,"name":"Hachiōji","nameKo":"하치오지 시","ascii":"Hachioji","lat":35.65583,"lon":139.32389,"population":579355},{"id":11209896,"name":"Kotō","ascii":"Koto","lat":32.77856,"lon":130.74537,"population":543730},{"id":1862627,"name":"Himeji","nameKo":"히메지 시","ascii":"Himeji","lat":34.81667,"lon":134.7,"population":530495},{"id":1849053,"name":"Utsunomiya","nameKo":"우쓰노미야 시","ascii":"Utsunomiya","lat":36.56667,"lon":139.88333,"population":518757},{"id":1926099,"name":"Matsuyama","nameKo":"마쓰야마 시","ascii":"Matsuyama","lat":33.83916,"lon":132.76574,"population":511192},{"id":1857553,"name":"Matsudo","nameKo":"마쓰도 시","ascii":"Matsudo","lat":35.77995,"lon":139.90144,"population":498575},{"id":11837657,"name":"Ichikawa","ascii":"Ichikawa","lat":35.73413,"lon":139.9065,"population":496676},{"id":1862752,"name":"Higashiosaka","nameKo":"히가시오사카 시","ascii":"Higashiosaka","lat":34.66667,"lon":135.58333,"population":493940},{"id":1855207,"name":"Nishinomiya","ascii":"Nishinomiya","lat":34.71562,"lon":135.33199,"population":485587},{"id":1858311,"name":"Kurashiki","nameKo":"구라시키 시","ascii":"Kurashiki","lat":34.58333,"lon":133.76667,"population":483576},{"id":1854487,"name":"Ōita","nameKo":"오이타 시","ascii":"Oita","lat":33.23333,"lon":131.6,"population":477715},{"id":1863917,"name":"Fukuyama","nameKo":"후쿠야마 시","ascii":"Fukuyama","lat":34.48333,"lon":133.36667,"population":468812},{"id":1860243,"name":"Kanazawa","nameKo":"가나자와 시","ascii":"Kanazawa","lat":36.6,"lon":136.61667,"population":466029},{"id":1865387,"name":"Amagasaki","ascii":"Amagasaki","lat":34.71667,"lon":135.41667,"population":459593},{"id":8469284,"name":"Katsushika","ascii":"Katsushika","lat":35.73333,"lon":139.85,"population":453093},{"id":1864092,"name":"Fujisawa","nameKo":"후지사와 시","ascii":"Fujisawa","lat":35.34926,"lon":139.47666,"population":439728},{"id":1859924,"name":"Kashiwa","nameKo":"가시와 시","ascii":"Kashiwa","lat":35.86224,"lon":139.97732,"population":433436},{"id":1857871,"name":"Machida","nameKo":"마치다 시","ascii":"Machida","lat":35.54028,"lon":139.45083,"population":431079},{"id":1849814,"name":"Toyota","nameKo":"도요타 시","ascii":"Toyota","lat":35.08333,"lon":137.15,"population":426162},{"id":1852139,"name":"Shinagawa","ascii":"Shinagawa","lat":33.63627,"lon":133.00572,"population":422488},{"id":1851100,"name":"Takamatsu","nameKo":"다카마쓰 시","ascii":"Takamatsu","lat":34.33333,"lon":134.05,"population":418994},{"id":1849876,"name":"Toyama","ascii":"Toyama","lat":36.7,"lon":137.21667,"population":415844},{"id":1848313,"name":"Yokosuka","nameKo":"요코스카 시","ascii":"Yokosuka","lat":35.28361,"lon":139.66722,"population":409478},{"id":1856177,"name":"Nagasaki","nameKo":"나가사키 시","ascii":"Nagasaki","lat":32.75,"lon":129.88333,"population":409118},{"id":1862540,"name":"Hirakata","nameKo":"히라카타 시","ascii":"Hirakata","lat":34.81352,"lon":135.64914,"population":406331},{"id":1863641,"name":"Gifu","nameKo":"기후 시","ascii":"Gifu","lat":35.42291,"lon":136.76039,"population":402557},{"id":1849837,"name":"Toyonaka","ascii":"Toyonaka","lat":34.78244,"lon":135.46932,"population":401558},{"id":1856717,"name":"Miyazaki","ascii":"Miyazaki","lat":31.91667,"lon":131.41667,"population":401339},{"id":1851483,"name":"Suita","nameKo":"스이타 시","ascii":"Suita","lat":34.76143,"lon":135.51567,"population":385567},{"id":1854376,"name":"Okazaki","nameKo":"오카자키 시","ascii":"Okazaki","lat":34.95,"lon":137.16667,"population":384654},{"id":1861949,"name":"Ichinomiya","nameKo":"이치노미야 시","ascii":"Ichinomiya","lat":35.3,"lon":136.8,"population":380073},{"id":1849846,"name":"Toyohashi","nameKo":"도요하시 시","ascii":"Toyohashi","lat":34.76667,"lon":137.38333,"population":377453},{"id":1852383,"name":"Minato","ascii":"Minato","lat":34.2152,"lon":135.1501,"population":375339},{"id":1851002,"name":"Takasaki","nameKo":"다카사키 시","ascii":"Takasaki","lat":36.33333,"lon":139.01667,"population":372973},{"id":1856215,"name":"Nagano","ascii":"Nagano","lat":36.65,"lon":138.18333,"population":372760},{"id":1855612,"name":"Nara-shi","nameKo":"나라 시","ascii":"Nara-shi","lat":34.68505,"lon":135.80485,"population":367353},{"id":2112539,"name":"Iwaki","nameKo":"이와키 시","ascii":"Iwaki","lat":37.05,"lon":140.88333,"population":357309},{"id":1926004,"name":"Wakayama","ascii":"Wakayama","lat":34.23333,"lon":135.16667,"population":356729},{"id":1859740,"name":"Kawagoe","nameKo":"가와고에 시","ascii":"Kawagoe","lat":35.90861,"lon":139.48528,"population":354571},{"id":1850910,"name":"Takatsuki","ascii":"Takatsuki","lat":34.84833,"lon":135.61678,"population":354468},{"id":11790353,"name":"Shinjuku","ascii":"Shinjuku","lat":35.69115,"lon":139.70854,"population":349385},{"id":1858729,"name":"Koshigaya","nameKo":"고시가야 시","ascii":"Koshigaya","lat":35.89035,"lon":139.78916,"population":345353},{"id":1853574,"name":"Ōtsu","nameKo":"오쓰 시","ascii":"Otsu","lat":35,"lon":135.86667,"population":345070},{"id":8715035,"name":"Nakano","nameKo":"나카노 구","ascii":"Nakano","lat":35.70449,"lon":139.66946,"population":344880},{"id":1850181,"name":"Tokorozawa","nameKo":"도코로자와 시","ascii":"Tokorozawa","lat":35.79916,"lon":139.46903,"population":344194},{"id":2130629,"name":"Asahikawa","nameKo":"아사히카와 시","ascii":"Asahikawa","lat":43.77063,"lon":142.36489,"population":333530},{"id":1857843,"name":"Maebashi","nameKo":"마에바시 시","ascii":"Maebashi","lat":36.4,"lon":139.08333,"population":332149},{"id":8469285,"name":"Kita","ascii":"Kita","lat":35.75264,"lon":139.73348,"population":332140},{"id":1859146,"name":"Kochi","ascii":"Kochi","lat":33.55,"lon":133.53333,"population":332059},{"id":2112141,"name":"Kōriyama","nameKo":"고리야마 시","ascii":"Koriyama","lat":37.4,"lon":140.38333,"population":327692},{"id":1856035,"name":"Naha","nameKo":"나하 시","ascii":"Naha","lat":26.213,"lon":127.67851,"population":317625},{"id":1859891,"name":"Kasugai","nameKo":"가스가이 시","ascii":"Kasugai","lat":35.24762,"lon":136.97229,"population":308681},{"id":2113126,"name":"Akita","nameKo":"아키타 시","ascii":"Akita","lat":39.71667,"lon":140.11667,"population":307672},{"id":1848373,"name":"Yokkaichi","nameKo":"욧카이치 시","ascii":"Yokkaichi","lat":34.96667,"lon":136.61667,"population":305424},{"id":1847966,"name":"Akashi","nameKo":"아카시 시","ascii":"Akashi","lat":34.65524,"lon":135.00687,"population":303601},{"id":1858088,"name":"Kurume","nameKo":"구루메 시","ascii":"Kurume","lat":33.31667,"lon":130.51667,"population":303579},{"id":8572994,"name":"Toshima","ascii":"Toshima","lat":35.76126,"lon":139.74491,"population":301599},{"id":2130658,"name":"Aomori","nameKo":"아오모리 시","ascii":"Aomori","lat":40.81667,"lon":140.73333,"population":298394},{"id":2112923,"name":"Fukushima","ascii":"Fukushima","lat":37.75,"lon":140.46667,"population":294237},{"id":2111834,"name":"Morioka","nameKo":"모리오카 시","ascii":"Morioka","lat":39.7,"lon":141.15,"population":290700},{"id":11790374,"name":"Meguro","ascii":"Meguro","lat":35.6322,"lon":139.70174,"population":288088},{"id":1851454,"name":"Sumida","ascii":"Sumida","lat":35.73289,"lon":139.82085,"population":287766},{"id":1862033,"name":"Ibaraki","nameKo":"이바라키 시","ascii":"Ibaraki","lat":34.81641,"lon":135.56828,"population":287730},{"id":2112664,"name":"Ichihara","nameKo":"이치하라 시","ascii":"Ichihara","lat":35.51667,"lon":140.08333,"population":283531},{"id":2130188,"name":"Hakodate","nameKo":"하코다테 시","ascii":"Hakodate","lat":41.77583,"lon":140.73667,"population":275730},{"id":1849796,"name":"Tsu","nameKo":"쓰 시","ascii":"Tsu","lat":34.73333,"lon":136.51667,"population":274537},{"id":1848522,"name":"Yao","ascii":"Yao","lat":34.61667,"lon":135.6,"population":273213},{"id":1860704,"name":"Kakogawachō-honmachi","nameKo":"가코가와 시","ascii":"Kakogawacho-honmachi","lat":34.76943,"lon":134.82905,"population":271634},{"id":2111901,"name":"Mito","ascii":"Mito","lat":36.35,"lon":140.45,"population":270685},{"id":1850158,"name":"Tokushima","nameKo":"도쿠시마 시","ascii":"Tokushima","lat":34.06667,"lon":134.56667,"population":267345},{"id":1856199,"name":"Nagaoka","nameKo":"나가오카 시","ascii":"Nagaoka","lat":37.45,"lon":138.85,"population":266936},{"id":1852225,"name":"Shimonoseki","nameKo":"시모노세키 시","ascii":"Shimonoseki","lat":33.95548,"lon":130.93713,"population":265684},{"id":11611632,"name":"Fuchū","ascii":"Fuchu","lat":35.67452,"lon":139.48216,"population":262790},{"id":1863985,"name":"Fukui-shi","ascii":"Fukui-shi","lat":36.06443,"lon":136.22257,"population":262328},{"id":13353696,"name":"Minato City","ascii":"Minato City","lat":35.6581,"lon":139.7515,"population":260486},{"id":1862462,"name":"Hiratsuka","nameKo":"히라쓰카 시","ascii":"Hiratsuka","lat":35.32785,"lon":139.33735,"population":258422},{"id":1851604,"name":"Sōka","ascii":"Soka","lat":35.83643,"lon":139.79957,"population":249645},{"id":2110556,"name":"Yamagata","ascii":"Yamagata","lat":38.23333,"lon":140.36667,"population":248772},{"id":1864134,"name":"Fuji","nameKo":"후지 시","ascii":"Fuji","lat":35.16667,"lon":138.68333,"population":245392},{"id":1852899,"name":"Sasebo","nameKo":"사세보 시","ascii":"Sasebo","lat":33.16834,"lon":129.72502,"population":243223},{"id":1864624,"name":"Chigasaki","nameKo":"지가사키 시","ascii":"Chigasaki","lat":35.33638,"lon":139.40434,"population":242798},{"id":1864518,"name":"Chōfu","ascii":"Chofu","lat":35.65924,"lon":139.54837,"population":242614},{"id":11611478,"name":"Yamato","ascii":"Yamato","lat":35.47276,"lon":139.45101,"population":242065},{"id":2110681,"name":"Tsukuba","nameKo":"쓰쿠바 시","ascii":"Tsukuba","lat":36.08333,"lon":140.11667,"population":241656},{"id":1857519,"name":"Matsumoto","nameKo":"마쓰모토 시","ascii":"Matsumoto","lat":36.23333,"lon":137.96667,"population":241145},{"id":11790632,"name":"Bunkyo","ascii":"Bunkyo","lat":35.5331,"lon":139.4217,"population":240069},{"id":2130203,"name":"Hachinohe","ascii":"Hachinohe","lat":40.5,"lon":141.5,"population":239046},{"id":6697563,"name":"Neyagawa","ascii":"Neyagawa","lat":34.76615,"lon":135.62759,"population":238549},{"id":1853303,"name":"Saga","nameKo":"사가 시","ascii":"Saga","lat":33.23333,"lon":130.3,"population":233301},{"id":11808021,"name":"Shibuya","ascii":"Shibuya","lat":35.6589,"lon":139.70665,"population":230609},{"id":1859884,"name":"Kasukabe","nameKo":"가스카베 시","ascii":"Kasukabe","lat":35.98308,"lon":139.74966,"population":229792},{"id":1865714,"name":"Ageo","ascii":"Ageo","lat":35.97145,"lon":139.61382,"population":226940},{"id":1851012,"name":"Takarazuka","nameKo":"다카라즈카 시","ascii":"Takarazuka","lat":34.79936,"lon":135.35697,"population":226432},{"id":1853677,"name":"Ōta","nameKo":"오타 시","ascii":"Ota","lat":36.3,"lon":139.36667,"population":224358},{"id":1857144,"name":"Minamirinkan","ascii":"Minamirinkan","lat":35.49527,"lon":139.44279,"population":224015},{"id":1847963,"name":"Atsugi","nameKo":"아쓰기 시","ascii":"Atsugi","lat":35.44272,"lon":139.36931,"population":223960},{"id":10968247,"name":"Arakawa","ascii":"Arakawa","lat":35.73825,"lon":139.78047,"population":216900},{"id":1858296,"name":"Kure","nameKo":"구레 시","ascii":"Kure","lat":34.23222,"lon":132.56658,"population":214592},{"id":1861436,"name":"Isesaki","nameKo":"이세사키 시","ascii":"Isesaki","lat":36.31667,"lon":139.2,"population":211850},{"id":11790369,"name":"Taito","ascii":"Taito","lat":35.70749,"lon":139.7788,"population":211444},{"id":1850692,"name":"Nishi-Tokyo-shi","ascii":"Nishi-Tokyo-shi","lat":35.72526,"lon":139.5383,"population":207388},{"id":1859383,"name":"Kishiwada","nameKo":"기시와다 시","ascii":"Kishiwada","lat":34.46667,"lon":135.36667,"population":205561},{"id":1857550,"name":"Matsue","nameKo":"마쓰에 시","ascii":"Matsue","lat":35.48333,"lon":133.05,"population":203616},{"id":1856184,"name":"Nagareyama","nameKo":"나가레야마 시","ascii":"Nagareyama","lat":35.8563,"lon":139.90266,"population":200136},{"id":6822182,"name":"Yachiyo","nameKo":"야치요 시","ascii":"Yachiyo","lat":35.73531,"lon":140.12445,"population":199498},{"id":11611930,"name":"Kodaira","ascii":"Kodaira","lat":35.72603,"lon":139.48508,"population":198739},{"id":1861310,"name":"Itami","nameKo":"이타미 시","ascii":"Itami","lat":34.78427,"lon":135.40126,"population":198138},{"id":11611627,"name":"Higashihiroshima","ascii":"Higashihiroshima","lat":34.40861,"lon":132.73682,"population":196608},{"id":1851348,"name":"Suzuka","nameKo":"스즈카 시","ascii":"Suzuka","lat":34.88333,"lon":136.58333,"population":195670},{"id":1860437,"name":"Kamirenjaku","ascii":"Kamirenjaku","lat":35.69423,"lon":139.55495,"population":195391},{"id":1858428,"name":"Kumagaya","nameKo":"구마가야 시","ascii":"Kumagaya","lat":36.13497,"lon":139.39004,"population":195277},{"id":1848689,"name":"Yamaguchi","nameKo":"야마구치 시","ascii":"Yamaguchi","lat":34.18333,"lon":131.46667,"population":193966},{"id":1849372,"name":"Uji","nameKo":"우지 시","ascii":"Uji","lat":34.89044,"lon":135.80325,"population":192925},{"id":1862599,"name":"Hino","nameKo":"히노 시","ascii":"Hino","lat":35.67306,"lon":139.40028,"population":190435},{"id":1859100,"name":"Kofu","nameKo":"고후 시","ascii":"Kofu","lat":35.66667,"lon":138.56667,"population":189591},{"id":1854902,"name":"Numazu","nameKo":"누마즈 시","ascii":"Numazu","lat":35.1,"lon":138.86667,"population":189486},{"id":6825489,"name":"Jōetsu","nameKo":"조에쓰 시","ascii":"Joetsu","lat":37.14828,"lon":138.23642,"population":189430},{"id":1854747,"name":"Odawara","nameKo":"오다와라 시","ascii":"Odawara","lat":35.25556,"lon":139.15972,"population":188856},{"id":1865294,"name":"Anjō","nameKo":"안조 시","ascii":"Anjo","lat":34.95828,"lon":137.08054,"population":188693},{"id":1849892,"name":"Tottori-shi","nameKo":"돗토리 시","ascii":"Tottori-shi","lat":35.5,"lon":134.23333,"population":188465},{"id":1849845,"name":"Toyokawa","nameKo":"도요카와 시","ascii":"Toyokawa","lat":34.81667,"lon":137.4,"population":184661},{"id":1861107,"name":"Izumi","ascii":"Izumi","lat":34.48333,"lon":135.43333,"population":184615},{"id":11611487,"name":"Tachikawa","ascii":"Tachikawa","lat":35.7091,"lon":139.41891,"population":183581},{"id":11612347,"name":"Narashino","ascii":"Narashino","lat":35.68184,"lon":140.04152,"population":176197},{"id":2127733,"name":"Tomakomai","nameKo":"도마코마이 시","ascii":"Tomakomai","lat":42.63694,"lon":141.60333,"population":174806},{"id":2112708,"name":"Hitachi","nameKo":"히타치 시","ascii":"Hitachi","lat":36.6,"lon":140.65,"population":174508},{"id":2111220,"name":"Sakura","nameKo":"사쿠라 시","ascii":"Sakura","lat":35.71667,"lon":140.23333,"population":173740},{"id":1849498,"name":"Ube","nameKo":"우베 시","ascii":"Ube","lat":33.94306,"lon":131.25111,"population":173733},{"id":1860672,"name":"Kamakura","nameKo":"가마쿠라 시","ascii":"Kamakura","lat":35.31085,"lon":139.54698,"population":172929},{"id":1861084,"name":"Izumo","nameKo":"이즈모 시","ascii":"Izumo","lat":35.36667,"lon":132.76667,"population":172775},{"id":1849186,"name":"Urayasu","nameKo":"우라야스 시","ascii":"Urayasu","lat":35.65879,"lon":139.90055,"population":171362},{"id":1926134,"name":"Imabari","ascii":"Imabari","lat":34.07001,"lon":133.00023,"population":170986},{"id":1851032,"name":"Takaoka","nameKo":"다카오카 시","ascii":"Takaoka","lat":36.75,"lon":137.01667,"population":170077},{"id":1855189,"name":"Nishio","nameKo":"니시오 시","ascii":"Nishio","lat":34.86667,"lon":137.05,"population":169984},{"id":13353695,"name":"Chūō","ascii":"Chuo","lat":35.67004,"lon":139.77544,"population":169179},{"id":2130057,"name":"Hirosaki","nameKo":"히로사키 시","ascii":"Hirosaki","lat":40.59306,"lon":140.4725,"population":168739},{"id":2129376,"name":"Kushiro","nameKo":"구시로 시","ascii":"Kushiro","lat":42.975,"lon":144.37472,"population":167875},{"id":1853483,"name":"Oyama","nameKo":"오야마 시","ascii":"Oyama","lat":36.3,"lon":139.8,"population":167647},{"id":1861171,"name":"Iwata","nameKo":"이와타 시","ascii":"Iwata","lat":34.7,"lon":137.85,"population":166672},{"id":2128815,"name":"Obihiro","nameKo":"오비히로 시","ascii":"Obihiro","lat":42.91722,"lon":143.20444,"population":166536},{"id":6822138,"name":"Niiza","nameKo":"니자 시","ascii":"Niiza","lat":35.82088,"lon":139.55791,"population":166017},{"id":1863431,"name":"Hadano","nameKo":"하다노 시","ascii":"Hadano","lat":35.37111,"lon":139.22361,"population":163787},{"id":1854703,"name":"Ōgaki","nameKo":"오가키 시","ascii":"Ogaki","lat":35.35,"lon":136.61667,"population":161539},{"id":1856775,"name":"Miyakonojō","nameKo":"미야코노조 시","ascii":"Miyakonojo","lat":31.73333,"lon":131.06667,"population":161137},{"id":1907146,"name":"Sayama","nameKo":"사야마 시","ascii":"Sayama","lat":35.85295,"lon":139.41212,"population":160843},{"id":11468431,"name":"Matsusaka","ascii":"Matsusaka","lat":34.57895,"lon":136.53706,"population":159145},{"id":1850311,"name":"Tochigi","nameKo":"도치기 시","ascii":"Tochigi","lat":36.38333,"lon":139.73333,"population":159056},{"id":1849429,"name":"Ueda","nameKo":"우에다 시","ascii":"Ueda","lat":36.40265,"lon":138.28161,"population":157480},{"id":6822096,"name":"Hitachi-Naka","ascii":"Hitachi-Naka","lat":36.39659,"lon":140.53479,"population":156581},{"id":2112312,"name":"Katsuta","ascii":"Katsuta","lat":36.38333,"lon":140.53333,"population":155968},{"id":1859675,"name":"Kawanishi","nameKo":"가와니시 시","ascii":"Kawanishi","lat":34.81667,"lon":135.41667,"population":155165},{"id":1855078,"name":"Noda","nameKo":"노다 시","ascii":"Noda","lat":35.94897,"lon":139.86793,"population":154114},{"id":1860034,"name":"Kariya","nameKo":"가리야 시","ascii":"Kariya","lat":34.98333,"lon":136.98333,"population":153834},{"id":7279570,"name":"Higashimurayama","ascii":"Higashimurayama","lat":35.75459,"lon":139.46852,"population":151815},{"id":1858445,"name":"Kukichūō","ascii":"Kukichuo","lat":36.06739,"lon":139.67498,"population":150582},{"id":1856367,"name":"Musashino","nameKo":"무사시노 시","ascii":"Musashino","lat":35.70611,"lon":139.55944,"population":150149},{"id":11612583,"name":"Shūnan","ascii":"Shunan","lat":34.08053,"lon":131.82564,"population":149632},{"id":1858926,"name":"Komaki","nameKo":"고마키 시","ascii":"Komaki","lat":35.28333,"lon":136.91667,"population":148872},{"id":1848277,"name":"Yonago","nameKo":"요나고 시","ascii":"Yonago","lat":35.43333,"lon":133.33333,"population":148720},{"id":6822129,"name":"Tama","nameKo":"다마 시","ascii":"Tama","lat":35.6436,"lon":139.46844,"population":148285},{"id":6822163,"name":"Iruma","nameKo":"이루마 시","ascii":"Iruma","lat":35.818,"lon":139.368,"population":147166},{"id":1864132,"name":"Fujieda","ascii":"Fujieda","lat":34.86667,"lon":138.26667,"population":145032},{"id":1865005,"name":"Ashikaga","nameKo":"아시카가 시","ascii":"Ashikaga","lat":36.33333,"lon":139.45,"population":144746},{"id":1860735,"name":"Kakamigahara","nameKo":"가카미가하라 시","ascii":"Kakamigahara","lat":35.41667,"lon":136.86667,"population":144521},{"id":6822099,"name":"Tsuchiura","ascii":"Tsuchiura","lat":36.09047,"lon":140.21047,"population":144399},{"id":1858067,"name":"Kusatsu","ascii":"Kusatsu","lat":35.01667,"lon":135.96667,"population":143913},{"id":1856584,"name":"Moriguchi","nameKo":"모리구치 시","ascii":"Moriguchi","lat":34.73333,"lon":135.56667,"population":143096},{"id":1894616,"name":"Okinawa","nameKo":"오키나와 시","ascii":"Okinawa","lat":26.33583,"lon":127.80139,"population":142752},{"id":6822137,"name":"Misato, Saitama","nameKo":"미사토 시","ascii":"Misato, Saitama","lat":35.84373,"lon":139.88347,"population":142145},{"id":1864031,"name":"Fukayachō","ascii":"Fukayacho","lat":36.2,"lon":139.28333,"population":141268},{"id":1907299,"name":"Asaka","nameKo":"아사카 시","ascii":"Asaka","lat":35.80472,"lon":139.60194,"population":141083},{"id":1907301,"name":"Shimotoda","ascii":"Shimotoda","lat":35.815,"lon":139.6853,"population":140899},{"id":2112576,"name":"Ishinomaki","nameKo":"이시노마키 시","ascii":"Ishinomaki","lat":38.41667,"lon":141.3,"population":140151},{"id":11468429,"name":"Kuwana","ascii":"Kuwana","lat":35.05192,"lon":136.66958,"population":140051},{"id":1848774,"name":"Yaizu","nameKo":"야이즈 시","ascii":"Yaizu","lat":34.86877,"lon":138.31952,"population":139578},{"id":1859093,"name":"Koga","nameKo":"고가 시","ascii":"Koga","lat":36.18333,"lon":139.71667,"population":139344},{"id":1857046,"name":"Minoh","ascii":"Minoh","lat":34.82691,"lon":135.47057,"population":136868},{"id":6822128,"name":"Ebina","nameKo":"에비나 시","ascii":"Ebina","lat":35.38121,"lon":139.39651,"population":136516},{"id":1859393,"name":"Kisarazu","nameKo":"기사라즈 시","ascii":"Kisarazu","lat":35.38329,"lon":139.93254,"population":136166},{"id":1861464,"name":"Isahaya","nameKo":"이사하야 시","ascii":"Isahaya","lat":32.84111,"lon":130.04306,"population":135546},{"id":1861602,"name":"Inazawa","nameKo":"이나자와 시","ascii":"Inazawa","lat":35.25,"lon":136.78333,"population":134751},{"id":2130404,"name":"Ebetsu","nameKo":"에베쓰 시","ascii":"Ebetsu","lat":43.10806,"lon":141.55056,"population":133953},{"id":1854162,"name":"Ōme","nameKo":"오메 시","ascii":"Ome","lat":35.78389,"lon":139.24306,"population":133535},{"id":2111684,"name":"Narita","nameKo":"나리타 시","ascii":"Narita","lat":35.78333,"lon":140.31667,"population":132906},{"id":1850034,"name":"Tondabayashichō","ascii":"Tondabayashicho","lat":34.50065,"lon":135.60211,"population":132873},{"id":1853008,"name":"Sandachō","ascii":"Sandacho","lat":34.88444,"lon":135.22694,"population":132858},{"id":1864105,"name":"Fujinomiya","nameKo":"후지노미야 시","ascii":"Fujinomiya","lat":35.21667,"lon":138.61667,"population":132507},{"id":1848004,"name":"Zama","nameKo":"자마 시","ascii":"Zama","lat":35.4879,"lon":139.39101,"population":132325},{"id":1854083,"name":"Ōmuta","nameKo":"오무타 시","ascii":"Omuta","lat":33.03333,"lon":130.45,"population":131974},{"id":2113164,"name":"Abiko","ascii":"Abiko","lat":35.86667,"lon":140.01667,"population":131771},{"id":1860871,"name":"Kadoma","nameKo":"가도마 시","ascii":"Kadoma","lat":34.7381,"lon":135.57442,"population":131727},{"id":1853992,"name":"Onomichi","nameKo":"오노미치 시","ascii":"Onomichi","lat":34.41667,"lon":133.2,"population":131170},{"id":1857568,"name":"Matsubara","ascii":"Matsubara","lat":34.56667,"lon":135.55,"population":130855},{"id":1858964,"name":"Kokubunji","nameKo":"고쿠분지 시","ascii":"Kokubunji","lat":35.70222,"lon":139.47556,"population":129242},{"id":1861212,"name":"Iwakuni","nameKo":"이와쿠니 시","ascii":"Iwakuni","lat":34.16297,"lon":132.22,"population":129125},{"id":6822188,"name":"Ōsaki","nameKo":"오사키 시","ascii":"Osaki","lat":38.58866,"lon":140.973,"population":128763},{"id":1852663,"name":"Seto","nameKo":"세토 시","ascii":"Seto","lat":35.23333,"lon":137.1,"population":127792},{"id":1861835,"name":"Iizuka","nameKo":"이즈카 시","ascii":"Iizuka","lat":33.63654,"lon":130.68678,"population":126364},{"id":11612579,"name":"Koganei","ascii":"Koganei","lat":35.70014,"lon":139.51109,"population":126074},{"id":1849563,"name":"Tsuruoka","nameKo":"쓰루오카 시","ascii":"Tsuruoka","lat":38.72167,"lon":139.82167,"population":125389},{"id":6822153,"name":"Uruma","nameKo":"우루마 시","ascii":"Uruma","lat":26.37609,"lon":127.85908,"population":125303},{"id":1859951,"name":"Kashihara-shi","ascii":"Kashihara-shi","lat":34.50896,"lon":135.7929,"population":124521},{"id":1861450,"name":"Ise","nameKo":"이세 시","ascii":"Ise","lat":34.48333,"lon":136.7,"population":123533},{"id":7303138,"name":"Kirishima","ascii":"Kirishima","lat":31.74087,"lon":130.76288,"population":123205},{"id":1848445,"name":"Honmachi","nameKo":"야쓰시로 시","ascii":"Honmachi","lat":32.50439,"lon":130.59952,"population":123067},{"id":1855425,"name":"Niihama","nameKo":"니이하마 시","ascii":"Niihama","lat":33.96047,"lon":133.30522,"population":123059},{"id":1864750,"name":"Beppu","nameKo":"벳푸 시","ascii":"Beppu","lat":33.27945,"lon":131.49751,"population":122643},{"id":1859913,"name":"Kashiwara","ascii":"Kashiwara","lat":34.45,"lon":135.76667,"population":120922},{"id":1861749,"name":"Ikoma","nameKo":"이코마 시","ascii":"Ikoma","lat":34.68333,"lon":135.7,"population":120741},{"id":1855095,"name":"Nobeoka","nameKo":"노베오카 시","ascii":"Nobeoka","lat":32.58333,"lon":131.66667,"population":119521},{"id":1864416,"name":"Daitō","ascii":"Daito","lat":34.71378,"lon":135.62033,"population":119367},{"id":2129537,"name":"Kitami","nameKo":"기타미 시","ascii":"Kitami","lat":43.80306,"lon":143.89083,"population":119135},{"id":6822148,"name":"Aizu-Wakamatsu","ascii":"Aizu-Wakamatsu","lat":37.49142,"lon":139.94546,"population":118159},{"id":1860728,"name":"Kakegawa","nameKo":"가케가와 시","ascii":"Kakegawa","lat":34.76667,"lon":138.01667,"population":117925},{"id":1863209,"name":"Handa","nameKo":"한다 시","ascii":"Handa","lat":34.88333,"lon":136.93333,"population":117884},{"id":1852964,"name":"Sano","nameKo":"사노 시","ascii":"Sano","lat":36.31667,"lon":139.58333,"population":117669},{"id":1860063,"name":"Karatsu","nameKo":"가라쓰 시","ascii":"Karatsu","lat":33.4425,"lon":129.96972,"population":117663},{"id":11611628,"name":"Higashikurume","ascii":"Higashikurume","lat":35.75202,"lon":139.51169,"population":117020},{"id":1862302,"name":"Hōfu","ascii":"Hofu","lat":34.05,"lon":131.56667,"population":116925},{"id":1858794,"name":"Kōnosu","ascii":"Konosu","lat":36.06868,"lon":139.51684,"population":116828},{"id":6822174,"name":"Nasushiobara","nameKo":"나스시오바라 시","ascii":"Nasushiobara","lat":36.97682,"lon":140.06642,"population":115794},{"id":6822152,"name":"Urasoe","ascii":"Urasoe","lat":26.25902,"lon":127.73012,"population":115690},{"id":2128574,"name":"Otaru","nameKo":"오타루 시","ascii":"Otaru","lat":43.18944,"lon":141.00222,"population":115333},{"id":2112656,"name":"Ichinoseki","nameKo":"이치노세키 시","ascii":"Ichinoseki","lat":38.91667,"lon":141.13333,"population":114476},{"id":1863018,"name":"Hatsukaichi","nameKo":"하쓰카이치 시","ascii":"Hatsukaichi","lat":34.35,"lon":132.33333,"population":114173},{"id":6822132,"name":"Akishima","nameKo":"아키시마 시","ascii":"Akishima","lat":35.72085,"lon":139.37999,"population":113949},{"id":11612537,"name":"Tōkai","ascii":"Tokai","lat":35.02269,"lon":136.90887,"population":113787},{"id":1862636,"name":"Hikone","ascii":"Hikone","lat":35.25,"lon":136.25,"population":113647},{"id":1856243,"name":"Nagahama","ascii":"Nagahama","lat":35.38333,"lon":136.26667,"population":113636},{"id":6822159,"name":"Fujimino","ascii":"Fujimino","lat":35.90196,"lon":139.52489,"population":113597},{"id":6822184,"name":"Ōshū","nameKo":"오슈 시","ascii":"Oshu","lat":39.13927,"lon":141.1685,"population":112937},{"id":1848382,"name":"Youkaichi","ascii":"Youkaichi","lat":35.11626,"lon":136.19768,"population":112819},{"id":1859586,"name":"Kazo","nameKo":"가조 시","ascii":"Kazo","lat":36.11667,"lon":139.6,"population":112792},{"id":6822147,"name":"Kasuga","nameKo":"가스가 시","ascii":"Kasuga","lat":33.52594,"lon":130.4611,"population":111023},{"id":1857470,"name":"Matsutō","ascii":"Matsuto","lat":36.51667,"lon":136.56667,"population":110408},{"id":11611942,"name":"Kamagaya","ascii":"Kamagaya","lat":35.76971,"lon":140.00238,"population":109932},{"id":1857665,"name":"Marugame","nameKo":"마루가메 시","ascii":"Marugame","lat":34.28333,"lon":133.78333,"population":109513},{"id":6825496,"name":"Habikino","nameKo":"하비키노 시","ascii":"Habikino","lat":34.55276,"lon":135.59097,"population":109479},{"id":1859405,"name":"Kiryū","nameKo":"기류 시","ascii":"Kiryu","lat":36.4,"lon":139.33333,"population":108991},{"id":1861164,"name":"Iwatsuki","ascii":"Iwatsuki","lat":35.96474,"lon":139.69644,"population":108833},{"id":1858910,"name":"Komatsu","nameKo":"고마쓰 시","ascii":"Komatsu","lat":36.40263,"lon":136.45088,"population":108509},{"id":1856977,"name":"Mishima","nameKo":"미시마 시","ascii":"Mishima","lat":35.11667,"lon":138.91667,"population":107851},{"id":1851193,"name":"Tajimi","nameKo":"다지미 시","ascii":"Tajimi","lat":35.31667,"lon":137.13333,"population":107818},{"id":6822179,"name":"Inzai","nameKo":"인자이 시","ascii":"Inzai","lat":35.83479,"lon":140.16361,"population":105463},{"id":1861795,"name":"Ikeda","ascii":"Ikeda","lat":34.82208,"lon":135.4298,"population":104993},{"id":1926054,"name":"Saijō","nameKo":"사이조 시","ascii":"Saijo","lat":33.91667,"lon":133.18333,"population":104791},{"id":2110729,"name":"Toride","nameKo":"도리데 시","ascii":"Toride","lat":35.9,"lon":140.08333,"population":104524},{"id":1861449,"name":"Isehara","ascii":"Isehara","lat":35.39932,"lon":139.31019,"population":103401},{"id":1864572,"name":"Chikushino-shi","ascii":"Chikushino-shi","lat":33.49631,"lon":130.5156,"population":103311},{"id":1848254,"name":"Yono","ascii":"Yono","lat":35.88333,"lon":139.63333,"population":102364},{"id":1849519,"name":"Tsuyama","nameKo":"쓰야마 시","ascii":"Tsuyama","lat":35.05215,"lon":133.99885,"population":102294},{"id":6822216,"name":"Kani","nameKo":"가니 시","ascii":"Kani","lat":35.40435,"lon":137.05595,"population":102143},{"id":6822146,"name":"Ōnojō","nameKo":"오노조 시","ascii":"Onojo","lat":33.53567,"lon":130.47861,"population":102085},{"id":6825498,"name":"Kawachi-Nagano","ascii":"Kawachi-Nagano","lat":34.44108,"lon":135.58283,"population":101692},{"id":1861864,"name":"Iida","nameKo":"이다 시","ascii":"Iida","lat":35.51965,"lon":137.82074,"population":101536},{"id":1850152,"name":"Tokuyama","ascii":"Tokuyama","lat":34.05,"lon":131.81667,"population":101133},{"id":1860112,"name":"Kanoya","nameKo":"가노야 시","ascii":"Kanoya","lat":31.38333,"lon":130.85,"population":101096},{"id":6822097,"name":"Chikusei","nameKo":"지쿠세이 시","ascii":"Chikusei","lat":36.316,"lon":139.98238,"population":100753},{"id":1853209,"name":"Sakado","nameKo":"사카도 시","ascii":"Sakado","lat":35.95694,"lon":139.38889,"population":100275},{"id":1853140,"name":"Sakata","nameKo":"사카타 시","ascii":"Sakata","lat":38.91667,"lon":139.855,"population":100273},{"id":1861091,"name":"Izumisano","ascii":"Izumisano","lat":34.41667,"lon":135.31667,"population":100131},{"id":1863627,"name":"Ginowan","nameKo":"기노완 시","ascii":"Ginowan","lat":26.26265,"lon":127.76147,"population":100125},{"id":1853081,"name":"Saku","nameKo":"사쿠 시","ascii":"Saku","lat":36.21667,"lon":138.48333,"population":99131},{"id":11612341,"name":"Itoshima","ascii":"Itoshima","lat":33.54225,"lon":130.18421,"population":98877},{"id":1858836,"name":"Kōnan","ascii":"Konan","lat":35.33165,"lon":136.87042,"population":98255},{"id":2130452,"name":"Chitose","nameKo":"지토세 시","ascii":"Chitose","lat":42.81944,"lon":141.65222,"population":97950},{"id":1860635,"name":"Kameoka","nameKo":"가메오카 시","ascii":"Kameoka","lat":35,"lon":135.58333,"population":97181},{"id":11611614,"name":"Munakata","ascii":"Munakata","lat":33.7957,"lon":130.55895,"population":97095},{"id":1852607,"name":"Shibata","nameKo":"시바타 시","ascii":"Shibata","lat":37.95,"lon":139.33333,"population":96236},{"id":2129101,"name":"Muroran","nameKo":"무로란 시","ascii":"Muroran","lat":42.31722,"lon":140.98806,"population":96197},{"id":1852472,"name":"Shimada","nameKo":"시마다 시","ascii":"Shimada","lat":34.81667,"lon":138.18333,"population":95719},{"id":6822103,"name":"Kamisu","nameKo":"가미스 시","ascii":"Kamisu","lat":35.89685,"lon":140.66666,"population":95454},{"id":1854093,"name":"Ōmura","nameKo":"오무라 시","ascii":"Omura","lat":32.92139,"lon":129.95389,"population":95397},{"id":2110480,"name":"Yotsukaidō","ascii":"Yotsukaido","lat":35.65,"lon":140.16667,"population":95266},{"id":1860098,"name":"Kanuma","nameKo":"가누마 시","ascii":"Kanuma","lat":36.55,"lon":139.73333,"population":94903},{"id":2112823,"name":"Hanamaki","nameKo":"하나마키 시","ascii":"Hanamaki","lat":39.38333,"lon":141.11667,"population":94691},{"id":1852984,"name":"Sanjō","nameKo":"산조 시","ascii":"Sanjo","lat":37.61667,"lon":138.95,"population":94642},{"id":2110498,"name":"Yonezawa","nameKo":"요네자와 시","ascii":"Yonezawa","lat":37.91,"lon":140.11667,"population":94486},{"id":6822111,"name":"Azumino","ascii":"Azumino","lat":36.28815,"lon":137.88705,"population":94222},{"id":1864985,"name":"Ashiya","nameKo":"아시야 시","ascii":"Ashiya","lat":34.72807,"lon":135.30264,"population":93922},{"id":1848499,"name":"Yashio","ascii":"Yashio","lat":35.82255,"lon":139.83905,"population":93363},{"id":11612578,"name":"Inagi","ascii":"Inagi","lat":35.63295,"lon":139.49967,"population":93151},{"id":1854803,"name":"Ōbu","nameKo":"오부 시","ascii":"Obu","lat":35.01756,"lon":136.94947,"population":93123},{"id":2112227,"name":"Kitakami","nameKo":"기타카미 시","ascii":"Kitakami","lat":39.28333,"lon":141.11667,"population":93045},{"id":1860765,"name":"Kaizuka","ascii":"Kaizuka","lat":34.45,"lon":135.35,"population":92632},{"id":1857766,"name":"Maizuru","nameKo":"마이즈루 시","ascii":"Maizuru","lat":35.45,"lon":135.33333,"population":92465},{"id":1852736,"name":"Sendai","nameKo":"사쓰마센다이 시","ascii":"Sendai","lat":31.81667,"lon":130.3,"population":92403},{"id":11611626,"name":"Sakai","ascii":"Sakai","lat":36.1473,"lon":136.19408,"population":92210},{"id":6822209,"name":"Nisshin","nameKo":"닛신 시","ascii":"Nisshin","lat":35.13676,"lon":137.05238,"population":91795},{"id":6822162,"name":"Higashi-Matsuyama","ascii":"Higashi-Matsuyama","lat":36.03333,"lon":139.41667,"population":91791},{"id":6822199,"name":"Daisen","nameKo":"다이센 시","ascii":"Daisen","lat":39.44116,"lon":140.48961,"population":91143},{"id":6822125,"name":"Imizu","ascii":"Imizu","lat":36.76835,"lon":137.12572,"population":90742},{"id":1857334,"name":"Mihara","nameKo":"미하라 시","ascii":"Mihara","lat":34.4,"lon":133.08333,"population":90573},{"id":6822117,"name":"Kōka","nameKo":"고카 시","ascii":"Koka","lat":34.9802,"lon":136.15752,"population":89619},{"id":11468270,"name":"Iga","ascii":"Iga","lat":34.75797,"lon":136.13468,"population":88895},{"id":1850892,"name":"Takayama","nameKo":"다카야마 시","ascii":"Takayama","lat":36.13333,"lon":137.25,"population":88473},{"id":1863945,"name":"Fukuroi","nameKo":"후쿠로이 시","ascii":"Fukuroi","lat":34.75,"lon":137.91667,"population":88395},{"id":2111855,"name":"Mobara","nameKo":"모바라 시","ascii":"Mobara","lat":35.42583,"lon":140.29608,"population":88330},{"id":11611486,"name":"Takasago","ascii":"Takasago","lat":34.76298,"lon":134.79229,"population":87722},{"id":1852643,"name":"Settsu","ascii":"Settsu","lat":34.77819,"lon":135.59512,"population":87456},{"id":1863528,"name":"Gotemba","ascii":"Gotemba","lat":35.31859,"lon":138.94343,"population":86614},{"id":1863293,"name":"Hamakita","ascii":"Hamakita","lat":34.8,"lon":137.78333,"population":86502},{"id":6822208,"name":"Kitanagoya","ascii":"Kitanagoya","lat":35.24702,"lon":136.87832,"population":86385},{"id":1863482,"name":"Gyōda","nameKo":"교다 시","ascii":"Gyoda","lat":36.14074,"lon":139.46011,"population":86343},{"id":1859908,"name":"Kashiwazaki","nameKo":"가시와자키 시","ascii":"Kashiwazaki","lat":37.36667,"lon":138.55,"population":86183},{"id":11611659,"name":"Ama","ascii":"Ama","lat":35.18307,"lon":136.7997,"population":86126},{"id":2111258,"name":"Ryūgasaki","nameKo":"류가사키 시","ascii":"Ryugasaki","lat":35.9,"lon":140.18333,"population":85761},{"id":2110506,"name":"Yokote","ascii":"Yokote","lat":39.31691,"lon":140.55034,"population":85555},{"id":1856569,"name":"Moriyama","ascii":"Moriyama","lat":35.06667,"lon":135.98333,"population":85485},{"id":1852775,"name":"Sekimachi","ascii":"Sekimachi","lat":35.48333,"lon":136.91667,"population":85283},{"id":2129870,"name":"Iwamizawa","nameKo":"이와미자와 시","ascii":"Iwamizawa","lat":43.20028,"lon":141.75972,"population":85107},{"id":11612580,"name":"Komae","ascii":"Komae","lat":35.63424,"lon":139.57546,"population":84772},{"id":1855757,"name":"Nakatsu","nameKo":"나카쓰 시","ascii":"Nakatsu","lat":33.59811,"lon":131.1883,"population":84701},{"id":2110629,"name":"Ushiku","nameKo":"우시쿠 시","ascii":"Ushiku","lat":35.96667,"lon":140.13333,"population":84651},{"id":6822211,"name":"Chita","nameKo":"지타 시","ascii":"Chita","lat":35.00267,"lon":136.8642,"population":84364},{"id":1907300,"name":"Wako","ascii":"Wako","lat":35.78944,"lon":139.62333,"population":83989},{"id":11611642,"name":"Ayase","ascii":"Ayase","lat":35.43515,"lon":139.4256,"population":83913},{"id":6822136,"name":"Higashiyamato","nameKo":"히가시야마토 시","ascii":"Higashiyamato","lat":35.76298,"lon":139.44575,"population":83901},{"id":11611477,"name":"Yamatokōriyama","ascii":"Yamatokoriyama","lat":34.60658,"lon":135.77033,"population":83285},{"id":6698269,"name":"Owariasahi","ascii":"Owariasahi","lat":35.208,"lon":137.03,"population":83144},{"id":7424125,"name":"Amakusa","ascii":"Amakusa","lat":32.45861,"lon":130.19306,"population":83082},{"id":11612457,"name":"Echizen","ascii":"Echizen","lat":35.88571,"lon":136.17073,"population":83078},{"id":1907307,"name":"Kimitsu","nameKo":"기미쓰 시","ascii":"Kimitsu","lat":35.35043,"lon":139.87029,"population":83058},{"id":8125829,"name":"Kamigyō-ku","ascii":"Kamigyo-ku","lat":35.02954,"lon":135.75666,"population":83000},{"id":11612345,"name":"Shikokuchūō","ascii":"Shikokuchuo","lat":33.9754,"lon":133.54895,"population":82754},{"id":1863451,"name":"Ōmihachiman","nameKo":"오미하치만 시","ascii":"Omihachiman","lat":35.12861,"lon":136.0976,"population":82233},{"id":1850693,"name":"Tanashichō","ascii":"Tanashicho","lat":35.72922,"lon":139.53813,"population":82112},{"id":11612343,"name":"Akiruno","ascii":"Akiruno","lat":35.72854,"lon":139.2318,"population":81912},{"id":1850559,"name":"Tatebayashi","nameKo":"다테바야시 시","ascii":"Tatebayashi","lat":36.25,"lon":139.53333,"population":81274},{"id":1858681,"name":"Kōtari","ascii":"Kotari","lat":34.92097,"lon":135.70547,"population":80608},{"id":1863183,"name":"Hannō","nameKo":"한노 시","ascii":"Hanno","lat":35.85194,"lon":139.31806,"population":80361},{"id":1863693,"name":"Gamagōri","nameKo":"가마고리 시","ascii":"Gamagori","lat":34.83333,"lon":137.23333,"population":80063},{"id":1859952,"name":"Kashihara","ascii":"Kashihara","lat":34.58333,"lon":135.61667,"population":79058},{"id":1855753,"name":"Nakatsugawa","nameKo":"나카쓰가와 시","ascii":"Nakatsugawa","lat":35.48333,"lon":137.5,"population":78930},{"id":2111836,"name":"Mooka","nameKo":"모카 시","ascii":"Mooka","lat":36.43333,"lon":140.01667,"population":78720},{"id":2111669,"name":"Natori-shi","ascii":"Natori-shi","lat":38.16667,"lon":140.88333,"population":78718},{"id":1862198,"name":"Honjō","nameKo":"혼조 시","ascii":"Honjo","lat":36.2378,"lon":139.19023,"population":78569},{"id":1849831,"name":"Toyooka","nameKo":"도요오카 시","ascii":"Toyooka","lat":35.54008,"lon":134.82038,"population":78348},{"id":6822120,"name":"Kashiba","nameKo":"가시바 시","ascii":"Kashiba","lat":34.53472,"lon":135.70925,"population":78113},{"id":11611622,"name":"Kizugawa","ascii":"Kizugawa","lat":34.73668,"lon":135.83994,"population":77907},{"id":11611941,"name":"Tome","ascii":"Tome","lat":38.70882,"lon":141.15578,"population":77897},{"id":1855395,"name":"Nikkō","nameKo":"닛코 시","ascii":"Nikko","lat":36.75,"lon":139.61667,"population":77661},{"id":1849788,"name":"Tsubame","nameKo":"쓰바메 시","ascii":"Tsubame","lat":37.6645,"lon":138.92518,"population":77382},{"id":1864009,"name":"Fukuchiyama","nameKo":"후쿠치야마 시","ascii":"Fukuchiyama","lat":35.3,"lon":135.11667,"population":77306},{"id":11790367,"name":"Akihabara","ascii":"Akihabara","lat":35.69848,"lon":139.77253,"population":77200},{"id":11611617,"name":"Kunitachi","ascii":"Kunitachi","lat":35.6833,"lon":139.43848,"population":77130},{"id":1856293,"name":"Nabari","ascii":"Nabari","lat":34.61667,"lon":136.08333,"population":77022},{"id":1849561,"name":"Tsurusaki","ascii":"Tsurusaki","lat":33.24528,"lon":131.69165,"population":76968},{"id":1852502,"name":"Shiki","ascii":"Shiki","lat":35.83333,"lon":139.58333,"population":76445},{"id":11611646,"name":"Aira","ascii":"Aira","lat":31.77429,"lon":130.59208,"population":76348},{"id":2112899,"name":"Furukawa","ascii":"Furukawa","lat":38.57167,"lon":140.95556,"population":76312},{"id":11611938,"name":"Kiyose","ascii":"Kiyose","lat":35.77952,"lon":139.53014,"population":76208},{"id":1852595,"name":"Shibukawa","nameKo":"시부카와 시","ascii":"Shibukawa","lat":36.48333,"lon":139,"population":76098},{"id":6822202,"name":"Yurihonjō","nameKo":"유리혼조 시","ascii":"Yurihonjo","lat":39.3895,"lon":140.05813,"population":76077},{"id":1850872,"name":"Takefu","ascii":"Takefu","lat":35.90393,"lon":136.16687,"population":75753},{"id":11612339,"name":"Warabi","ascii":"Warabi","lat":35.82188,"lon":139.68545,"population":75614},{"id":1857276,"name":"Miki","nameKo":"미키 시","ascii":"Miki","lat":34.8,"lon":134.98333,"population":75450},{"id":11612336,"name":"Kai","ascii":"Kai","lat":35.68463,"lon":138.50979,"population":75313},{"id":1854371,"name":"Okegawa","ascii":"Okegawa","lat":36,"lon":139.55722,"population":75062},{"id":11611624,"name":"Katano","ascii":"Katano","lat":34.79329,"lon":135.68596,"population":75033},{"id":2110959,"name":"Sukagawa","ascii":"Sukagawa","lat":37.28333,"lon":140.38333,"population":74992},{"id":8573477,"name":"Yotsuya","ascii":"Yotsuya","lat":35.68972,"lon":139.71641,"population":74800},{"id":11611939,"name":"Jōyō","ascii":"Joyo","lat":34.84396,"lon":135.80561,"population":74607},{"id":2112319,"name":"Katori-shi","ascii":"Katori-shi","lat":35.89767,"lon":140.49943,"population":74469},{"id":1861095,"name":"Izumiōtsu","ascii":"Izumiotsu","lat":34.5,"lon":135.4,"population":74412},{"id":11612326,"name":"Tatsuno","ascii":"Tatsuno","lat":34.83184,"lon":134.54338,"population":74316},{"id":1849904,"name":"Tosu","nameKo":"도스 시","ascii":"Tosu","lat":33.36667,"lon":130.51667,"population":74196},{"id":1861528,"name":"Inuyama","nameKo":"이누야마 시","ascii":"Inuyama","lat":35.37995,"lon":136.94295,"population":73995},{"id":11612555,"name":"Kyōtanabe","ascii":"Kyotanabe","lat":34.8045,"lon":135.76681,"population":73753},{"id":2112343,"name":"Kasama","nameKo":"가사마 시","ascii":"Kasama","lat":36.38333,"lon":140.26667,"population":73664},{"id":1848188,"name":"Yoshikawa","ascii":"Yoshikawa","lat":35.89232,"lon":139.84184,"population":73262},{"id":7422816,"name":"Dazaifu","nameKo":"다자이후 시","ascii":"Dazaifu","lat":33.51278,"lon":130.52389,"population":73164},{"id":2112571,"name":"Ishioka","nameKo":"이시오카 시","ascii":"Ishioka","lat":36.18333,"lon":140.26667,"population":73061},{"id":1862912,"name":"Hekinan","nameKo":"헤키난 시","ascii":"Hekinan","lat":34.88333,"lon":136.98333,"population":72458},{"id":1864549,"name":"Chiryū","nameKo":"지류 시","ascii":"Chiryu","lat":35,"lon":137.03333,"population":72193},{"id":2111325,"name":"Ōtawara","nameKo":"오타와라 시","ascii":"Otawara","lat":36.86667,"lon":140.03333,"population":72087},{"id":1848439,"name":"Yawata","nameKo":"야와타 시","ascii":"Yawata","lat":34.87009,"lon":135.7027,"population":71656},{"id":11205269,"name":"Minami-Alps","ascii":"Minami-Alps","lat":35.616,"lon":138.46344,"population":71618},{"id":1848087,"name":"Yukuhashi","nameKo":"유쿠하시 시","ascii":"Yukuhashi","lat":33.72873,"lon":130.983,"population":71426},{"id":1850396,"name":"Tenri","nameKo":"덴리 시","ascii":"Tenri","lat":34.58333,"lon":135.83333,"population":71052},{"id":1850708,"name":"Tanabe","nameKo":"다나베 시","ascii":"Tanabe","lat":33.73333,"lon":135.36667,"population":70972},{"id":6822130,"name":"Musashimurayama","nameKo":"무사시무라야마 시","ascii":"Musashimurayama","lat":35.74242,"lon":139.42635,"population":70829},{"id":1926020,"name":"Uwajima","nameKo":"우와지마 시","ascii":"Uwajima","lat":33.22375,"lon":132.56001,"population":70809},{"id":1857844,"name":"Maebaru-chūō","ascii":"Maebaru-chuo","lat":33.55916,"lon":130.20148,"population":70339},{"id":11127679,"name":"Eniwa","ascii":"Eniwa","lat":42.89357,"lon":141.576,"population":70331},{"id":6822115,"name":"Rittō","ascii":"Ritto","lat":35.02745,"lon":135.99971,"population":70312},{"id":1865309,"name":"Anan","nameKo":"아난 시","ascii":"Anan","lat":33.91667,"lon":134.65,"population":70285},{"id":6822165,"name":"Tsurugashima","ascii":"Tsurugashima","lat":35.95996,"lon":139.40283,"population":70117},{"id":1848305,"name":"Yokota","ascii":"Yokota","lat":35.75,"lon":139.38333,"population":69550},{"id":11612588,"name":"Fuefuki","ascii":"Fuefuki","lat":35.63526,"lon":138.63853,"population":69463},{"id":13156739,"name":"Minamiarupusu","ascii":"Minamiarupusu","lat":35.60855,"lon":138.46473,"population":69459},{"id":6822210,"name":"Toyoake","ascii":"Toyoake","lat":35.038,"lon":136.99931,"population":69295},{"id":2128787,"name":"Ōdate","nameKo":"오다테 시","ascii":"Odate","lat":40.27178,"lon":140.55756,"population":69237},{"id":1851606,"name":"Sōja","ascii":"Soja","lat":34.67534,"lon":133.75091,"population":69030},{"id":2111831,"name":"Moriya","nameKo":"모리야 시","ascii":"Moriya","lat":35.93333,"lon":140,"population":68777},{"id":1861290,"name":"Itō","nameKo":"이토 시","ascii":"Ito","lat":34.96667,"lon":139.08333,"population":68773},{"id":2110579,"name":"Yachimata","nameKo":"야치마타 시","ascii":"Yachimata","lat":35.65,"lon":140.31667,"population":68769},{"id":1863620,"name":"Gion","ascii":"Gion","lat":34.43333,"lon":132.46667,"population":68713},{"id":1849592,"name":"Tsuruga","nameKo":"쓰루가 시","ascii":"Tsuruga","lat":35.653,"lon":136.06331,"population":68482},{"id":1853338,"name":"Sabae","ascii":"Sabae","lat":35.94647,"lon":136.18498,"population":68302},{"id":1861641,"name":"Ina","nameKo":"이나 시","ascii":"Ina","lat":35.82756,"lon":137.95378,"population":68177},{"id":6822214,"name":"Hashima","nameKo":"하시마 시","ascii":"Hashima","lat":35.329,"lon":136.68051,"population":67909},{"id":6822141,"name":"Kaga","ascii":"Kaga","lat":36.3,"lon":136.33333,"population":67793},{"id":1850742,"name":"Tamano","nameKo":"다마노 시","ascii":"Tamano","lat":34.51745,"lon":133.94574,"population":67786},{"id":1849539,"name":"Tsushima","ascii":"Tsushima","lat":35.16667,"lon":136.71667,"population":67658},{"id":1859210,"name":"Kiyosu","nameKo":"기요스 시","ascii":"Kiyosu","lat":35.21667,"lon":136.83333,"population":67352},{"id":1852003,"name":"Shiojiri","nameKo":"시오지리 시","ascii":"Shiojiri","lat":36.1,"lon":137.96667,"population":67241},{"id":11612700,"name":"Fukutsu","ascii":"Fukutsu","lat":33.783,"lon":130.49114,"population":67033},{"id":1860748,"name":"Kashima-shi","ascii":"Kashima-shi","lat":35.96536,"lon":140.64474,"population":66950},{"id":1853237,"name":"Saiki","nameKo":"사이키 시","ascii":"Saiki","lat":32.95,"lon":131.9,"population":66851},{"id":11749713,"name":"Chiyoda","ascii":"Chiyoda","lat":35.68449,"lon":139.75056,"population":66680},{"id":6822190,"name":"Kurihara","ascii":"Kurihara","lat":38.75,"lon":141,"population":66565},{"id":2110774,"name":"Tōgane","nameKo":"도가네 시","ascii":"Togane","lat":35.55,"lon":140.36667,"population":66332},{"id":6822164,"name":"Kitamoto","ascii":"Kitamoto","lat":36.03322,"lon":139.53775,"population":66022},{"id":1855410,"name":"Niitsu-honchō","ascii":"Niitsu-honcho","lat":37.80024,"lon":139.1224,"population":65910},{"id":1850707,"name":"Tanabe","ascii":"Tanabe","lat":34.82242,"lon":135.76604,"population":65903},{"id":11611615,"name":"Mitoyo","ascii":"Mitoyo","lat":34.21052,"lon":133.6746,"population":65713},{"id":2110793,"name":"Tendō","ascii":"Tendo","lat":38.35361,"lon":140.36972,"population":65393},{"id":1863495,"name":"Gushikawa","ascii":"Gushikawa","lat":26.35937,"lon":127.86735,"population":65251},{"id":11612456,"name":"Sodegaura","ascii":"Sodegaura","lat":35.41368,"lon":140.02135,"population":64901},{"id":1862373,"name":"Hita","nameKo":"히타 시","ascii":"Hita","lat":33.3213,"lon":130.94098,"population":64874},{"id":2113077,"name":"Asahi","nameKo":"아사히 시","ascii":"Asahi","lat":35.71667,"lon":140.65,"population":64690},{"id":1850108,"name":"Tomigusuku","ascii":"Tomigusuku","lat":26.18583,"lon":127.68192,"population":64612},{"id":1864099,"name":"Fujioka","nameKo":"후지오카 시","ascii":"Fujioka","lat":36.24624,"lon":139.07204,"population":64539},{"id":1848573,"name":"Yanagawa","nameKo":"야나가와 시","ascii":"Yanagawa","lat":33.16667,"lon":130.4,"population":64475},{"id":1861699,"name":"Imaichi","ascii":"Imaichi","lat":36.71667,"lon":139.68333,"population":64323},{"id":1850745,"name":"Tamana","nameKo":"다마나 시","ascii":"Tamana","lat":32.94716,"lon":130.57446,"population":64292},{"id":1855580,"name":"Narutochō-mitsuishi","ascii":"Narutocho-mitsuishi","lat":34.19933,"lon":134.60932,"population":64082},{"id":6825495,"name":"Fujiidera","ascii":"Fujiidera","lat":34.5676,"lon":135.5974,"population":63688},{"id":1852347,"name":"Shimodate","ascii":"Shimodate","lat":36.3,"lon":139.98333,"population":63666},{"id":1856068,"name":"Nago","nameKo":"나고 시","ascii":"Nago","lat":26.61502,"lon":127.98543,"population":63554},{"id":10963038,"name":"Ōjima","ascii":"Ojima","lat":35.68917,"lon":139.83282,"population":63254},{"id":2110927,"name":"Tagajō-shi","ascii":"Tagajo-shi","lat":38.3,"lon":141,"population":62827},{"id":2111018,"name":"Shiroi","nameKo":"시로이 시","ascii":"Shiroi","lat":35.8,"lon":140.06667,"population":62441},{"id":11612482,"name":"Tanba","ascii":"Tanba","lat":35.16034,"lon":135.03914,"population":62152},{"id":1865047,"name":"Asakusa","nameKo":"아사쿠사","ascii":"Asakusa","lat":35.71691,"lon":139.79575,"population":62092},{"id":11612340,"name":"Miyoshi","ascii":"Miyoshi","lat":35.08971,"lon":137.08998,"population":61952},{"id":11612553,"name":"Kōshi","ascii":"Koshi","lat":32.89271,"lon":130.77567,"population":61772},{"id":1848593,"name":"Yamato-Takada","ascii":"Yamato-Takada","lat":34.51667,"lon":135.75,"population":61744},{"id":1849414,"name":"Ueno-ebisumachi","ascii":"Ueno-ebisumachi","lat":34.75856,"lon":136.13108,"population":61598},{"id":1907123,"name":"Hasuda","ascii":"Hasuda","lat":35.97113,"lon":139.6491,"population":61540},{"id":13132799,"name":"Tamba","ascii":"Tamba","lat":35.17483,"lon":135.03101,"population":61471},{"id":2111859,"name":"Mizusawa","ascii":"Mizusawa","lat":39.13333,"lon":141.13333,"population":61281},{"id":2112077,"name":"Kuroiso","ascii":"Kuroiso","lat":36.96667,"lon":140.05,"population":61230},{"id":1864637,"name":"Chichibu","nameKo":"지치부 시","ascii":"Chichibu","lat":35.99028,"lon":139.07639,"population":61159},{"id":2112263,"name":"Kesennuma","nameKo":"게센누마 시","ascii":"Kesennuma","lat":38.90112,"lon":141.57746,"population":61147},{"id":1863082,"name":"Hashimoto","nameKo":"하시모토 시","ascii":"Hashimoto","lat":34.31667,"lon":135.61667,"population":61063},{"id":1861280,"name":"Itoman","ascii":"Itoman","lat":26.12647,"lon":127.66918,"population":61007},{"id":6822154,"name":"Jōsō","ascii":"Joso","lat":36.03553,"lon":139.96143,"population":60834},{"id":6822212,"name":"Aisai","nameKo":"아이사이 시","ascii":"Aisai","lat":35.16349,"lon":136.73222,"population":60829},{"id":6822207,"name":"Towada","nameKo":"도와다 시","ascii":"Towada","lat":40.62049,"lon":141.21067,"population":60697},{"id":11611476,"name":"Yame","ascii":"Yame","lat":33.22792,"lon":130.64873,"population":60608},{"id":6822171,"name":"Kinokawa","nameKo":"기노카와 시","ascii":"Kinokawa","lat":34.26973,"lon":135.41045,"population":60592},{"id":1851125,"name":"Takaishi","ascii":"Takaishi","lat":34.51667,"lon":135.43333,"population":60511},{"id":11612582,"name":"Sanyōonoda","ascii":"Sanyoonoda","lat":34.03246,"lon":131.16028,"population":60326},{"id":6822175,"name":"Shimotsuke","nameKo":"시모쓰케 시","ascii":"Shimotsuke","lat":36.41323,"lon":139.86622,"population":60274},{"id":1851259,"name":"Tahara","nameKo":"다하라 시","ascii":"Tahara","lat":34.66799,"lon":137.26736,"population":60206},{"id":11611613,"name":"Nagakute","ascii":"Nagakute","lat":35.17325,"lon":137.05667,"population":60162},{"id":6825500,"name":"Sennan","ascii":"Sennan","lat":34.34835,"lon":135.26842,"population":60102},{"id":1847968,"name":"Zushi","ascii":"Zushi","lat":35.29483,"lon":139.57812,"population":60055},{"id":11611625,"name":"Hyūga","ascii":"Hyuga","lat":32.42272,"lon":131.64093,"population":60037},{"id":11612554,"name":"Uki","ascii":"Uki","lat":32.62217,"lon":130.66177,"population":59928},{"id":6822194,"name":"Kosai","ascii":"Kosai","lat":34.70053,"lon":137.52253,"population":59770},{"id":2112980,"name":"Date","ascii":"Date","lat":37.81667,"lon":140.5,"population":59625},{"id":11612472,"name":"Shirakawa","ascii":"Shirakawa","lat":37.11954,"lon":140.26211,"population":59491},{"id":6822112,"name":"Chikuma","nameKo":"지쿠마 시","ascii":"Chikuma","lat":36.52715,"lon":138.08943,"population":59381},{"id":11611610,"name":"Ogōri","ascii":"Ogori","lat":33.38738,"lon":130.54865,"population":59360},{"id":6822149,"name":"Minami-Sōma","ascii":"Minami-Soma","lat":37.62908,"lon":140.97868,"population":59005},{"id":2130054,"name":"Kitahiroshima","nameKo":"기타히로시마 시","ascii":"Kitahiroshima","lat":42.97583,"lon":141.56722,"population":58918},{"id":1859094,"name":"Koga","ascii":"Koga","lat":33.73333,"lon":130.46667,"population":58786},{"id":2129909,"name":"Ishikari","nameKo":"이시카리 시","ascii":"Ishikari","lat":43.23972,"lon":141.35389,"population":58755},{"id":1850185,"name":"Tokoname","nameKo":"도코나메 시","ascii":"Tokoname","lat":34.88333,"lon":136.85,"population":58710},{"id":1863173,"name":"Hanyū","nameKo":"하뉴 시","ascii":"Hanyu","lat":36.16667,"lon":139.53333,"population":58686},{"id":1850207,"name":"Toki","nameKo":"도키 시","ascii":"Toki","lat":35.35,"lon":137.18333,"population":58567},{"id":6825499,"name":"Sayama","ascii":"Sayama","lat":34.51685,"lon":135.56298,"population":58435},{"id":2112996,"name":"Choshi","nameKo":"조시 시","ascii":"Choshi","lat":35.73333,"lon":140.83333,"population":58431},{"id":1853066,"name":"Sakurai","nameKo":"사쿠라이 시","ascii":"Sakurai","lat":34.5,"lon":135.85,"population":58386},{"id":1856434,"name":"Murakami","nameKo":"무라카미 시","ascii":"Murakami","lat":38.23333,"lon":139.48333,"population":58300},{"id":1861677,"name":"Imarichō-kō","ascii":"Imaricho-ko","lat":33.27362,"lon":129.87877,"population":57940},{"id":1858972,"name":"Kokubu-matsuki","ascii":"Kokubu-matsuki","lat":31.73333,"lon":130.76667,"population":57896},{"id":1860122,"name":"Kan’onjichō","ascii":"Kan'onjicho","lat":34.1276,"lon":133.64598,"population":57438},{"id":1854979,"name":"Nonoichi","ascii":"Nonoichi","lat":36.53333,"lon":136.61667,"population":57238},{"id":1863310,"name":"Hamada","nameKo":"하마다 시","ascii":"Hamada","lat":34.88333,"lon":132.08333,"population":57142},{"id":6822106,"name":"Bandō","ascii":"Bando","lat":36.06997,"lon":139.86705,"population":57128},{"id":1853190,"name":"Sakaidechō","ascii":"Sakaidecho","lat":34.32278,"lon":133.8356,"population":57090},{"id":1865290,"name":"Annaka","nameKo":"안나카 시","ascii":"Annaka","lat":36.33011,"lon":138.89585,"population":57013},{"id":6822217,"name":"Minokamo","nameKo":"미노카모 시","ascii":"Minokamo","lat":35.48199,"lon":137.02166,"population":56972},{"id":1856456,"name":"Mukō","ascii":"Muko","lat":34.96545,"lon":135.70415,"population":56859},{"id":1855066,"name":"Nōgata","ascii":"Nogata","lat":33.74051,"lon":130.72263,"population":56821},{"id":1907148,"name":"Fussa","nameKo":"훗사 시","ascii":"Fussa","lat":35.73667,"lon":139.32361,"population":56786},{"id":1864557,"name":"Chino","nameKo":"지노 시","ascii":"Chino","lat":35.9944,"lon":138.15428,"population":56400},{"id":11612473,"name":"Mizuho","ascii":"Mizuho","lat":35.3943,"lon":136.66898,"population":56388},{"id":2127878,"name":"Mutsu","nameKo":"무쓰 시","ascii":"Mutsu","lat":41.28944,"lon":141.21694,"population":56244},{"id":1858498,"name":"Kudamatsu","ascii":"Kudamatsu","lat":34.00964,"lon":131.86637,"population":55887},{"id":11611224,"name":"Takizawa","ascii":"Takizawa","lat":39.8028,"lon":141.13466,"population":55579},{"id":6825490,"name":"Minamiuonuma","ascii":"Minamiuonuma","lat":37.08259,"lon":138.87413,"population":55354},{"id":6822161,"name":"Hidaka","nameKo":"히다카 시","ascii":"Hidaka","lat":35.91664,"lon":139.36233,"population":55294},{"id":1852849,"name":"Satte","ascii":"Satte","lat":36.07254,"lon":139.72615,"population":55286},{"id":6825501,"name":"Shijōnawate","ascii":"Shijonawate","lat":34.73333,"lon":135.68333,"population":55177},{"id":6822158,"name":"Miyakojima","nameKo":"미야코지마 시","ascii":"Miyakojima","lat":24.79016,"lon":125.31109,"population":54908},{"id":11611629,"name":"Hamura","ascii":"Hamura","lat":35.76232,"lon":139.31952,"population":54622},{"id":11612571,"name":"Konan","ascii":"Konan","lat":34.99921,"lon":136.09674,"population":54607},{"id":1862612,"name":"Himimachi","ascii":"Himimachi","lat":36.85609,"lon":136.9885,"population":54510},{"id":1854384,"name":"Okaya","ascii":"Okaya","lat":36.05659,"lon":138.0451,"population":54286},{"id":1851357,"name":"Suzaka","ascii":"Suzaka","lat":36.65,"lon":138.31667,"population":54022},{"id":1861244,"name":"Iwade","ascii":"Iwade","lat":34.25,"lon":135.31667,"population":53967},{"id":1858286,"name":"Kurihama","ascii":"Kurihama","lat":35.22796,"lon":139.70212,"population":53782},{"id":11274040,"name":"Arao","ascii":"Arao","lat":32.97888,"lon":130.44572,"population":53675},{"id":1856698,"name":"Miyoshi","nameKo":"미요시 시","ascii":"Miyoshi","lat":34.8,"lon":132.85,"population":53616},{"id":2131612,"name":"Goshogawara","nameKo":"고쇼가와라 시","ascii":"Goshogawara","lat":40.80444,"lon":140.44139,"population":53576},{"id":2111656,"name":"Nihommatsu","ascii":"Nihommatsu","lat":37.58333,"lon":140.43333,"population":53557},{"id":2112624,"name":"Inada","ascii":"Inada","lat":36.43333,"lon":140.51667,"population":53502},{"id":1850217,"name":"Tōkamachi","ascii":"Tokamachi","lat":37.13333,"lon":138.76667,"population":53333},{"id":2111568,"name":"Ōami","ascii":"Oami","lat":35.51667,"lon":140.31667,"population":53239},{"id":2111749,"name":"Naka","ascii":"Naka","lat":36.05,"lon":140.16667,"population":53137},{"id":1863023,"name":"Hatogaya-honchō","ascii":"Hatogaya-honcho","lat":35.83314,"lon":139.7425,"population":53062},{"id":1848375,"name":"Yokkaichi","ascii":"Yokkaichi","lat":33.53537,"lon":131.32808,"population":52771},{"id":2111049,"name":"Shiogama","ascii":"Shiogama","lat":38.31667,"lon":141.03333,"population":52662},{"id":2110744,"name":"Tomiya","ascii":"Tomiya","lat":38.39306,"lon":140.88611,"population":52433},{"id":6825497,"name":"Hannan","ascii":"Hannan","lat":34.33333,"lon":135.25,"population":52350},{"id":1907125,"name":"Kamifukuoka","ascii":"Kamifukuoka","lat":35.87266,"lon":139.51369,"population":52323},{"id":2128867,"name":"Noshiro","nameKo":"노시로 시","ascii":"Noshiro","lat":40.20838,"lon":140.0274,"population":52283},{"id":1851883,"name":"Shiraoka","ascii":"Shiraoka","lat":36.01839,"lon":139.66034,"population":52214},{"id":1865412,"name":"Kariya","ascii":"Kariya","lat":34.75136,"lon":134.38734,"population":52015},{"id":1861108,"name":"Izumi","ascii":"Izumi","lat":32.08333,"lon":130.36667,"population":51994},{"id":1863713,"name":"Futtsu","nameKo":"훗쓰 시","ascii":"Futtsu","lat":35.3108,"lon":139.81877,"population":51650},{"id":1851273,"name":"Tagawa","nameKo":"다가와 시","ascii":"Tagawa","lat":33.63333,"lon":130.8,"population":51608},{"id":6825492,"name":"Sado","ascii":"Sado","lat":38.02496,"lon":138.35931,"population":51492},{"id":1907309,"name":"Miura","nameKo":"미우라 시","ascii":"Miura","lat":35.14,"lon":139.61917,"population":51483},{"id":1855476,"name":"Nichinan","nameKo":"니치난 시","ascii":"Nichinan","lat":31.6,"lon":131.36667,"population":51241},{"id":6822195,"name":"Susono","nameKo":"스소노 시","ascii":"Susono","lat":35.17388,"lon":138.90691,"population":51216},{"id":13132765,"name":"Fuchū","ascii":"Fuchu","lat":34.38793,"lon":132.51001,"population":51155},{"id":2111884,"name":"Miyako","nameKo":"미야코 시","ascii":"Miyako","lat":39.64691,"lon":141.94057,"population":51150},{"id":1896348,"name":"Hikari","nameKo":"히카리 시","ascii":"Hikari","lat":33.955,"lon":131.95,"population":51040},{"id":11612557,"name":"Kyōtango","ascii":"Kyotango","lat":35.60623,"lon":135.04429,"population":50860},{"id":1864155,"name":"Fuchūchō","ascii":"Fuchucho","lat":34.5735,"lon":133.23513,"population":50746},{"id":11611475,"name":"Yasu","ascii":"Yasu","lat":35.10053,"lon":136.01778,"population":50695},{"id":1848096,"name":"Yūki","nameKo":"유키 시","ascii":"Yuki","lat":36.3,"lon":139.88333,"population":50645},{"id":1854530,"name":"Ōi","ascii":"Oi","lat":35.85091,"lon":139.51998,"population":50593},{"id":1855670,"name":"Nanao","nameKo":"나나오 시","ascii":"Nanao","lat":37.04816,"lon":136.96795,"population":50300},{"id":11612701,"name":"Asakura","ascii":"Asakura","lat":33.41439,"lon":130.71877,"population":50273},{"id":6822155,"name":"Midori","nameKo":"미도리 시","ascii":"Midori","lat":36.44492,"lon":139.28448,"population":50266},{"id":1859990,"name":"Kasaoka","ascii":"Kasaoka","lat":34.50597,"lon":133.50391,"population":50160},{"id":9888360,"name":"Katanawa","ascii":"Katanawa","lat":33.52111,"lon":130.42444,"population":50112},{"id":1850523,"name":"Tateyama","nameKo":"다테야마 시","ascii":"Tateyama","lat":34.98333,"lon":139.86667,"population":50064},{"id":7303471,"name":"Arashiyama","ascii":"Arashiyama","lat":35.01481,"lon":135.67755,"population":50000},{"id":6822100,"name":"Tsukubamirai","nameKo":"쓰쿠바미라이 시","ascii":"Tsukubamirai","lat":35.98411,"lon":140.00929,"population":49872},{"id":1860626,"name":"Kameyama","ascii":"Kameyama","lat":34.85,"lon":136.45,"population":49835},{"id":2111268,"name":"Ryōgoku","ascii":"Ryogoku","lat":35.71667,"lon":140.36667,"population":49735},{"id":8572984,"name":"Takashimadaira","ascii":"Takashimadaira","lat":35.78611,"lon":139.66118,"population":49646},{"id":1854667,"name":"Ogawa","ascii":"Ogawa","lat":34.96667,"lon":136.96667,"population":49596},{"id":1859492,"name":"Kikuchi","nameKo":"기쿠치 시","ascii":"Kikuchi","lat":32.98333,"lon":130.81667,"population":49455},{"id":1848705,"name":"Yamaga","nameKo":"야마가 시","ascii":"Yamaga","lat":33.01667,"lon":130.68911,"population":49082},{"id":1851368,"name":"Suwa","nameKo":"스와 시","ascii":"Suwa","lat":36.03799,"lon":138.11308,"population":48972},{"id":6822101,"name":"Omitama","ascii":"Omitama","lat":36.25449,"lon":140.37962,"population":48870},{"id":11611638,"name":"Chikugo","ascii":"Chikugo","lat":33.20537,"lon":130.49183,"population":48827},{"id":10629856,"name":"Fujiyoshida","ascii":"Fujiyoshida","lat":35.44032,"lon":138.79586,"population":48782},{"id":6822220,"name":"Ena","nameKo":"에나 시","ascii":"Ena","lat":35.44722,"lon":137.38332,"population":48777},{"id":1851155,"name":"Takahama","ascii":"Takahama","lat":34.91667,"lon":136.98333,"population":48736},{"id":6822139,"name":"Tonami","ascii":"Tonami","lat":36.62047,"lon":136.94321,"population":48659},{"id":6822107,"name":"Hitachi-ota","ascii":"Hitachi-ota","lat":36.5513,"lon":140.52821,"population":48602},{"id":6822191,"name":"Izunokuni","ascii":"Izunokuni","lat":35.03907,"lon":138.95143,"population":48579},{"id":1858301,"name":"Kurayoshi","nameKo":"구라요시 시","ascii":"Kurayoshi","lat":35.43333,"lon":133.81667,"population":48558},{"id":2113115,"name":"Ami","ascii":"Ami","lat":36.03333,"lon":140.2,"population":48553},{"id":6822143,"name":"Nomimachi","ascii":"Nomimachi","lat":36.40969,"lon":136.48468,"population":48523},{"id":6822193,"name":"Kikugawa","ascii":"Kikugawa","lat":34.70291,"lon":138.11978,"population":48484},{"id":1863540,"name":"Gosen","ascii":"Gosen","lat":37.73333,"lon":139.16667,"population":48458},{"id":6822168,"name":"Sanmu","nameKo":"산무 시","ascii":"Sanmu","lat":35.62756,"lon":140.41762,"population":48444},{"id":1860785,"name":"Kainan","nameKo":"가이난 시","ascii":"Kainan","lat":34.15166,"lon":135.21398,"population":48369},{"id":1907242,"name":"Nihammatsu","ascii":"Nihammatsu","lat":35.37278,"lon":139.39167,"population":48348},{"id":10267209,"name":"Wakasugi","ascii":"Wakasugi","lat":33.60944,"lon":130.52625,"population":48190},{"id":11612455,"name":"Ōamishirasato","ascii":"Oamishirasato","lat":35.51183,"lon":140.35257,"population":48129},{"id":1861207,"name":"Iwakura","ascii":"Iwakura","lat":35.28333,"lon":136.86667,"population":48007},{"id":6822123,"name":"Nanto","nameKo":"난토 시","ascii":"Nanto","lat":36.51274,"lon":136.89352,"population":47976},{"id":6694821,"name":"Nanto-shi","ascii":"Nanto-shi","lat":36.56922,"lon":136.91162,"population":47976},{"id":1850834,"name":"Takeo","nameKo":"다케오 시","ascii":"Takeo","lat":33.19009,"lon":130.02084,"population":47914},{"id":1850091,"name":"Tomioka","nameKo":"도미오카 시","ascii":"Tomioka","lat":36.25411,"lon":138.89813,"population":47911},{"id":1852481,"name":"Shima","ascii":"Shima","lat":34.33333,"lon":136.83333,"population":47774},{"id":2112758,"name":"Higashine","nameKo":"히가시네 시","ascii":"Higashine","lat":38.43889,"lon":140.40056,"population":47682},{"id":1861416,"name":"Ishigaki","nameKo":"이시가키 시","ascii":"Ishigaki","lat":24.34478,"lon":124.15717,"population":47637},{"id":1854026,"name":"Ono","nameKo":"오노 시","ascii":"Ono","lat":34.85,"lon":134.93333,"population":47609},{"id":2111173,"name":"Sawara","ascii":"Sawara","lat":35.88333,"lon":140.5,"population":47199},{"id":1849306,"name":"Umeki","ascii":"Umeki","lat":31.66667,"lon":130.38333,"population":47153},{"id":1852561,"name":"Shido","ascii":"Shido","lat":34.32333,"lon":134.17333,"population":47003},{"id":6822108,"name":"Inashiki","nameKo":"이나시키 시","ascii":"Inashiki","lat":35.95633,"lon":140.32356,"population":46994},{"id":6822116,"name":"Takashima","nameKo":"다카시마 시","ascii":"Takashima","lat":35.41347,"lon":136.01612,"population":46976},{"id":1854905,"name":"Numata","nameKo":"누마타 시","ascii":"Numata","lat":36.63333,"lon":139.05,"population":46908},{"id":11524139,"name":"Hokuto","ascii":"Hokuto","lat":35.83458,"lon":138.39606,"population":46888},{"id":1855907,"name":"Nakama","nameKo":"나카마 시","ascii":"Nakama","lat":33.81688,"lon":130.70962,"population":46745},{"id":11612330,"name":"Nankoku","ascii":"Nankoku","lat":33.56943,"lon":133.64937,"population":46664},{"id":2128894,"name":"Noboribetsu","nameKo":"노보리베쓰 시","ascii":"Noboribetsu","lat":42.45215,"lon":141.17914,"population":46391},{"id":11809770,"name":"Shime","ascii":"Shime","lat":33.58699,"lon":130.48676,"population":46377},{"id":1858858,"name":"Komoro","nameKo":"고모로 시","ascii":"Komoro","lat":36.31667,"lon":138.43333,"population":46272},{"id":1859319,"name":"Kitakata","nameKo":"기타카타 시","ascii":"Kitakata","lat":37.65,"lon":139.86667,"population":46269},{"id":6862586,"name":"Hokuto","nameKo":"호쿠토 시","ascii":"Hokuto","lat":41.81626,"lon":140.63472,"population":46083},{"id":2112688,"name":"Hokota","nameKo":"호코타 시","ascii":"Hokota","lat":36.15,"lon":140.51667,"population":45953},{"id":1849237,"name":"Uozu","nameKo":"우오즈 시","ascii":"Uozu","lat":36.8,"lon":137.4,"population":45848},{"id":11612479,"name":"Minamiawaji","ascii":"Minamiawaji","lat":34.27396,"lon":134.77512,"population":45489},{"id":1854807,"name":"Obita","ascii":"Obita","lat":32.81667,"lon":129.88333,"population":45293},{"id":2127896,"name":"Takikawa","ascii":"Takikawa","lat":43.55278,"lon":141.90639,"population":45131},{"id":1857594,"name":"Masuda","nameKo":"마스다 시","ascii":"Masuda","lat":34.66667,"lon":131.85,"population":45003},{"id":6822173,"name":"Inabe","ascii":"Inabe","lat":35.11344,"lon":136.57205,"population":44973},{"id":8570265,"name":"Shinden","ascii":"Shinden","lat":35.99971,"lon":139.62486,"population":44841},{"id":11612337,"name":"Sakura","ascii":"Sakura","lat":36.72072,"lon":139.98779,"population":44712},{"id":1863418,"name":"Hagi","nameKo":"하기 시","ascii":"Hagi","lat":34.4,"lon":131.41667,"population":44626},{"id":1851504,"name":"Sugito","ascii":"Sugito","lat":36.03107,"lon":139.72636,"population":44402},{"id":1852046,"name":"Shinshiro","nameKo":"신시로 시","ascii":"Shinshiro","lat":34.9,"lon":137.5,"population":44355},{"id":2110460,"name":"Yuzawa","nameKo":"유자와 시","ascii":"Yuzawa","lat":39.16667,"lon":140.5,"population":44346},{"id":1854018,"name":"Onoda","ascii":"Onoda","lat":34.00139,"lon":131.18361,"population":44295},{"id":2128558,"name":"Otofuke","ascii":"Otofuke","lat":42.99167,"lon":143.20028,"population":44235},{"id":1859175,"name":"Kobayashi","ascii":"Kobayashi","lat":31.98333,"lon":130.98333,"population":44154},{"id":2112527,"name":"Iwanuma","ascii":"Iwanuma","lat":38.10472,"lon":140.85944,"population":44068},{"id":6822223,"name":"Nanjō","ascii":"Nanjo","lat":26.14447,"lon":127.76697,"population":44043},{"id":11611221,"name":"Himi","ascii":"Himi","lat":36.84666,"lon":136.98355,"population":43995},{"id":11611611,"name":"Ogi","ascii":"Ogi","lat":33.28028,"lon":130.19503,"population":43952},{"id":1856545,"name":"Morowa","ascii":"Morowa","lat":35.1,"lon":137.06667,"population":43903},{"id":1854255,"name":"Ōkubo-naka","ascii":"Okubo-naka","lat":34.4045,"lon":135.34087,"population":43763},{"id":11612564,"name":"Akaiwa","ascii":"Akaiwa","lat":34.80986,"lon":134.02153,"population":43742},{"id":2111248,"name":"Sagae","nameKo":"사가에 시","ascii":"Sagae","lat":38.3725,"lon":140.2725,"population":43544},{"id":1850818,"name":"Taketoyo","ascii":"Taketoyo","lat":34.85,"lon":136.91667,"population":43535},{"id":8659953,"name":"Maruobara","ascii":"Maruobara","lat":34.73925,"lon":138.14303,"population":43502},{"id":1852479,"name":"Shimabara","nameKo":"시마바라 시","ascii":"Shimabara","lat":32.78333,"lon":130.36667,"population":43338},{"id":11172649,"name":"Okino","ascii":"Okino","lat":32.87009,"lon":130.7917,"population":43337},{"id":10642464,"name":"Nakatogari","ascii":"Nakatogari","lat":35.13526,"lon":138.9028,"population":43336},{"id":11612633,"name":"Unnan","ascii":"Unnan","lat":35.2431,"lon":132.89989,"population":43269},{"id":1856878,"name":"Mitsuke","ascii":"Mitsuke","lat":37.53333,"lon":138.93333,"population":43180},{"id":1853354,"name":"Ryūō","ascii":"Ryuo","lat":35.65,"lon":138.5,"population":43180},{"id":1863978,"name":"Nishifukuma","ascii":"Nishifukuma","lat":33.76627,"lon":130.47461,"population":43154},{"id":2112444,"name":"Kamaishi","nameKo":"가마이시 시","ascii":"Kamaishi","lat":39.27694,"lon":141.86801,"population":43107},{"id":11611940,"name":"Yatomi","ascii":"Yatomi","lat":35.1053,"lon":136.73378,"population":43025},{"id":2129211,"name":"Misawa","nameKo":"미사와 시","ascii":"Misawa","lat":40.68682,"lon":141.38969,"population":42805},{"id":11612565,"name":"Maniwa","ascii":"Maniwa","lat":35.10643,"lon":133.72009,"population":42725},{"id":11612478,"name":"Kasai","ascii":"Kasai","lat":34.92633,"lon":134.84533,"population":42700},{"id":1855863,"name":"Nakano","ascii":"Nakano","lat":36.75,"lon":138.36667,"population":42664},{"id":11612338,"name":"Awaji","ascii":"Awaji","lat":34.47769,"lon":134.93065,"population":42597},{"id":1852163,"name":"Shimo-tsuma","ascii":"Shimo-tsuma","lat":36.18333,"lon":139.96667,"population":42521},{"id":1861223,"name":"Iwai","ascii":"Iwai","lat":36.05,"lon":139.9,"population":42497},{"id":13132741,"name":"Kōta","ascii":"Kota","lat":34.87482,"lon":137.17086,"population":42449},{"id":11612560,"name":"Minamishimabara","ascii":"Minamishimabara","lat":32.67334,"lon":130.26747,"population":42330},{"id":1865375,"name":"Amagi","ascii":"Amagi","lat":33.41804,"lon":130.65413,"population":42312},{"id":1851426,"name":"Sumoto","ascii":"Sumoto","lat":34.34322,"lon":134.88911,"population":42094},{"id":1860523,"name":"Kamikoizumi","ascii":"Kamikoizumi","lat":36.26426,"lon":139.42908,"population":42089},{"id":6822219,"name":"Gujō","nameKo":"구조 시","ascii":"Gujo","lat":35.73691,"lon":136.95852,"population":41858},{"id":2112232,"name":"Kitaibaraki","nameKo":"기타이바라키 시","ascii":"Kitaibaraki","lat":36.78671,"lon":140.74901,"population":41801},{"id":1862389,"name":"Hisai-motomachi","ascii":"Hisai-motomachi","lat":34.66667,"lon":136.46667,"population":41642},{"id":6822126,"name":"Kurobe-shi","ascii":"Kurobe-shi","lat":36.90123,"lon":137.44955,"population":41564},{"id":1858866,"name":"Komono","ascii":"Komono","lat":35,"lon":136.51667,"population":41542},{"id":1862034,"name":"Ibara","nameKo":"이바라 시","ascii":"Ibara","lat":34.6,"lon":133.46667,"population":41460},{"id":1851813,"name":"Shirone","ascii":"Shirone","lat":37.76354,"lon":139.02199,"population":41406},{"id":7303145,"name":"Amami","ascii":"Amami","lat":28.3769,"lon":129.49379,"population":41390},{"id":1855540,"name":"Naze","ascii":"Naze","lat":28.36667,"lon":129.48333,"population":41365},{"id":10860988,"name":"Yomitan","ascii":"Yomitan","lat":26.40167,"lon":127.74503,"population":41206},{"id":1856881,"name":"Mitsukaidō","ascii":"Mitsukaido","lat":36.01667,"lon":139.98333,"population":41147},{"id":2111065,"name":"Shinjō","ascii":"Shinjo","lat":38.75861,"lon":140.30083,"population":41140},{"id":11612562,"name":"Unzen","ascii":"Unzen","lat":32.77111,"lon":130.24841,"population":41096},{"id":6822114,"name":"Minamiashigara","nameKo":"미나미아시가라 시","ascii":"Minamiashigara","lat":35.31947,"lon":139.1096,"population":40841},{"id":1862230,"name":"Hondomachi-hondo","ascii":"Hondomachi-hondo","lat":32.45993,"lon":130.16713,"population":40787},{"id":1860176,"name":"Kannabechō-yahiro","ascii":"Kannabecho-yahiro","lat":34.55808,"lon":133.41796,"population":40766},{"id":1861285,"name":"Itoigawa","nameKo":"이토이가와 시","ascii":"Itoigawa","lat":37.03333,"lon":137.85,"population":40765},{"id":11837950,"name":"Agano","ascii":"Agano","lat":37.83605,"lon":139.22332,"population":40696},{"id":11611935,"name":"Katō","ascii":"Kato","lat":34.92422,"lon":135.02609,"population":40645},{"id":1926055,"name":"Ōzu","nameKo":"오즈 시","ascii":"Ozu","lat":33.5,"lon":132.55,"population":40575},{"id":1860214,"name":"Kanegusuku","ascii":"Kanegusuku","lat":26.19698,"lon":127.72591,"population":40440},{"id":1849815,"name":"Toyosu","ascii":"Toyosu","lat":35.65087,"lon":139.79163,"population":40424},{"id":10918027,"name":"Hirai","ascii":"Hirai","lat":35.70768,"lon":139.8425,"population":40373},{"id":6822098,"name":"Kasumigaura","nameKo":"가스미가우라 시","ascii":"Kasumigaura","lat":36.15326,"lon":140.24635,"population":40087},{"id":1852901,"name":"Sasayama","nameKo":"사사야마 시","ascii":"Sasayama","lat":35.06667,"lon":135.21667,"population":40050},{"id":1850499,"name":"Tatsunochō-tominaga","ascii":"Tatsunocho-tominaga","lat":34.86437,"lon":134.552,"population":40011},{"id":1907190,"name":"Minawa","ascii":"Minawa","lat":35.52278,"lon":139.31944,"population":39869},{"id":1849299,"name":"Umi","ascii":"Umi","lat":33.56826,"lon":130.51009,"population":39772},{"id":1856560,"name":"Morohongō","ascii":"Morohongo","lat":35.93556,"lon":139.30444,"population":39693},{"id":13132798,"name":"Tamba-Sasayama","ascii":"Tamba-Sasayama","lat":35.07318,"lon":135.21781,"population":39611},{"id":8576683,"name":"Aobadai","ascii":"Aobadai","lat":35.54651,"lon":139.51723,"population":39500},{"id":1863279,"name":"Hamanoichi","ascii":"Hamanoichi","lat":31.71667,"lon":130.73333,"population":39475},{"id":1857379,"name":"Mibu","nameKo":"미부 정","ascii":"Mibu","lat":36.41667,"lon":139.8,"population":39474},{"id":6822102,"name":"Hitachiomiya","ascii":"Hitachiomiya","lat":36.56447,"lon":140.40269,"population":39267},{"id":1854405,"name":"Ōkawa","ascii":"Okawa","lat":33.20566,"lon":130.37527,"population":39223},{"id":2112802,"name":"Hasaki","ascii":"Hasaki","lat":35.73333,"lon":140.83333,"population":39209},{"id":2112521,"name":"Iwase","ascii":"Iwase","lat":36.35,"lon":140.1,"population":39122},{"id":11611946,"name":"Bizen","ascii":"Bizen","lat":34.78674,"lon":134.23542,"population":39117},{"id":6822189,"name":"Higashimatsushima","ascii":"Higashimatsushima","lat":38.40886,"lon":141.17901,"population":39098},{"id":1859964,"name":"Kaseda-shirakame","ascii":"Kaseda-shirakame","lat":31.41667,"lon":130.31667,"population":39012},{"id":1862010,"name":"Ibusuki","nameKo":"이부스키 시","ascii":"Ibusuki","lat":31.23333,"lon":130.65,"population":39011},{"id":1857209,"name":"Minakuchichō-matoba","ascii":"Minakuchicho-matoba","lat":34.96667,"lon":136.16667,"population":38986},{"id":1848482,"name":"Yasugichō","ascii":"Yasugicho","lat":35.42146,"lon":133.24224,"population":38875},{"id":2111435,"name":"Ōmagari","ascii":"Omagari","lat":39.45,"lon":140.48333,"population":38805},{"id":11612576,"name":"Yoshinogawa","ascii":"Yoshinogawa","lat":34.03858,"lon":134.29207,"population":38772},{"id":1855134,"name":"Nishiwaki","ascii":"Nishiwaki","lat":34.98419,"lon":134.97407,"population":38673},{"id":2129395,"name":"Kuroishi","nameKo":"구로이시 시","ascii":"Kuroishi","lat":40.64581,"lon":140.58354,"population":38615},{"id":11012851,"name":"Miyoshidai","ascii":"Miyoshidai","lat":35.83318,"lon":139.54437,"population":38434},{"id":2111809,"name":"Murata","ascii":"Murata","lat":38.11858,"lon":140.72434,"population":38271},{"id":1857769,"name":"Maibara","nameKo":"마이바라 시","ascii":"Maibara","lat":35.31667,"lon":136.28333,"population":38259},{"id":2129766,"name":"Kamiiso","ascii":"Kamiiso","lat":41.82013,"lon":140.64482,"population":38098},{"id":1862352,"name":"Hitoyoshi","nameKo":"히토요시 시","ascii":"Hitoyoshi","lat":32.21667,"lon":130.75,"population":38006},{"id":11776897,"name":"Tokai","ascii":"Tokai","lat":36.47396,"lon":140.56355,"population":37891},{"id":1856667,"name":"Mizunami","nameKo":"미즈나미 시","ascii":"Mizunami","lat":35.36667,"lon":137.25,"population":37705},{"id":1849782,"name":"Tsubata","ascii":"Tsubata","lat":36.67012,"lon":136.7403,"population":37694},{"id":1860234,"name":"Kanda","ascii":"Kanda","lat":33.78333,"lon":130.98333,"population":37684},{"id":1926116,"name":"Kawanoechō","ascii":"Kawanoecho","lat":34.01654,"lon":133.57844,"population":37641},{"id":1849069,"name":"Uto","ascii":"Uto","lat":32.68333,"lon":130.66667,"population":37442},{"id":6822119,"name":"Katsuragi","nameKo":"가쓰라기 시","ascii":"Katsuragi","lat":34.48562,"lon":135.69698,"population":37352},{"id":1860191,"name":"Kanie","ascii":"Kanie","lat":35.13333,"lon":136.8,"population":37338},{"id":2110743,"name":"Tomobe","ascii":"Tomobe","lat":36.35,"lon":140.3,"population":37146},{"id":1860211,"name":"Kanekomachi","ascii":"Kanekomachi","lat":36.41097,"lon":138.99621,"population":37107},{"id":2130146,"name":"Hanawa","nameKo":"가즈노 시","ascii":"Hanawa","lat":40.18361,"lon":140.78722,"population":36925},{"id":10645302,"name":"Kamizawa","ascii":"Kamizawa","lat":35.10151,"lon":138.95398,"population":36794},{"id":8572218,"name":"Washinomiya","ascii":"Washinomiya","lat":36.09916,"lon":139.66041,"population":36544},{"id":1850746,"name":"Tamamura","ascii":"Tamamura","lat":36.3,"lon":139.11667,"population":36367},{"id":1853174,"name":"Sakaiminato","nameKo":"사카이미나토 시","ascii":"Sakaiminato","lat":35.53774,"lon":133.23094,"population":36324},{"id":1848776,"name":"Yaita","nameKo":"야이타 시","ascii":"Yaita","lat":36.8,"lon":139.93333,"population":36275},{"id":9634762,"name":"Sugai","ascii":"Sugai","lat":34.75484,"lon":135.79684,"population":36198},{"id":1849094,"name":"Usuki","nameKo":"우스키 시","ascii":"Usuki","lat":33.12342,"lon":131.80401,"population":36158},{"id":1858902,"name":"Komatsushimachō","ascii":"Komatsushimacho","lat":34,"lon":134.58333,"population":36149},{"id":11612566,"name":"Setouchi","ascii":"Setouchi","lat":34.65919,"lon":134.14238,"population":36048},{"id":2111277,"name":"Rifu","ascii":"Rifu","lat":38.33092,"lon":140.97691,"population":36014},{"id":1852385,"name":"Nishishinminato","ascii":"Nishishinminato","lat":36.77957,"lon":137.07576,"population":35994},{"id":11612459,"name":"Miyama","ascii":"Miyama","lat":33.12102,"lon":130.50007,"population":35861},{"id":11612454,"name":"Minamibōsō","ascii":"Minamiboso","lat":35.03126,"lon":139.92651,"population":35831},{"id":2130741,"name":"Abashiri","nameKo":"아바시리 시","ascii":"Abashiri","lat":44.02127,"lon":144.26971,"population":35759},{"id":6822167,"name":"Sōsa","nameKo":"소사 시","ascii":"Sosa","lat":35.71541,"lon":140.55309,"population":35674},{"id":11612481,"name":"Shisō","ascii":"Shiso","lat":34.98107,"lon":134.56398,"population":35639},{"id":2112409,"name":"Kaminoyama","nameKo":"가미노야마 시","ascii":"Kaminoyama","lat":38.15389,"lon":140.27361,"population":35593},{"id":6822180,"name":"Isumi","nameKo":"이스미 시","ascii":"Isumi","lat":35.23005,"lon":140.40492,"population":35544},{"id":10353044,"name":"Kami","ascii":"Kami","lat":33.52936,"lon":130.76479,"population":35473},{"id":2111530,"name":"Ōfunato","nameKo":"오후나토 시","ascii":"Ofunato","lat":39.07167,"lon":141.71667,"population":35452},{"id":1849038,"name":"Uwa","ascii":"Uwa","lat":33.36451,"lon":132.51267,"population":35388},{"id":2112913,"name":"Funaishikawa","ascii":"Funaishikawa","lat":36.46667,"lon":140.56667,"population":35318},{"id":9197267,"name":"Yakami","ascii":"Yakami","lat":34.1385,"lon":134.50185,"population":35246},{"id":1853433,"name":"Ōzu","ascii":"Ozu","lat":32.8804,"lon":130.87161,"population":35187},{"id":6822170,"name":"Tamura","nameKo":"다무라 시","ascii":"Tamura","lat":37.43055,"lon":140.60335,"population":35169},{"id":1926006,"name":"Iyo","nameKo":"이요 시","ascii":"Iyo","lat":33.75139,"lon":132.70139,"population":35133},{"id":1848055,"name":"Gero","nameKo":"게로 시","ascii":"Gero","lat":35.8,"lon":137.23333,"population":35000},{"id":1855341,"name":"Nishihara","ascii":"Nishihara","lat":26.25353,"lon":127.74352,"population":34984},{"id":6822215,"name":"Kaizu","ascii":"Kaizu","lat":35.20169,"lon":136.63505,"population":34960},{"id":2130421,"name":"Date","ascii":"Date","lat":42.46806,"lon":140.86806,"population":34898},{"id":6822140,"name":"Kahoku","nameKo":"가호쿠 시","ascii":"Kahoku","lat":36.75758,"lon":136.71162,"population":34889},{"id":6822169,"name":"Sōma","ascii":"Soma","lat":37.79283,"lon":140.92941,"population":34865},{"id":11612333,"name":"Awa","ascii":"Awa","lat":34.09205,"lon":134.28452,"population":34713},{"id":1854444,"name":"Ojiya","ascii":"Ojiya","lat":37.3,"lon":138.8,"population":34704},{"id":1855694,"name":"Namerikawa","nameKo":"나메리카와 시","ascii":"Namerikawa","lat":36.75965,"lon":137.36215,"population":34638},{"id":2111441,"name":"Okunoya","ascii":"Okunoya","lat":36.28333,"lon":140.41667,"population":34627},{"id":1855891,"name":"Nakamura","ascii":"Nakamura","lat":32.98333,"lon":132.93333,"population":34559},{"id":8572879,"name":"Ōizumi-gakuenchō","ascii":"Oizumi-gakuencho","lat":35.7653,"lon":139.58877,"population":34557},{"id":6825494,"name":"Uonuma","nameKo":"우오누마 시","ascii":"Uonuma","lat":37.24488,"lon":138.96234,"population":34483},{"id":2129427,"name":"Kuji","ascii":"Kuji","lat":40.18778,"lon":141.76889,"population":34418},{"id":11612559,"name":"Gotō","ascii":"Goto","lat":32.68418,"lon":128.8068,"population":34391},{"id":1862505,"name":"Hirara","ascii":"Hirara","lat":24.80379,"lon":125.30222,"population":34354},{"id":1854774,"name":"Ōdachō-ōda","ascii":"Odacho-oda","lat":35.19025,"lon":132.50846,"population":34354},{"id":1863592,"name":"Gojō","nameKo":"고조 시","ascii":"Gojo","lat":34.35,"lon":135.7,"population":34342},{"id":1849647,"name":"Tsuma","ascii":"Tsuma","lat":32.1,"lon":131.4,"population":34318},{"id":1863426,"name":"Katsuren-haebaru","ascii":"Katsuren-haebaru","lat":26.33294,"lon":127.87403,"population":34239},{"id":1864945,"name":"Atami","nameKo":"아타미 시","ascii":"Atami","lat":35.08834,"lon":139.05325,"population":34233},{"id":11809254,"name":"Miyashiro","ascii":"Miyashiro","lat":36.02229,"lon":139.72951,"population":34147},{"id":13132740,"name":"Fusō","ascii":"Fuso","lat":35.35782,"lon":136.90983,"population":34133},{"id":11611474,"name":"Tōon","ascii":"Toon","lat":33.79427,"lon":132.89011,"population":33903},{"id":2127515,"name":"Wakkanai","nameKo":"왓카나이 시","ascii":"Wakkanai","lat":45.40944,"lon":141.67389,"population":33869},{"id":9633084,"name":"Hikiso","ascii":"Hikiso","lat":34.54416,"lon":135.7382,"population":33810},{"id":1857357,"name":"Mie","ascii":"Mie","lat":32.96667,"lon":131.58333,"population":33695},{"id":1854022,"name":"Ono","ascii":"Ono","lat":35.98106,"lon":136.48727,"population":33640},{"id":1851713,"name":"Shōbara","nameKo":"쇼바라 시","ascii":"Shobara","lat":34.85,"lon":133.01667,"population":33633},{"id":1854923,"name":"Higashinozoe","ascii":"Higashinozoe","lat":34.7175,"lon":134.88162,"population":33604},{"id":1857651,"name":"Maruoka","ascii":"Maruoka","lat":36.1534,"lon":136.27029,"population":33563},{"id":1861816,"name":"Ikaruga","ascii":"Ikaruga","lat":34.83475,"lon":134.57803,"population":33477},{"id":2110586,"name":"Watari","ascii":"Watari","lat":38.035,"lon":140.85111,"population":33459},{"id":11611479,"name":"Yamanashi","ascii":"Yamanashi","lat":35.67152,"lon":138.69827,"population":33435},{"id":2111016,"name":"Shiroishi","ascii":"Shiroishi","lat":38.00333,"lon":140.61833,"population":33330},{"id":11612542,"name":"Soo","ascii":"Soo","lat":31.64637,"lon":130.99068,"population":33310},{"id":2112455,"name":"Kakuda","nameKo":"가쿠다 시","ascii":"Kakuda","lat":37.97451,"lon":140.77202,"population":33221},{"id":1862098,"name":"Hotaka","ascii":"Hotaka","lat":36.3396,"lon":137.88254,"population":33195},{"id":2112940,"name":"Fujishiro","ascii":"Fujishiro","lat":35.91667,"lon":140.11667,"population":33148},{"id":11612540,"name":"Minamikyushu","ascii":"Minamikyushu","lat":31.34689,"lon":130.45612,"population":33080},{"id":6822218,"name":"Motosu","nameKo":"모토스 시","ascii":"Motosu","lat":35.48384,"lon":136.67443,"population":32928},{"id":1852109,"name":"Shingū","ascii":"Shingu","lat":33.71399,"lon":130.4313,"population":32927},{"id":11612541,"name":"Minamisatsuma","ascii":"Minamisatsuma","lat":31.38999,"lon":130.28343,"population":32887},{"id":1848243,"name":"Yorii","ascii":"Yorii","lat":36.11567,"lon":139.19429,"population":32851},{"id":11612694,"name":"Asakuchi","ascii":"Asakuchi","lat":34.53484,"lon":133.60302,"population":32772},{"id":11612342,"name":"Yufu","ascii":"Yufu","lat":33.1956,"lon":131.37829,"population":32772},{"id":1860648,"name":"Kameda-honchō","ascii":"Kameda-honcho","lat":37.87214,"lon":139.1099,"population":32765},{"id":1852358,"name":"Shimoda","ascii":"Shimoda","lat":32.94584,"lon":132.98635,"population":32694},{"id":2110518,"name":"Yōkaichiba","ascii":"Yokaichiba","lat":35.7,"lon":140.55,"population":32651},{"id":1854492,"name":"Ōiso","ascii":"Oiso","lat":35.31558,"lon":139.31625,"population":32595},{"id":1858249,"name":"Kuroda","ascii":"Kuroda","lat":35.35,"lon":136.78333,"population":32586},{"id":1899102,"name":"Nagato","nameKo":"나가토 시","ascii":"Nagato","lat":34.38333,"lon":131.2,"population":32519},{"id":11147658,"name":"Shimada","ascii":"Shimada","lat":32.75684,"lon":130.79043,"population":32510},{"id":1848550,"name":"Yanai","ascii":"Yanai","lat":33.96667,"lon":132.11667,"population":32490},{"id":11777018,"name":"Haruta","ascii":"Haruta","lat":35.1422,"lon":136.8121,"population":32399},{"id":13132743,"name":"Ōharu","ascii":"Oharu","lat":35.17457,"lon":136.82014,"population":32399},{"id":11612331,"name":"Aki-takata","ascii":"Aki-takata","lat":34.67416,"lon":132.68188,"population":32323},{"id":8572948,"name":"Akatsuka","ascii":"Akatsuka","lat":35.77735,"lon":139.64376,"population":32253},{"id":1850472,"name":"Tawaramoto","ascii":"Tawaramoto","lat":34.5542,"lon":135.79297,"population":32241},{"id":1848618,"name":"Yamashita","ascii":"Yamashita","lat":33.56554,"lon":133.70284,"population":32207},{"id":6822178,"name":"Komagane","nameKo":"고마가네 시","ascii":"Komagane","lat":35.71657,"lon":137.93745,"population":32202},{"id":6822104,"name":"Namegata","ascii":"Namegata","lat":36.00705,"lon":140.49623,"population":32185},{"id":2112694,"name":"Hizume","ascii":"Hizume","lat":39.55,"lon":141.16667,"population":32147},{"id":2112297,"name":"Kamogawa","ascii":"Kamogawa","lat":35.0969,"lon":140.1003,"population":32116},{"id":2110541,"name":"Yamoto","ascii":"Yamoto","lat":38.42738,"lon":141.21487,"population":32028},{"id":7303003,"name":"Yawatahama","ascii":"Yawatahama","lat":33.45737,"lon":132.4328,"population":31987},{"id":1864873,"name":"Ayabe","nameKo":"아야베 시","ascii":"Ayabe","lat":35.3,"lon":135.25,"population":31846},{"id":1863356,"name":"Hakonegasaki","ascii":"Hakonegasaki","lat":35.76944,"lon":139.35111,"population":31765},{"id":6822203,"name":"Katagami","ascii":"Katagami","lat":39.87869,"lon":139.99767,"population":31720},{"id":10642471,"name":"Fushimi","ascii":"Fushimi","lat":35.11426,"lon":138.89742,"population":31710},{"id":1849424,"name":"Uekimachi-mōno","ascii":"Uekimachi-mono","lat":32.89964,"lon":130.68898,"population":31688},{"id":1862992,"name":"Hayama","ascii":"Hayama","lat":35.27651,"lon":139.57733,"population":31665},{"id":1847983,"name":"Zentsujichó","ascii":"Zentsujicho","lat":34.22699,"lon":133.77791,"population":31631},{"id":11612558,"name":"Nantan","ascii":"Nantan","lat":35.1098,"lon":135.49164,"population":31629},{"id":1851137,"name":"Takahashi","nameKo":"다카하시 시","ascii":"Takahashi","lat":34.78333,"lon":133.61667,"population":31556},{"id":11612589,"name":"Kōshū","ascii":"Koshu","lat":35.72422,"lon":138.77106,"population":31526},{"id":6822204,"name":"Kita-Akita","ascii":"Kita-Akita","lat":40.19956,"lon":140.39388,"population":31504},{"id":1853192,"name":"Sakai-nakajima","ascii":"Sakai-nakajima","lat":36.26667,"lon":139.25,"population":31268},{"id":1860458,"name":"Kaminokawa","ascii":"Kaminokawa","lat":36.43333,"lon":139.91667,"population":31243},{"id":2128975,"name":"Nemuro","nameKo":"네무로 시","ascii":"Nemuro","lat":43.32361,"lon":145.575,"population":31223},{"id":11612585,"name":"Chūō","ascii":"Chuo","lat":35.59465,"lon":138.50275,"population":31216},{"id":1852915,"name":"Sasaguri","ascii":"Sasaguri","lat":33.61561,"lon":130.55105,"population":31213},{"id":1862555,"name":"Hirado","nameKo":"히라도 시","ascii":"Hirado","lat":33.36853,"lon":129.55247,"population":31192},{"id":6822196,"name":"Omaezaki","nameKo":"오마에자키 시","ascii":"Omaezaki","lat":34.59882,"lon":138.21934,"population":31103},{"id":2111781,"name":"Nagai","nameKo":"나가이 시","ascii":"Nagai","lat":38.10361,"lon":140.035,"population":31026},{"id":1860095,"name":"Kanzakimachi-kanzaki","ascii":"Kanzakimachi-kanzaki","lat":33.30895,"lon":130.37383,"population":31022},{"id":11612329,"name":"Tsuru","ascii":"Tsuru","lat":35.54731,"lon":138.90959,"population":31016},{"id":10310759,"name":"Yurigaoka","ascii":"Yurigaoka","lat":33.84661,"lon":130.62963,"population":31007},{"id":8576507,"name":"Ikegami","ascii":"Ikegami","lat":35.57667,"lon":139.70517,"population":30959},{"id":6822225,"name":"Yaese","ascii":"Yaese","lat":26.12733,"lon":127.7432,"population":30941},{"id":6822206,"name":"Hirakawa","nameKo":"히라카와 시","ascii":"Hirakawa","lat":40.58728,"lon":140.57107,"population":30938},{"id":6822205,"name":"Tsugaru","nameKo":"쓰가루 시","ascii":"Tsugaru","lat":40.80357,"lon":140.40299,"population":30934},{"id":11777258,"name":"Minase","ascii":"Minase","lat":34.87724,"lon":135.6651,"population":30927},{"id":6822192,"name":"Izu","nameKo":"이즈 시","ascii":"Izu","lat":34.97159,"lon":138.94643,"population":30678},{"id":1855416,"name":"Niimi","ascii":"Niimi","lat":34.98333,"lon":133.46667,"population":30583},{"id":11612692,"name":"Ichikikushikino","ascii":"Ichikikushikino","lat":31.72934,"lon":130.29305,"population":30551},{"id":1926101,"name":"Masaki-chō","ascii":"Masaki-cho","lat":33.78757,"lon":132.71124,"population":30548},{"id":1850860,"name":"Takehara","nameKo":"다케하라 시","ascii":"Takehara","lat":34.33833,"lon":132.91667,"population":30506},{"id":11611932,"name":"Nanyō","ascii":"Nanyo","lat":38.04322,"lon":140.11276,"population":30420},{"id":6825491,"name":"Myoko","ascii":"Myoko","lat":37.02534,"lon":138.25561,"population":30383},{"id":1849367,"name":"Ujiie","ascii":"Ujiie","lat":36.68333,"lon":139.96667,"population":30366},{"id":11612327,"name":"Iki","ascii":"Iki","lat":33.78286,"lon":129.7209,"population":30352},{"id":1861410,"name":"Ishigami","ascii":"Ishigami","lat":36.25,"lon":139.15,"population":30343},{"id":13132797,"name":"Inami","ascii":"Inami","lat":34.74807,"lon":134.91284,"population":30268},{"id":2111824,"name":"Motomiya","nameKo":"모토미야 시","ascii":"Motomiya","lat":37.51391,"lon":140.40063,"population":30236},{"id":1852588,"name":"Shibushi","nameKo":"시부시 시","ascii":"Shibushi","lat":31.476,"lon":131.10114,"population":30231},{"id":8572949,"name":"Narimasu","ascii":"Narimasu","lat":35.78355,"lon":139.6323,"population":30203},{"id":1859941,"name":"Kashima","nameKo":"가시마 시","ascii":"Kashima","lat":33.10611,"lon":130.09056,"population":30159},{"id":1853662,"name":"Ōtake","ascii":"Otake","lat":34.20754,"lon":132.22063,"population":30151},{"id":6822177,"name":"Tōmi","ascii":"Tomi","lat":36.35582,"lon":138.36093,"population":30122},{"id":1850269,"name":"Togitsu","ascii":"Togitsu","lat":32.83333,"lon":129.85,"population":30084},{"id":9290061,"name":"Kimokawa","ascii":"Kimokawa","lat":34.87969,"lon":135.36698,"population":29680},{"id":1860772,"name":"Kaitaichi","ascii":"Kaitaichi","lat":34.36667,"lon":132.53333,"population":29636},{"id":1861454,"name":"Isawa","ascii":"Isawa","lat":35.65,"lon":138.63333,"population":29616},{"id":9017898,"name":"Yamaguma","ascii":"Yamaguma","lat":33.42118,"lon":130.6136,"population":29591},{"id":1855363,"name":"Nirasaki","ascii":"Nirasaki","lat":35.7,"lon":138.45,"population":29483},{"id":1854849,"name":"Obama","nameKo":"오바마 시","ascii":"Obama","lat":35.49576,"lon":135.74604,"population":29435},{"id":1857208,"name":"Minamata","nameKo":"미나마타 시","ascii":"Minamata","lat":32.21667,"lon":130.4,"population":29428},{"id":10971146,"name":"Machiya","ascii":"Machiya","lat":35.74804,"lon":139.78128,"population":29272},{"id":11611608,"name":"Saito","ascii":"Saito","lat":32.08199,"lon":131.39957,"population":29262},{"id":1862130,"name":"Hōshakuji","ascii":"Hoshakuji","lat":36.63333,"lon":139.98333,"population":29229},{"id":1856476,"name":"Muikamachi","ascii":"Muikamachi","lat":37.06667,"lon":138.88333,"population":29123},{"id":1857751,"name":"Maki","ascii":"Maki","lat":37.75,"lon":138.88333,"population":29041},{"id":2130534,"name":"Bibai","nameKo":"비바이 시","ascii":"Bibai","lat":43.32472,"lon":141.85861,"population":29028},{"id":1848991,"name":"Wadayama","ascii":"Wadayama","lat":35.31667,"lon":134.86667,"population":28989},{"id":6822124,"name":"Oyabe","ascii":"Oyabe","lat":36.66667,"lon":136.85,"population":28983},{"id":1854665,"name":"Ogawamachi","ascii":"Ogawamachi","lat":36.05342,"lon":139.26612,"population":28971},{"id":1851440,"name":"Sumiyoshi","ascii":"Sumiyoshi","lat":34.75,"lon":138.25,"population":28919},{"id":10979195,"name":"Matsubushi","ascii":"Matsubushi","lat":35.91898,"lon":139.81128,"population":28787},{"id":2110481,"name":"Yoshioka","ascii":"Yoshioka","lat":38.44139,"lon":140.87639,"population":28786},{"id":2112016,"name":"Makuhari","ascii":"Makuhari","lat":35.65,"lon":140.05,"population":28729},{"id":1850630,"name":"Tanuma","ascii":"Tanuma","lat":36.36667,"lon":139.58333,"population":28723},{"id":10267168,"name":"Sue","ascii":"Sue","lat":33.59149,"lon":130.50423,"population":28628},{"id":1862689,"name":"Hiji","ascii":"Hiji","lat":33.37081,"lon":131.53025,"population":28524},{"id":2129003,"name":"Honchō","ascii":"Honcho","lat":41.8944,"lon":140.69386,"population":28514},{"id":6825493,"name":"Tainai","ascii":"Tainai","lat":38.06463,"lon":139.4056,"population":28509},{"id":10630007,"name":"Tsushima","nameKo":"쓰시마 시","ascii":"Tsushima","lat":34.20634,"lon":129.29076,"population":28502},{"id":10920829,"name":"Horikiri","ascii":"Horikiri","lat":35.74582,"lon":139.82737,"population":28463},{"id":11777075,"name":"Agui","ascii":"Agui","lat":34.93499,"lon":136.91299,"population":28383},{"id":1865661,"name":"Aioi","ascii":"Aioi","lat":34.80361,"lon":134.46806,"population":28355},{"id":1864025,"name":"Fukiage-fujimi","ascii":"Fukiage-fujimi","lat":36.1,"lon":139.45,"population":28334},{"id":11612539,"name":"Higashikagawa","ascii":"Higashikagawa","lat":34.21024,"lon":134.33653,"population":28305},{"id":1864652,"name":"Chatan","ascii":"Chatan","lat":26.30948,"lon":127.77024,"population":28201},{"id":1862471,"name":"Hiratachō","ascii":"Hiratacho","lat":35.43333,"lon":132.81667,"population":28154},{"id":6822122,"name":"Ōuda-yamaguchi","ascii":"Ouda-yamaguchi","lat":34.45923,"lon":135.95363,"population":28121},{"id":10311204,"name":"Miyaodai","ascii":"Miyaodai","lat":33.84661,"lon":130.71276,"population":28114},{"id":13156692,"name":"Yahaba","ascii":"Yahaba","lat":39.61114,"lon":141.14743,"population":28056},{"id":11612574,"name":"Mima","ascii":"Mima","lat":34.05493,"lon":134.13963,"population":28055},{"id":1859234,"name":"Kitsuki","ascii":"Kitsuki","lat":33.41998,"lon":131.61837,"population":27999},{"id":1926142,"name":"Hōjō","ascii":"Hojo","lat":33.97661,"lon":132.77767,"population":27992},{"id":11397285,"name":"Ukiha","ascii":"Ukiha","lat":33.35634,"lon":130.74966,"population":27981},{"id":1865232,"name":"Aoto","ascii":"Aoto","lat":35.74974,"lon":139.85405,"population":27980},{"id":1849817,"name":"Toyoshina","ascii":"Toyoshina","lat":36.29991,"lon":137.90108,"population":27834},{"id":1858283,"name":"Kurihashi","ascii":"Kurihashi","lat":36.13333,"lon":139.7,"population":27813},{"id":2110893,"name":"Takahagi","nameKo":"다카하기 시","ascii":"Takahagi","lat":36.71667,"lon":140.71667,"population":27699},{"id":1857403,"name":"Menuma","ascii":"Menuma","lat":36.22245,"lon":139.38205,"population":27684},{"id":2112555,"name":"Itako","nameKo":"이타코 시","ascii":"Itako","lat":35.93333,"lon":140.55,"population":27604},{"id":2111425,"name":"Ōmiya","ascii":"Omiya","lat":36.55,"lon":140.41667,"population":27588},{"id":1862136,"name":"Hōryūji","ascii":"Horyuji","lat":34.61234,"lon":135.73754,"population":27587},{"id":1855380,"name":"Ninomiya","ascii":"Ninomiya","lat":35.3015,"lon":139.25581,"population":27564},{"id":1854186,"name":"Ōmachi","nameKo":"오마치 시","ascii":"Omachi","lat":36.5,"lon":137.86667,"population":27559},{"id":1864894,"name":"Awara","nameKo":"아와라 시","ascii":"Awara","lat":36.22309,"lon":136.19236,"population":27524},{"id":1847947,"name":"Shingū","nameKo":"신구 시","ascii":"Shingu","lat":33.73333,"lon":135.98333,"population":27491},{"id":1865207,"name":"Arai","ascii":"Arai","lat":37.00059,"lon":138.2259,"population":27481},{"id":1850600,"name":"Tarui","ascii":"Tarui","lat":35.36667,"lon":136.53333,"population":27439},{"id":6822213,"name":"Yamagata","ascii":"Yamagata","lat":35.47619,"lon":136.7721,"population":27356},{"id":2128983,"name":"Nayoro","nameKo":"나요로 시","ascii":"Nayoro","lat":44.35056,"lon":142.45778,"population":27282},