[{"id":1528675,"name":"Bishkek","nameKo":"비슈케크","ascii":"Bishkek","lat":42.87,"lon":74.59,"population":900000},{"id":1527534,"name":"Osh","nameKo":"오시","ascii":"Osh","lat":40.52828,"lon":72.7985,"population":322164},{"id":1528249,"name":"Jalal-Abad","nameKo":"잘랄아바트","ascii":"Jalal-Abad","lat":40.94498,"lon":72.99313,"population":123239},{"id":1528121,"name":"Karakol","nameKo":"카라콜","ascii":"Karakol","lat":42.49047,"lon":78.39197,"population":84351},{"id":1527199,"name":"Tokmok","nameKo":"토크마크","ascii":"Tokmok","lat":42.84194,"lon":75.30149,"population":71443},{"id":1527513,"name":"Uzgen","ascii":"Uzgen","lat":40.76994,"lon":73.30068,"population":49410},{"id":1528182,"name":"Kara-Balta","ascii":"Kara-Balta","lat":42.81423,"lon":73.84813,"population":48278},{"id":1527004,"name":"Balykchy","nameKo":"발릭치","ascii":"Balykchy","lat":42.46017,"lon":76.18709,"population":42875},{"id":1527592,"name":"Naryn","ascii":"Naryn","lat":41.4283,"lon":75.9957,"population":41178},{"id":1528717,"name":"Bazar-Korgon","ascii":"Bazar-Korgon","lat":41.0376,"lon":72.74586,"population":41011},{"id":1527299,"name":"Talas","ascii":"Talas","lat":42.52256,"lon":72.2417,"population":40308},{"id":1222662,"name":"Razzakov","ascii":"Razzakov","lat":39.83895,"lon":69.5276,"population":34219},{"id":1527719,"name":"Kyzyl-Kyya","ascii":"Kyzyl-Kyya","lat":40.25684,"lon":72.12793,"population":32000},{"id":1527317,"name":"Suzak","ascii":"Suzak","lat":40.8982,"lon":72.90481,"population":30534},{"id":1528735,"name":"Batken","nameKo":"밧켄","ascii":"Batken","lat":40.0604,"lon":70.81929,"population":27730},{"id":1528091,"name":"Kara Suu","ascii":"Kara Suu","lat":40.7046,"lon":72.86666,"population":26609},{"id":1528283,"name":"Iradan","ascii":"Iradan","lat":40.26667,"lon":72.1,"population":26200},{"id":1527260,"name":"Tash-Kumyr","ascii":"Tash-Kumyr","lat":41.34612,"lon":72.21707,"population":23594},{"id":1528702,"name":"Belovodskoye","ascii":"Belovodskoye","lat":42.82944,"lon":74.1083,"population":23046},{"id":1528193,"name":"Kant","ascii":"Kant","lat":42.89106,"lon":74.85077,"population":22617},{"id":1527690,"name":"Lebedinovka","ascii":"Lebedinovka","lat":42.88454,"lon":74.67819,"population":21118},{"id":1538648,"name":"Toktogul","ascii":"Toktogul","lat":41.87442,"lon":72.94192,"population":20577},{"id":1527689,"name":"Massy","ascii":"Massy","lat":41.0601,"lon":72.63285,"population":19774},{"id":1528339,"name":"Nookat","ascii":"Nookat","lat":40.26597,"lon":72.61834,"population":18228},{"id":1528252,"name":"Ivanovka","ascii":"Ivanovka","lat":42.88778,"lon":75.085,"population":17513},{"id":1527903,"name":"Kochkor-Ata","ascii":"Kochkor-Ata","lat":41.03709,"lon":72.4832,"population":17177},{"id":8145969,"name":"Kara-Kulja","ascii":"Kara-Kulja","lat":40.63223,"lon":73.59249,"population":15616},{"id":1528875,"name":"Ala-Buka","ascii":"Ala-Buka","lat":41.4105,"lon":71.48628,"population":15426},{"id":1527497,"name":"Kyzyl-Suu","ascii":"Kyzyl-Suu","lat":42.34211,"lon":78.00644,"population":15075},{"id":1222562,"name":"Suluktu","ascii":"Suluktu","lat":39.93652,"lon":69.56779,"population":15019},{"id":1527103,"name":"Uch-Korgon","ascii":"Uch-Korgon","lat":40.22881,"lon":72.05924,"population":14708},{"id":1528796,"name":"At-Bashi","ascii":"At-Bashi","lat":41.16951,"lon":75.80099,"population":14655},{"id":1528666,"name":"Bokombayevskoye","ascii":"Bokombayevskoye","lat":42.11769,"lon":76.99332,"population":14267},{"id":1528512,"name":"Cholpon-Ata","ascii":"Cholpon-Ata","lat":42.64944,"lon":77.08225,"population":14237},{"id":1528052,"name":"Kerben","ascii":"Kerben","lat":41.49399,"lon":71.75826,"population":14141},{"id":1527232,"name":"Ak-Suu","ascii":"Ak-Suu","lat":42.49948,"lon":78.52702,"population":14009},{"id":1528320,"name":"Gul’cha","ascii":"Gul'cha","lat":40.3138,"lon":73.44418,"population":13755},{"id":1527919,"name":"Kyzyl-Adyr","ascii":"Kyzyl-Adyr","lat":42.61981,"lon":71.5891,"population":13612},{"id":1527347,"name":"Sovetskoye","ascii":"Sovetskoye","lat":41.05178,"lon":72.73965,"population":13178},{"id":1527121,"name":"Tyup","ascii":"Tyup","lat":42.7276,"lon":78.36476,"population":12355},{"id":1222635,"name":"Aydarken","ascii":"Aydarken","lat":39.94319,"lon":71.34184,"population":11857},{"id":1528005,"name":"Kazarman","ascii":"Kazarman","lat":41.40452,"lon":74.02828,"population":11191},{"id":1540656,"name":"Nizhnyaya Ala-Archa","ascii":"Nizhnyaya Ala-Archa","lat":42.92245,"lon":74.56684,"population":10760},{"id":1528766,"name":"Baetovo","ascii":"Baetovo","lat":41.26668,"lon":74.95698,"population":10682},{"id":1540657,"name":"Mayevka","ascii":"Mayevka","lat":42.90927,"lon":74.5685,"population":10535},{"id":1528606,"name":"Kemin","ascii":"Kemin","lat":42.78611,"lon":75.69167,"population":10354},{"id":1528234,"name":"Kaindy","ascii":"Kaindy","lat":42.82469,"lon":73.67585,"population":9561},{"id":1527496,"name":"Pokrovka","ascii":"Pokrovka","lat":42.7362,"lon":71.60982,"population":8522},{"id":8377525,"name":"Kulundu","ascii":"Kulundu","lat":40.10635,"lon":69.64127,"population":8250},{"id":8375152,"name":"Samarkandyk","ascii":"Samarkandyk","lat":39.9981,"lon":70.54589,"population":8015},{"id":1222708,"name":"Andarak","ascii":"Andarak","lat":39.76849,"lon":69.46398,"population":8001},{"id":8375168,"name":"Kyzyl-Bel’","ascii":"Kyzyl-Bel'","lat":40.09991,"lon":70.74053,"population":7481},{"id":1222640,"name":"Katran","ascii":"Katran","lat":39.84434,"lon":70.01474,"population":7149},{"id":1222683,"name":"Daroot-Korgon","ascii":"Daroot-Korgon","lat":39.55274,"lon":72.20518,"population":6421},{"id":8375151,"name":"Kyzyl-Jol","ascii":"Kyzyl-Jol","lat":40.04158,"lon":70.81207,"population":6378},{"id":1527951,"name":"Khalmion","ascii":"Khalmion","lat":40.21218,"lon":71.63274,"population":6274},{"id":1527351,"name":"Sosnovka","ascii":"Sosnovka","lat":42.63707,"lon":73.89608,"population":5885},{"id":1528944,"name":"Ak-Dzhar","ascii":"Ak-Dzhar","lat":41.17417,"lon":75.7891,"population":5559},{"id":1528642,"name":"Boz-Beshik","ascii":"Boz-Beshik","lat":42.43247,"lon":77.95153,"population":5237},{"id":1528190,"name":"Kanysh-Kyya","ascii":"Kanysh-Kyya","lat":41.76536,"lon":71.09181,"population":4805},{"id":1528241,"name":"Kadzhi-Say","ascii":"Kadzhi-Say","lat":42.14107,"lon":77.17848,"population":4000},{"id":1528566,"name":"Chayek","ascii":"Chayek","lat":41.92768,"lon":74.51699,"population":3762},{"id":8138116,"name":"Kyzyl-Oktyabr’","ascii":"Kyzyl-Oktyabr'","lat":41.10189,"lon":72.79274,"population":3641},{"id":1528167,"name":"Karacha","ascii":"Karacha","lat":41.08511,"lon":72.81146,"population":3586},{"id":1527566,"name":"Orozbekovo","ascii":"Orozbekovo","lat":40.05689,"lon":71.66945,"population":3503},{"id":8181891,"name":"Ak-Jol","ascii":"Ak-Jol","lat":41.56672,"lon":72.19452,"population":3046},{"id":7648391,"name":"Pulgon","ascii":"Pulgon","lat":40.14724,"lon":71.72962,"population":3014},{"id":1528953,"name":"Akbulun","ascii":"Akbulun","lat":42.62607,"lon":78.82249,"population":2546},{"id":1528616,"name":"Birbash","ascii":"Birbash","lat":42.52684,"lon":78.35989,"population":2535},{"id":1528958,"name":"Ak-Bulung","ascii":"Ak-Bulung","lat":42.76688,"lon":78.22616,"population":2498},{"id":8334055,"name":"Akbulek","ascii":"Akbulek","lat":42.61533,"lon":78.81919,"population":2498},{"id":8376054,"name":"Kyzyl-Bulak","ascii":"Kyzyl-Bulak","lat":40.0517,"lon":71.73726,"population":2272},{"id":1222618,"name":"Korgon","ascii":"Korgon","lat":39.88899,"lon":69.93559,"population":2204},{"id":1527244,"name":"Tegizchil","ascii":"Tegizchil","lat":42.56513,"lon":78.42132,"population":1791},{"id":1528691,"name":"Besh-Badam","ascii":"Besh-Badam","lat":41.14069,"lon":72.88859,"population":1720},{"id":1527700,"name":"Kyzyl-Tuu","ascii":"Kyzyl-Tuu","lat":42.18527,"lon":76.67422,"population":1703},{"id":1222554,"name":"Tayan","ascii":"Tayan","lat":39.9026,"lon":71.10826,"population":1693},{"id":8334056,"name":"Zyndan","ascii":"Zyndan","lat":42.64269,"lon":78.87001,"population":1425},{"id":8334046,"name":"Bozbulun","ascii":"Bozbulun","lat":42.57837,"lon":78.36999,"population":1183},{"id":1528053,"name":"Karavan","ascii":"Karavan","lat":40.29513,"lon":72.18627,"population":1100},{"id":1222606,"name":"Kyzyl-Eshme","ascii":"Kyzyl-Eshme","lat":39.56559,"lon":72.27153,"population":1100},{"id":10370337,"name":"Ak-Say","ascii":"Ak-Say","lat":39.87438,"lon":70.52211,"population":0},{"id":8377866,"name":"Ak-Suu","ascii":"Ak-Suu","lat":39.89877,"lon":69.3716,"population":0},{"id":8382860,"name":"Ak-Tatyr","ascii":"Ak-Tatyr","lat":39.9599,"lon":70.48451,"population":0},{"id":1528856,"name":"Alga","ascii":"Alga","lat":40.2363,"lon":71.49899,"population":0},{"id":1528831,"name":"Aravan","ascii":"Aravan","lat":40.51608,"lon":72.4996,"population":0},{"id":1527688,"name":"Bakai-Ata","ascii":"Bakai-Ata","lat":42.49298,"lon":71.9236,"population":0},{"id":1538310,"name":"Beshkent","ascii":"Beshkent","lat":40.03083,"lon":69.81861,"population":0},{"id":8376076,"name":"Boz-Adyr","ascii":"Boz-Adyr","lat":39.9986,"lon":71.07338,"population":0},{"id":8375110,"name":"Chek","ascii":"Chek","lat":40.10934,"lon":70.84636,"population":0},{"id":1527338,"name":"Chuy","ascii":"Chuy","lat":42.81973,"lon":75.28233,"population":0},{"id":1528253,"name":"Ivanovo-Alekseyevka","ascii":"Ivanovo-Alekseyevka","lat":42.54689,"lon":72.20921,"population":0},{"id":8375150,"name":"Kara-Bak","ascii":"Kara-Bak","lat":40.16169,"lon":70.81959,"population":0},{"id":8139689,"name":"Kara-Dëbë","ascii":"Kara-Debe","lat":40.24428,"lon":72.04475,"population":0},{"id":1528161,"name":"Kara-Dzhygach","ascii":"Kara-Dzhygach","lat":40.12209,"lon":72.09271,"population":0},{"id":1527902,"name":"Kochkor","ascii":"Kochkor","lat":42.21552,"lon":75.75659,"population":0},{"id":8376052,"name":"Kyrgyz-Kyshtak","ascii":"Kyrgyz-Kyshtak","lat":40.31055,"lon":71.34966,"population":0},{"id":8376125,"name":"Markaz","ascii":"Markaz","lat":40.24019,"lon":71.89983,"population":0},{"id":8388007,"name":"Ormosh","ascii":"Ormosh","lat":39.94591,"lon":71.26086,"population":0},{"id":1527360,"name":"Sokuluk","ascii":"Sokuluk","lat":42.85401,"lon":74.30257,"population":0},{"id":7649203,"name":"Talas","ascii":"Talas","lat":42.35473,"lon":72.65678,"population":0},{"id":8377922,"name":"Toguz-Bulak","ascii":"Toguz-Bulak","lat":39.84331,"lon":69.71355,"population":0},{"id":8134212,"name":"Üch-Terek","ascii":"Uch-Terek","lat":41.76222,"lon":73.20033,"population":0}]