[{"id":2274895,"name":"Monrovia","nameKo":"몬로비아","ascii":"Monrovia","lat":6.30054,"lon":-10.7969,"population":1542549},{"id":2277060,"name":"Gbarnga","ascii":"Gbarnga","lat":6.99543,"lon":-9.47122,"population":86031},{"id":2278158,"name":"Buchanan","nameKo":"뷰캐넌","ascii":"Buchanan","lat":5.87693,"lon":-10.04964,"population":75854},{"id":2277241,"name":"Ganta","ascii":"Ganta","lat":7.235,"lon":-8.98444,"population":63523},{"id":2276086,"name":"Kakata","ascii":"Kakata","lat":6.53104,"lon":-10.35368,"population":52247},{"id":2272491,"name":"Zwedru","ascii":"Zwedru","lat":6.06846,"lon":-8.13559,"population":38269},{"id":2276506,"name":"Harbel","ascii":"Harbel","lat":6.24683,"lon":-10.35642,"population":38208},{"id":2276492,"name":"Harper","ascii":"Harper","lat":4.3782,"lon":-7.71081,"population":35503},{"id":2274372,"name":"Pleebo City","ascii":"Pleebo City","lat":4.58953,"lon":-7.67218,"population":35423},{"id":2277301,"name":"Foya Kamara","ascii":"Foya Kamara","lat":8.36028,"lon":-10.20639,"population":31052},{"id":2272790,"name":"New Yekepa","ascii":"New Yekepa","lat":7.57944,"lon":-8.53778,"population":24695},{"id":2273312,"name":"Voinjama","ascii":"Voinjama","lat":8.42194,"lon":-9.74778,"population":23051},{"id":2273435,"name":"Tubmanburg","ascii":"Tubmanburg","lat":6.87064,"lon":-10.8211,"population":22005},{"id":2274222,"name":"Saclepea","ascii":"Saclepea","lat":6.9625,"lon":-8.84056,"population":20818},{"id":2276600,"name":"Greenville","ascii":"Greenville","lat":5.01133,"lon":-9.0388,"population":20184},{"id":2274129,"name":"Sanniquellie","ascii":"Sanniquellie","lat":7.36215,"lon":-8.71326,"population":17895},{"id":2277197,"name":"Ganta","ascii":"Ganta","lat":7.30222,"lon":-8.53083,"population":13802},{"id":2276103,"name":"Karnplay","ascii":"Karnplay","lat":7.26972,"lon":-8.50389,"population":8431},{"id":2272534,"name":"Zorzor","ascii":"Zorzor","lat":7.77944,"lon":-9.43028,"population":8419},{"id":2274286,"name":"River Gbeh","ascii":"River Gbeh","lat":5.21194,"lon":-7.66806,"population":7313},{"id":2273638,"name":"Fish Town","ascii":"Fish Town","lat":5.19739,"lon":-7.87579,"population":5383},{"id":2274275,"name":"Robertsport","ascii":"Robertsport","lat":6.75329,"lon":-11.3671,"population":5306},{"id":2278889,"name":"Barclayville","ascii":"Barclayville","lat":4.67443,"lon":-8.23306,"population":4692},{"id":2278248,"name":"Bopolu","ascii":"Bopolu","lat":7.06667,"lon":-10.4875,"population":4396},{"id":2274288,"name":"River Cess","ascii":"River Cess","lat":5.45683,"lon":-9.58167,"population":3606},{"id":2278682,"name":"Bensonville","ascii":"Bensonville","lat":6.44716,"lon":-10.61283,"population":785},{"id":8260265,"name":"Buutuo","ascii":"Buutuo","lat":6.8275,"lon":-8.3428,"population":0}]