[{"id":593116,"name":"Vilnius","nameKo":"빌뉴스","ascii":"Vilnius","lat":54.68916,"lon":25.2798,"population":542366},{"id":598316,"name":"Kaunas","nameKo":"카우나스","ascii":"Kaunas","lat":54.90156,"lon":23.90909,"population":289380},{"id":598098,"name":"Klaipėda","nameKo":"클라이페다","ascii":"Klaipeda","lat":55.7068,"lon":21.13912,"population":172292},{"id":594739,"name":"Šiauliai","nameKo":"샤울랴이","ascii":"Siauliai","lat":55.93333,"lon":23.31667,"population":99462},{"id":596128,"name":"Panevėžys","nameKo":"파네베지스","ascii":"Panevezys","lat":55.73186,"lon":24.35983,"population":85885},{"id":6618486,"name":"Dainava (Kaunas)","ascii":"Dainava (Kaunas)","lat":54.91525,"lon":23.96831,"population":70000},{"id":601084,"name":"Alytus","nameKo":"알리투스","ascii":"Alytus","lat":54.39574,"lon":24.03885,"population":49195},{"id":9610004,"name":"Šilainiai","ascii":"Silainiai","lat":54.92911,"lon":23.88599,"population":40600},{"id":9610008,"name":"Eiguliai","ascii":"Eiguliai","lat":54.93133,"lon":23.93243,"population":40453},{"id":601041,"name":"Antakalnis","ascii":"Antakalnis","lat":54.70781,"lon":25.31706,"population":40000},{"id":596479,"name":"Fabijoniškės","ascii":"Fabijoniskes","lat":54.73333,"lon":25.24167,"population":37000},{"id":596713,"name":"Naujoji Vilnia","ascii":"Naujoji Vilnia","lat":54.69515,"lon":25.41969,"population":36800},{"id":10062602,"name":"Šeškinė","ascii":"Seskine","lat":54.70972,"lon":25.25053,"population":36000},{"id":597231,"name":"Marijampolė","nameKo":"마리얌폴레","ascii":"Marijampole","lat":54.55787,"lon":23.35004,"population":34975},{"id":6955408,"name":"Naujininkai","ascii":"Naujininkai","lat":54.66425,"lon":25.28418,"population":33500},{"id":10062599,"name":"Pašilaičiai","ascii":"Pasilaiciai","lat":54.73429,"lon":25.21912,"population":33056},{"id":597188,"name":"Mazeikiai","ascii":"Mazeikiai","lat":56.31667,"lon":22.33333,"population":32470},{"id":8714608,"name":"Karoliniškės","ascii":"Karoliniskes","lat":54.69034,"lon":25.21903,"population":31200},{"id":10062605,"name":"Lazdynai","ascii":"Lazdynai","lat":54.66815,"lon":25.20684,"population":31097},{"id":10062601,"name":"Justiniškės","ascii":"Justiniskes","lat":54.71664,"lon":25.2174,"population":31000},{"id":10062607,"name":"Naujamiestis","ascii":"Naujamiestis","lat":54.67951,"lon":25.26855,"population":28157},{"id":598818,"name":"Jonava","nameKo":"요나바","ascii":"Jonava","lat":55.08014,"lon":24.27544,"population":26423},{"id":593672,"name":"Utena","nameKo":"우테나","ascii":"Utena","lat":55.4978,"lon":25.60462,"population":25397},{"id":601138,"name":"Aleksotas","ascii":"Aleksotas","lat":54.88037,"lon":23.90842,"population":24270},{"id":598272,"name":"Kėdainiai","nameKo":"케다이네이","ascii":"Kedainiai","lat":55.28782,"lon":23.97275,"population":22677},{"id":10062606,"name":"Vilkpėdė","ascii":"Vilkpede","lat":54.66969,"lon":25.2477,"population":21346},{"id":593926,"name":"Telsiai","nameKo":"텔샤이","ascii":"Telsiai","lat":55.98139,"lon":22.24722,"population":21294},{"id":593959,"name":"Taurage","nameKo":"타우라게","ascii":"Taurage","lat":55.25222,"lon":22.28972,"population":21203},{"id":10062600,"name":"Pilaitė","ascii":"Pilaite","lat":54.69981,"lon":25.18393,"population":20320},{"id":593733,"name":"Ukmerge","nameKo":"우크메르게","ascii":"Ukmerge","lat":55.25,"lon":24.75,"population":20154},{"id":595689,"name":"Plunge","ascii":"Plunge","lat":55.91139,"lon":21.84417,"population":18904},{"id":596238,"name":"Palanga","nameKo":"팔랑가","ascii":"Palanga","lat":55.9175,"lon":21.06861,"population":18207},{"id":593063,"name":"Visaginas","ascii":"Visaginas","lat":55.59678,"lon":26.43984,"population":18024},{"id":597989,"name":"Kretinga","nameKo":"크레팅가","ascii":"Kretinga","lat":55.8888,"lon":21.24448,"population":17249},{"id":599506,"name":"Gargždai","ascii":"Gargzdai","lat":55.70951,"lon":21.39441,"population":16433},{"id":595449,"name":"Radviliskis","ascii":"Radviliskis","lat":55.81667,"lon":23.53333,"population":16344},{"id":594656,"name":"Silute","nameKo":"실루테","ascii":"Silute","lat":55.34889,"lon":21.48306,"population":14968},{"id":600438,"name":"Birzai","ascii":"Birzai","lat":56.2,"lon":24.75,"population":14911},{"id":599602,"name":"Elektrėnai","nameKo":"엘렉트레나이","ascii":"Elektrenai","lat":54.78544,"lon":24.66302,"population":13501},{"id":599757,"name":"Druskininkai","ascii":"Druskininkai","lat":54.01573,"lon":23.98703,"population":12055},{"id":596719,"name":"Naujoji Akmene","ascii":"Naujoji Akmene","lat":56.31667,"lon":22.9,"population":11922},{"id":595213,"name":"Rokiškis","ascii":"Rokiskis","lat":55.95867,"lon":25.59466,"population":11765},{"id":599161,"name":"Grigiškės","ascii":"Grigiskes","lat":54.68333,"lon":25.08333,"population":11555},{"id":598796,"name":"Joniškis","ascii":"Joniskis","lat":56.23939,"lon":23.61541,"population":11113},{"id":597769,"name":"Kuršėnai","nameKo":"쿠르셰나이","ascii":"Kursenai","lat":56.00318,"lon":22.93662,"population":10829},{"id":10062609,"name":"Rasos","ascii":"Rasos","lat":54.67877,"lon":25.31173,"population":10597},{"id":600994,"name":"Anykščiai","ascii":"Anyksciai","lat":55.52557,"lon":25.10264,"population":10575},{"id":598655,"name":"Jurbarkas","ascii":"Jurbarkas","lat":55.07556,"lon":22.76416,"population":10186},{"id":597532,"name":"Lentvaris","ascii":"Lentvaris","lat":54.64364,"lon":25.05162,"population":10004},{"id":599504,"name":"Garliava","ascii":"Garliava","lat":54.82139,"lon":23.8713,"population":9873},{"id":598567,"name":"Kaišiadorys","ascii":"Kaisiadorys","lat":54.86528,"lon":24.46815,"population":9867},{"id":595378,"name":"Raseiniai","ascii":"Raseiniai","lat":55.37973,"lon":23.12386,"population":9686},{"id":593153,"name":"Vilkaviskis","ascii":"Vilkaviskis","lat":54.65167,"lon":23.03222,"population":9444},{"id":595596,"name":"Prienai","ascii":"Prienai","lat":54.636,"lon":23.94585,"population":8610},{"id":597806,"name":"Kupiskis","ascii":"Kupiskis","lat":55.84027,"lon":24.97976,"population":8263},{"id":598257,"name":"Kelmė","nameKo":"켈메","ascii":"Kelme","lat":55.63009,"lon":22.9349,"population":8245},{"id":593406,"name":"Varėna","ascii":"Varena","lat":54.21546,"lon":24.57538,"population":7892},{"id":594607,"name":"Širvintos","ascii":"Sirvintos","lat":55.044,"lon":24.95446,"population":7321},{"id":596867,"name":"Molėtai","ascii":"Moletai","lat":55.22469,"lon":25.41688,"population":7243},{"id":595016,"name":"Šalčininkai","ascii":"Salcininkai","lat":54.30864,"lon":25.38677,"population":6891},{"id":596473,"name":"Pabradė","ascii":"Pabrade","lat":54.981,"lon":25.761,"population":6375},{"id":595997,"name":"Pasvalys","ascii":"Pasvalys","lat":56.06251,"lon":24.39965,"population":6361},{"id":592891,"name":"Zarasai","ascii":"Zarasai","lat":55.73225,"lon":26.25115,"population":6051},{"id":598286,"name":"Kazlų Rūda","ascii":"Kazlu Ruda","lat":54.749,"lon":23.49,"population":5666},{"id":597729,"name":"Kybartai","ascii":"Kybartai","lat":54.63858,"lon":22.76316,"population":5631},{"id":594064,"name":"Švenčionys","ascii":"Svencionys","lat":55.135,"lon":26.159,"population":5538},{"id":593871,"name":"Trakai","ascii":"Trakai","lat":54.63783,"lon":24.93433,"population":5530},{"id":594488,"name":"Skuodas","ascii":"Skuodas","lat":56.27057,"lon":21.53208,"population":5508},{"id":599815,"name":"Domeikava","ascii":"Domeikava","lat":54.96758,"lon":23.91615,"population":5215},{"id":598998,"name":"Ignalina","ascii":"Ignalina","lat":55.34063,"lon":26.16049,"population":5106},{"id":596664,"name":"Nemenčinė","ascii":"Nemencine","lat":54.84776,"lon":25.46992,"population":5054},{"id":595044,"name":"Šakiai","ascii":"Sakiai","lat":54.95339,"lon":23.04779,"population":4998},{"id":594067,"name":"Švenčionėliai","ascii":"Svencioneliai","lat":55.16163,"lon":26.00177,"population":4726},{"id":594693,"name":"Šilalė","ascii":"Silale","lat":55.4898,"lon":22.18692,"population":4640},{"id":593191,"name":"Vievis","ascii":"Vievis","lat":54.77258,"lon":24.81129,"population":4521},{"id":598512,"name":"Kalvarija","ascii":"Kalvarija","lat":54.417,"lon":23.223,"population":4457},{"id":596260,"name":"Pakruojis","ascii":"Pakruojis","lat":55.97889,"lon":23.85508,"population":4352},{"id":595356,"name":"Raudondvaris","ascii":"Raudondvaris","lat":54.94356,"lon":23.77141,"population":4300},{"id":594585,"name":"Skaidiškės","ascii":"Skaidiskes","lat":54.61398,"lon":25.39573,"population":4203},{"id":595174,"name":"Rudamina","ascii":"Rudamina","lat":54.59306,"lon":25.35047,"population":3713},{"id":600962,"name":"Ariogala","ascii":"Ariogala","lat":55.262,"lon":23.477,"population":3653},{"id":597596,"name":"Lazdijai","ascii":"Lazdijai","lat":54.23326,"lon":23.51466,"population":3629},{"id":596612,"name":"Nida","ascii":"Nida","lat":55.3086,"lon":20.99651,"population":3530},{"id":599614,"name":"Eišiškės","ascii":"Eisiskes","lat":54.17414,"lon":24.99917,"population":3416},{"id":594861,"name":"Šeduva","ascii":"Seduva","lat":55.7493,"lon":23.7561,"population":3321},{"id":593303,"name":"Venta","ascii":"Venta","lat":56.19162,"lon":22.69528,"population":3270},{"id":592778,"name":"Žiežmariai","ascii":"Ziezmariai","lat":54.80725,"lon":24.44073,"population":3268},{"id":595284,"name":"Rietavas","ascii":"Rietavas","lat":55.72708,"lon":21.92343,"population":3234},{"id":595842,"name":"Pervalka","ascii":"Pervalka","lat":55.41486,"lon":21.09774,"population":3097},{"id":601182,"name":"Akmenė","ascii":"Akmene","lat":56.25,"lon":22.75,"population":3026},{"id":9610015,"name":"Akademija (Kaunas)","ascii":"Akademija (Kaunas)","lat":54.8964,"lon":23.82411,"population":2807},{"id":593746,"name":"Tytuvėnėliai","ascii":"Tytuveneliai","lat":55.62345,"lon":23.17162,"population":2775},{"id":594943,"name":"Sargėnai","ascii":"Sargenai","lat":54.94933,"lon":23.88316,"population":2495},{"id":595087,"name":"Rusnė","ascii":"Rusne","lat":55.2982,"lon":21.3712,"population":2484},{"id":596643,"name":"Neringa","ascii":"Neringa","lat":55.37194,"lon":21.06472,"population":2380},{"id":595393,"name":"Ramučiai","ascii":"Ramuciai","lat":54.9483,"lon":24.0305,"population":2372},{"id":600443,"name":"Birštonas","ascii":"Birstonas","lat":54.608,"lon":24.034,"population":2331},{"id":595160,"name":"Rūdiškės","ascii":"Rudiskes","lat":54.51609,"lon":24.83084,"population":2300},{"id":593144,"name":"Vilkija","ascii":"Vilkija","lat":55.04609,"lon":23.58552,"population":2289},{"id":596661,"name":"Nemėžis","ascii":"Nemezis","lat":54.63629,"lon":25.35455,"population":2241},{"id":599579,"name":"Ežerėlis","ascii":"Ezerelis","lat":54.88315,"lon":23.60396,"population":2051},{"id":594050,"name":"Šventoji","ascii":"Sventoji","lat":56.0261,"lon":21.08411,"population":2000},{"id":598690,"name":"Juodupė","ascii":"Juodupe","lat":56.087,"lon":25.607,"population":1989},{"id":594562,"name":"Būgai","ascii":"Bugai","lat":55.41387,"lon":22.60894,"population":1976},{"id":597904,"name":"Kudirkos Naumiestis","ascii":"Kudirkos Naumiestis","lat":54.77353,"lon":22.86138,"population":1961},{"id":593218,"name":"Viekšniai","ascii":"Vieksniai","lat":56.23598,"lon":22.51667,"population":1938},{"id":594639,"name":"Simnas","ascii":"Simnas","lat":54.382,"lon":23.646,"population":1864},{"id":599420,"name":"Gelgaudiškis","ascii":"Gelgaudiskis","lat":55.07688,"lon":22.97699,"population":1839},{"id":595020,"name":"Salantai","ascii":"Salantai","lat":56.0565,"lon":21.5689,"population":1829},{"id":593748,"name":"Tytuvėnai","ascii":"Tytuvenai","lat":55.59791,"lon":23.20212,"population":1805},{"id":597440,"name":"Linkuva","ascii":"Linkuva","lat":56.08596,"lon":23.97061,"population":1719},{"id":595598,"name":"Priekulė","ascii":"Priekule","lat":55.55427,"lon":21.31903,"population":1710},{"id":600765,"name":"Baisogala","ascii":"Baisogala","lat":55.64,"lon":23.733,"population":1694},{"id":593338,"name":"Veisiejai","ascii":"Veisiejai","lat":54.1011,"lon":23.69614,"population":1654},{"id":596399,"name":"Pagėgiai","ascii":"Pagegiai","lat":55.13793,"lon":21.91378,"population":1576},{"id":594814,"name":"Senieji Trakai","ascii":"Senieji Trakai","lat":54.609,"lon":24.98,"population":1501},{"id":595387,"name":"Ramygala","ascii":"Ramygala","lat":55.514,"lon":24.3,"population":1440},{"id":597881,"name":"Kulautuva","ascii":"Kulautuva","lat":54.94212,"lon":23.64218,"population":1425},{"id":598392,"name":"Karmėlava","ascii":"Karmelava","lat":54.97055,"lon":24.06182,"population":1395},{"id":9610406,"name":"Mastaiciai","ascii":"Mastaiciai","lat":54.81998,"lon":23.84462,"population":1339},{"id":592942,"name":"Žagarė","ascii":"Zagare","lat":56.36149,"lon":23.25094,"population":1309},{"id":592828,"name":"Žemaičių Naumiestis","ascii":"Zemaiciu Naumiestis","lat":55.35941,"lon":21.70364,"population":1284},{"id":600040,"name":"Daugai","ascii":"Daugai","lat":54.36667,"lon":24.33333,"population":1279},{"id":596544,"name":"Obeliai","ascii":"Obeliai","lat":55.96895,"lon":25.15648,"population":1247},{"id":594867,"name":"Seda","ascii":"Seda","lat":56.16854,"lon":22.09071,"population":1224},{"id":597199,"name":"Matuizos","ascii":"Matuizos","lat":54.2753,"lon":24.68003,"population":1201},{"id":595726,"name":"Plateliai","ascii":"Plateliai","lat":56.04657,"lon":21.81615,"population":1100},{"id":593405,"name":"Senoji Varėna","ascii":"Senoji Varena","lat":54.25044,"lon":24.55088,"population":1073},{"id":600688,"name":"Baltoji Vokė","ascii":"Baltoji Voke","lat":54.60002,"lon":25.19318,"population":1071},{"id":598854,"name":"Jieznas","ascii":"Jieznas","lat":54.59937,"lon":24.17593,"population":1032},{"id":596102,"name":"Papilė","ascii":"Papile","lat":56.15091,"lon":22.79502,"population":1007}]