[{"id":2993458,"name":"Monaco","nameKo":"모나코","ascii":"Monaco","lat":43.73718,"lon":7.42145,"population":32965},{"id":2992741,"name":"Monte-Carlo","ascii":"Monte-Carlo","lat":43.73976,"lon":7.42732,"population":16012},{"id":3009937,"name":"La Condamine","ascii":"La Condamine","lat":43.73439,"lon":7.42024,"population":12167},{"id":13527010,"name":"La Rousse","ascii":"La Rousse","lat":43.74754,"lon":7.43141,"population":7087},{"id":13527009,"name":"Jardin Exotique","ascii":"Jardin Exotique","lat":43.73049,"lon":7.41399,"population":5117},{"id":3017814,"name":"Fontvieille","nameKo":"퐁비에유","ascii":"Fontvieille","lat":43.72687,"lon":7.41766,"population":3602},{"id":3319177,"name":"Moneghetti","ascii":"Moneghetti","lat":43.73679,"lon":7.41647,"population":3000},{"id":3225774,"name":"Saint-Roman","ascii":"Saint-Roman","lat":43.7489,"lon":7.43423,"population":3000},{"id":13527011,"name":"Larvotto","ascii":"Larvotto","lat":43.74361,"lon":7.43151,"population":2026},{"id":13527008,"name":"Monaco-Ville","ascii":"Monaco-Ville","lat":43.73147,"lon":7.4217,"population":1064}]