[{"id":1298824,"name":"Yangon","nameKo":"양곤","ascii":"Yangon","lat":16.80528,"lon":96.15611,"population":4477638},{"id":1311874,"name":"Mandalay","nameKo":"만달레이","ascii":"Mandalay","lat":21.97473,"lon":96.08359,"population":1208099},{"id":6611854,"name":"Nay Pyi Taw","nameKo":"네피도","ascii":"Nay Pyi Taw","lat":19.745,"lon":96.12972,"population":925000},{"id":8740157,"name":"Hlaingthaya","ascii":"Hlaingthaya","lat":16.85,"lon":96.06667,"population":687867},{"id":1308465,"name":"Mawlamyine","nameKo":"모울메인","ascii":"Mawlamyine","lat":16.49051,"lon":97.62825,"population":438861},{"id":1321218,"name":"Kalemyo","ascii":"Kalemyo","lat":23.19014,"lon":94.06405,"population":348573},{"id":1321937,"name":"Insein","ascii":"Insein","lat":16.88874,"lon":96.10257,"population":247675},{"id":1300466,"name":"Bago","nameKo":"바고","ascii":"Bago","lat":17.33521,"lon":96.48135,"population":244376},{"id":1329221,"name":"Amarapura","nameKo":"아마라푸라","ascii":"Amarapura","lat":21.90709,"lon":96.04894,"population":237618},{"id":1328421,"name":"Pathein","nameKo":"파테인","ascii":"Pathein","lat":16.77919,"lon":94.73212,"population":237089},{"id":1285693,"name":"Yawnghwe","ascii":"Yawnghwe","lat":20.65973,"lon":96.93376,"population":188083},{"id":1308522,"name":"Monywa","nameKo":"모니와","ascii":"Monywa","lat":22.10856,"lon":95.13583,"population":182011},{"id":1316752,"name":"Kyaukpyu","ascii":"Kyaukpyu","lat":19.42793,"lon":93.55134,"population":180000},{"id":1295765,"name":"Sittwe","nameKo":"시트웨","ascii":"Sittwe","lat":20.14624,"lon":92.89835,"population":177743},{"id":1309793,"name":"Meiktila","nameKo":"메이크틸라","ascii":"Meiktila","lat":20.87776,"lon":95.85844,"population":177442},{"id":1309611,"name":"Myeik","nameKo":"메르귀","ascii":"Myeik","lat":12.43954,"lon":98.60028,"population":173298},{"id":1319364,"name":"Kēng Tung","ascii":"Keng Tung","lat":21.63093,"lon":99.92676,"population":171620},{"id":1308318,"name":"Mu-se","ascii":"Mu-se","lat":23.99742,"lon":97.90109,"population":165022},{"id":1293960,"name":"Taunggyi","nameKo":"타웅지","ascii":"Taunggyi","lat":20.78919,"lon":97.03776,"population":160115},{"id":1307835,"name":"Myingyan","nameKo":"민지안","ascii":"Myingyan","lat":21.46002,"lon":95.3884,"population":141713},{"id":1293625,"name":"Dawei","nameKo":"다웨이","ascii":"Dawei","lat":14.0823,"lon":98.19151,"population":136783},{"id":1309233,"name":"Mingaladon","ascii":"Mingaladon","lat":16.92406,"lon":96.09768,"population":136000},{"id":1299154,"name":"Pyay","nameKo":"프롬","ascii":"Pyay","lat":18.81996,"lon":95.21562,"population":135308},{"id":1325211,"name":"Hinthada","nameKo":"힌타다","ascii":"Hinthada","lat":17.64944,"lon":95.45705,"population":134947},{"id":1316574,"name":"Kyauktan","ascii":"Kyauktan","lat":16.63736,"lon":96.32512,"population":132765},{"id":13589383,"name":"Mingala Tangnyunt","ascii":"Mingala Tangnyunt","lat":16.78855,"lon":96.17234,"population":132494},{"id":1314759,"name":"Lashio","nameKo":"라시오","ascii":"Lashio","lat":22.9359,"lon":97.7498,"population":131000},{"id":1302439,"name":"Pakokku","ascii":"Pakokku","lat":21.33489,"lon":95.08438,"population":126938},{"id":1292288,"name":"Thaton","ascii":"Thaton","lat":16.91867,"lon":97.37001,"population":123727},{"id":1328872,"name":"Ann","ascii":"Ann","lat":19.79537,"lon":94.04791,"population":119714},{"id":1309937,"name":"Pyin Oo Lwin","ascii":"Pyin Oo Lwin","lat":22.03501,"lon":96.45683,"population":117303},{"id":1308567,"name":"Möng Yang","ascii":"Moeng Yang","lat":21.8478,"lon":99.67651,"population":117108},{"id":1481927,"name":"Set Ka Lay","ascii":"Set Ka Lay","lat":16.81435,"lon":96.11393,"population":111514},{"id":1285173,"name":"Yenangyaung","ascii":"Yenangyaung","lat":20.46504,"lon":94.8712,"population":110553},{"id":1290596,"name":"Taungoo","nameKo":"타웅우","ascii":"Taungoo","lat":18.94291,"lon":96.43408,"population":106945},{"id":1292037,"name":"Thayetmyo","ascii":"Thayetmyo","lat":19.32076,"lon":95.18272,"population":98185},{"id":1298987,"name":"Pyinmana","nameKo":"핀마나","ascii":"Pyinmana","lat":19.7381,"lon":96.20742,"population":97409},{"id":1312609,"name":"Magway","ascii":"Magway","lat":20.14956,"lon":94.93246,"population":96954},{"id":1325259,"name":"Heho","ascii":"Heho","lat":20.72315,"lon":96.82278,"population":93041},{"id":1321275,"name":"Kalaw","nameKo":"칼로","ascii":"Kalaw","lat":20.63459,"lon":96.56454,"population":93032},{"id":1307741,"name":"Myitkyina","nameKo":"미치나","ascii":"Myitkyina","lat":25.38327,"lon":97.39637,"population":90894},{"id":1327659,"name":"Chauk","ascii":"Chauk","lat":20.89921,"lon":94.81784,"population":90870},{"id":1308937,"name":"Mogok","ascii":"Mogok","lat":22.91766,"lon":96.50982,"population":89855},{"id":1303406,"name":"Nyaunglebin","ascii":"Nyaunglebin","lat":17.95363,"lon":96.72247,"population":89626},{"id":13589382,"name":"Sangyoung","ascii":"Sangyoung","lat":16.80607,"lon":96.13355,"population":89618},{"id":1308415,"name":"Mudon","nameKo":"무둠","ascii":"Mudon","lat":16.25624,"lon":97.7246,"population":89123},{"id":1296736,"name":"Shwebo","ascii":"Shwebo","lat":22.56925,"lon":95.69818,"population":88914},{"id":1295087,"name":"Taikkyi","ascii":"Taikkyi","lat":17.31439,"lon":95.96293,"population":88000},{"id":1315056,"name":"Lakang","ascii":"Lakang","lat":24.66051,"lon":97.18923,"population":85423},{"id":1298482,"name":"Sagaing","ascii":"Sagaing","lat":21.8787,"lon":95.97965,"population":78739},{"id":1292443,"name":"Thanhlyin","ascii":"Thanhlyin","lat":16.78195,"lon":96.24678,"population":78667},{"id":1326703,"name":"Dawbon","ascii":"Dawbon","lat":16.51634,"lon":95.60285,"population":75325},{"id":1294041,"name":"Taungdwingyi","ascii":"Taungdwingyi","lat":20.0065,"lon":95.54531,"population":70094},{"id":1295395,"name":"Thanlyin","ascii":"Thanlyin","lat":16.76887,"lon":96.24503,"population":69448},{"id":1328121,"name":"Bogale","ascii":"Bogale","lat":16.29415,"lon":95.39742,"population":68938},{"id":1325814,"name":"Gwa","ascii":"Gwa","lat":17.59369,"lon":94.57996,"population":66015},{"id":1323815,"name":"Hpākān","ascii":"Hpakan","lat":25.6138,"lon":96.31482,"population":60123},{"id":1285899,"name":"Yamethin","ascii":"Yamethin","lat":20.43189,"lon":96.13875,"population":59867},{"id":1296645,"name":"Shwegu","ascii":"Shwegu","lat":24.22673,"lon":96.79085,"population":58696},{"id":1308078,"name":"Myaungmya","ascii":"Myaungmya","lat":16.59875,"lon":94.92111,"population":58205},{"id":1320944,"name":"Kanbe","ascii":"Kanbe","lat":16.70728,"lon":96.00168,"population":58146},{"id":1319573,"name":"Kawthoung","ascii":"Kawthoung","lat":9.98238,"lon":98.55034,"population":57949},{"id":1329239,"name":"Myaydo","ascii":"Myaydo","lat":19.36838,"lon":95.21512,"population":57395},{"id":1309289,"name":"Minbu","ascii":"Minbu","lat":20.18059,"lon":94.87595,"population":57342},{"id":1292507,"name":"Thanbyuzayat","ascii":"Thanbyuzayat","lat":15.96893,"lon":97.72745,"population":57208},{"id":1327854,"name":"Buthidaung Town","ascii":"Buthidaung Town","lat":20.87537,"lon":92.53,"population":55545},{"id":1328218,"name":"Bhamo","nameKo":"바모","ascii":"Bhamo","lat":24.25256,"lon":97.23357,"population":54721},{"id":1292313,"name":"Tharyarwady","ascii":"Tharyarwady","lat":17.65399,"lon":95.78813,"population":54386},{"id":1291193,"name":"Thongwa","ascii":"Thongwa","lat":16.75998,"lon":96.52498,"population":52496},{"id":1317397,"name":"Kyaiklat","ascii":"Kyaiklat","lat":16.44502,"lon":95.72373,"population":52425},{"id":1295301,"name":"Tachilek","ascii":"Tachilek","lat":20.4475,"lon":99.88083,"population":51553},{"id":1311909,"name":"Manaung","ascii":"Manaung","lat":18.85479,"lon":93.72913,"population":50680},{"id":1316703,"name":"Kyaukse","ascii":"Kyaukse","lat":21.6056,"lon":96.13508,"population":50480},{"id":1302849,"name":"Hpa-An","ascii":"Hpa-An","lat":16.88953,"lon":97.63482,"population":50000},{"id":1317375,"name":"Kyaikto","ascii":"Kyaikto","lat":17.30858,"lon":97.01124,"population":48658},{"id":1310460,"name":"Martaban","ascii":"Martaban","lat":16.52834,"lon":97.6157,"population":48629},{"id":1303351,"name":"Nyaung-U","nameKo":"냐웅우","ascii":"Nyaung-U","lat":21.20056,"lon":94.90827,"population":48528},{"id":1319898,"name":"Kawkareik","ascii":"Kawkareik","lat":16.55543,"lon":98.2371,"population":48468},{"id":1317402,"name":"Kyaikkami","ascii":"Kyaikkami","lat":16.07686,"lon":97.56388,"population":48100},{"id":1299237,"name":"Pyapon","ascii":"Pyapon","lat":16.28543,"lon":95.67882,"population":47082},{"id":1290374,"name":"Twante","ascii":"Twante","lat":16.70836,"lon":95.9336,"population":46516},{"id":1308052,"name":"Myawaddy","ascii":"Myawaddy","lat":16.68911,"lon":98.50893,"population":45000},{"id":1310120,"name":"Mawlaik","ascii":"Mawlaik","lat":23.64254,"lon":94.40478,"population":44540},{"id":1463107,"name":"Nyaung","ascii":"Nyaung","lat":16.83458,"lon":96.08796,"population":43828},{"id":1294761,"name":"Tamu","ascii":"Tamu","lat":24.21663,"lon":94.31216,"population":43737},{"id":1847826,"name":"Möng La","ascii":"Moeng La","lat":21.67112,"lon":100.01267,"population":43000},{"id":1316870,"name":"Kyaukpadaung","ascii":"Kyaukpadaung","lat":20.84158,"lon":95.1267,"population":42817},{"id":1316539,"name":"Kyauktan","ascii":"Kyauktan","lat":24.2782,"lon":95.89487,"population":42778},{"id":1289828,"name":"Wakema","ascii":"Wakema","lat":16.60333,"lon":95.18278,"population":42705},{"id":1310362,"name":"Maubin","ascii":"Maubin","lat":16.73148,"lon":95.65441,"population":42439},{"id":1291451,"name":"Thin Gan Kyun Gyi","ascii":"Thin Gan Kyun Gyi","lat":16.95735,"lon":96.15541,"population":42350},{"id":1308204,"name":"Myanaung","ascii":"Myanaung","lat":18.28651,"lon":95.32014,"population":42252},{"id":1463105,"name":"Oke Kan","ascii":"Oke Kan","lat":16.85299,"lon":96.06562,"population":42201},{"id":1294250,"name":"Tatkon","ascii":"Tatkon","lat":24.679,"lon":95.07416,"population":41683},{"id":1300567,"name":"Pazundaung","ascii":"Pazundaung","lat":16.79574,"lon":96.17493,"population":40690},{"id":1298911,"name":"Pyu","ascii":"Pyu","lat":18.4813,"lon":96.43742,"population":40386},{"id":1319533,"name":"Kayan","ascii":"Kayan","lat":16.90802,"lon":96.56037,"population":40322},{"id":1285871,"name":"Nyaungdon","ascii":"Nyaungdon","lat":17.04459,"lon":95.63957,"population":40092},{"id":1481655,"name":"Shwenatha","ascii":"Shwenatha","lat":16.98837,"lon":96.16219,"population":39989},{"id":1316943,"name":"Kyaukme","ascii":"Kyaukme","lat":22.5392,"lon":97.03434,"population":39930},{"id":1847816,"name":"Möng Yawng","ascii":"Moeng Yawng","lat":21.17924,"lon":100.35761,"population":39102},{"id":1314042,"name":"Letpandan","ascii":"Letpandan","lat":17.78664,"lon":95.75076,"population":38936},{"id":1324494,"name":"Hlegu","ascii":"Hlegu","lat":17.09567,"lon":96.22056,"population":38757},{"id":1326951,"name":"Daik-u","ascii":"Daik-u","lat":17.79506,"lon":96.66983,"population":38477},{"id":1292579,"name":"Thanatpin","ascii":"Thanatpin","lat":17.29136,"lon":96.57523,"population":38059},{"id":1300969,"name":"Paungde","ascii":"Paungde","lat":18.49167,"lon":95.50591,"population":36971},{"id":1327995,"name":"Botataung","ascii":"Botataung","lat":16.77182,"lon":96.17332,"population":36645},{"id":1307658,"name":"Mrauk U","ascii":"Mrauk U","lat":20.59,"lon":93.19062,"population":36139},{"id":1285606,"name":"Ye","ascii":"Ye","lat":15.24645,"lon":97.85506,"population":34430},{"id":1308464,"name":"Mawlamyinegyunn","ascii":"Mawlamyinegyunn","lat":16.3772,"lon":95.26488,"population":34107},{"id":1294547,"name":"Tangyan","ascii":"Tangyan","lat":22.49441,"lon":98.39277,"population":33603},{"id":1307101,"name":"Namhkam","ascii":"Namhkam","lat":23.83342,"lon":97.67984,"population":33382},{"id":1308910,"name":"Mohnyin","nameKo":"모인","ascii":"Mohnyin","lat":24.77822,"lon":96.36863,"population":33290},{"id":1286026,"name":"Wundwin","ascii":"Wundwin","lat":21.09417,"lon":96.02803,"population":32558},{"id":1299182,"name":"Pyawbwe","ascii":"Pyawbwe","lat":20.59193,"lon":96.05202,"population":32214},{"id":10793787,"name":"Danai","ascii":"Danai","lat":26.35926,"lon":96.71997,"population":31998},{"id":1316642,"name":"Kyauktaga","ascii":"Kyauktaga","lat":17.49468,"lon":96.97758,"population":31656},{"id":1328865,"name":"Aungban","ascii":"Aungban","lat":20.6606,"lon":96.63488,"population":30982},{"id":1284569,"name":"Ywar Ma West","ascii":"Ywar Ma West","lat":16.89672,"lon":96.09173,"population":30704},{"id":1313795,"name":"Lewe","ascii":"Lewe","lat":19.63606,"lon":96.10998,"population":30208},{"id":13546340,"name":"Pauk Kone","ascii":"Pauk Kone","lat":16.94566,"lon":96.14569,"population":29829},{"id":1315244,"name":"Labutta","ascii":"Labutta","lat":16.14948,"lon":94.75898,"population":29645},{"id":1314619,"name":"Lawksawk","ascii":"Lawksawk","lat":21.2481,"lon":96.86731,"population":29533},{"id":1301005,"name":"Paung","ascii":"Paung","lat":16.61753,"lon":97.45851,"population":29434},{"id":1296536,"name":"Shwe Lin Ban","ascii":"Shwe Lin Ban","lat":16.89659,"lon":96.06801,"population":28711},{"id":11778166,"name":"Payathonzu","ascii":"Payathonzu","lat":15.31771,"lon":98.38836,"population":27311},{"id":1301804,"name":"Panglong","ascii":"Panglong","lat":24.10051,"lon":98.31264,"population":27115},{"id":1293696,"name":"Taungup","ascii":"Taungup","lat":18.85609,"lon":94.24078,"population":26854},{"id":1320155,"name":"Katha","ascii":"Katha","lat":24.17541,"lon":96.34144,"population":26732},{"id":13546372,"name":"Pyan Lel Nay Yar Cha Htar Ye","ascii":"Pyan Lel Nay Yar Cha Htar Ye","lat":16.97189,"lon":96.1274,"population":26250},{"id":1324385,"name":"Hmaw Bi","ascii":"Hmaw Bi","lat":16.63557,"lon":97.61526,"population":25960},{"id":1320974,"name":"Kanbalu","ascii":"Kanbalu","lat":23.20328,"lon":95.51695,"population":25022},{"id":1308946,"name":"Mogaung","nameKo":"모가웅","ascii":"Mogaung","lat":25.30543,"lon":96.93537,"population":25012},{"id":1317682,"name":"Kutkai","ascii":"Kutkai","lat":23.45789,"lon":97.93799,"population":24963},{"id":1463081,"name":"Zee Kone","ascii":"Zee Kone","lat":16.94964,"lon":96.10227,"population":24948},{"id":1296614,"name":"Shwegyin","ascii":"Shwegyin","lat":17.92118,"lon":96.87676,"population":24579},{"id":1285457,"name":"Yedashe","ascii":"Yedashe","lat":19.15633,"lon":96.34593,"population":24420},{"id":1312649,"name":"Madaya","ascii":"Madaya","lat":22.21148,"lon":96.10387,"population":24234},{"id":1481671,"name":"Pawgan","ascii":"Pawgan","lat":16.90842,"lon":96.09778,"population":23992},{"id":1315749,"name":"Kyonpyaw","nameKo":"카요파요","ascii":"Kyonpyaw","lat":17.30132,"lon":95.19833,"population":23966},{"id":1306443,"name":"Nansang","ascii":"Nansang","lat":20.89184,"lon":97.71672,"population":23792},{"id":13546371,"name":"Min Ga Lar Don Zay","ascii":"Min Ga Lar Don Zay","lat":16.92316,"lon":96.11643,"population":23588},{"id":1316173,"name":"Kyeintali","ascii":"Kyeintali","lat":18.00611,"lon":94.49,"population":23581},{"id":13494766,"name":"Laukkai","ascii":"Laukkai","lat":23.69611,"lon":98.76214,"population":23435},{"id":1323949,"name":"Hopin","ascii":"Hopin","lat":24.99146,"lon":96.52681,"population":23352},{"id":1285094,"name":"Yesagyo","nameKo":"예자조","ascii":"Yesagyo","lat":21.63241,"lon":95.24619,"population":23329},{"id":1463085,"name":"Ah Lel","ascii":"Ah Lel","lat":16.9224,"lon":96.06344,"population":23214},{"id":1286591,"name":"Waw","ascii":"Waw","lat":17.47702,"lon":96.67828,"population":23143},{"id":1481706,"name":"Sinngu","ascii":"Sinngu","lat":16.9132,"lon":96.0974,"population":22861},{"id":13546411,"name":"Da Nyin Kone","ascii":"Da Nyin Kone","lat":16.93342,"lon":96.0931,"population":22688},{"id":1294974,"name":"Kone Ta La Paung","ascii":"Kone Ta La Paung","lat":17.00845,"lon":96.14971,"population":22667},{"id":1284225,"name":"Zalun","ascii":"Zalun","lat":17.47941,"lon":95.55924,"population":21947},{"id":13546405,"name":"Saw Bwar Gyi Kone","ascii":"Saw Bwar Gyi Kone","lat":16.88644,"lon":96.12818,"population":20811},{"id":1285002,"name":"Ye-u","ascii":"Ye-u","lat":22.76722,"lon":95.42758,"population":20458},{"id":1325443,"name":"Hakha","ascii":"Hakha","lat":22.64452,"lon":93.61076,"population":20000},{"id":11072083,"name":"Tedim","ascii":"Tedim","lat":23.37583,"lon":93.65389,"population":20000},{"id":1322148,"name":"Ingabu","ascii":"Ingabu","lat":17.81192,"lon":95.27044,"population":19876},{"id":1316499,"name":"Kyauktaw","ascii":"Kyauktaw","lat":20.84468,"lon":92.97527,"population":19492},{"id":13546407,"name":"Taung Thu Kone","ascii":"Taung Thu Kone","lat":16.89815,"lon":96.11018,"population":19350},{"id":1481929,"name":"Myenigon","ascii":"Myenigon","lat":16.80623,"lon":96.13506,"population":18614},{"id":13546410,"name":"Aung San","ascii":"Aung San","lat":16.92153,"lon":96.09715,"population":18555},{"id":13546403,"name":"Myo Thit Ka","ascii":"Myo Thit Ka","lat":16.87373,"lon":96.09702,"population":18491},{"id":1481644,"name":"Okpo","ascii":"Okpo","lat":16.97266,"lon":96.0882,"population":17812},{"id":1313479,"name":"Loikaw","ascii":"Loikaw","lat":19.67798,"lon":97.20975,"population":17293},{"id":13546408,"name":"Ywar Ma East","ascii":"Ywar Ma East","lat":16.8993,"lon":96.10319,"population":16376},{"id":13546404,"name":"Kyo Kone East","ascii":"Kyo Kone East","lat":16.88578,"lon":96.11463,"population":16270},{"id":1288322,"name":"Pangkham","nameKo":"팡캄","ascii":"Pangkham","lat":22.17924,"lon":99.16666,"population":15936},{"id":1463102,"name":"Shan Chaung","ascii":"Shan Chaung","lat":16.86034,"lon":96.09011,"population":15934},{"id":13546398,"name":"Kan Nar Middle","ascii":"Kan Nar Middle","lat":16.88052,"lon":96.09703,"population":15390},{"id":1300310,"name":"Pèkon","ascii":"Pekon","lat":19.86766,"lon":97.00668,"population":15323},{"id":1283878,"name":"Zigon","ascii":"Zigon","lat":18.33559,"lon":95.6215,"population":15233},{"id":1481890,"name":"Setsan","ascii":"Setsan","lat":16.81025,"lon":96.11401,"population":15111},{"id":1463094,"name":"Kalagyisu","ascii":"Kalagyisu","lat":16.88268,"lon":96.0304,"population":14818},{"id":1324528,"name":"Hlaw Kar","ascii":"Hlaw Kar","lat":17.00039,"lon":96.07009,"population":14162},{"id":1303830,"name":"Nwe Khway","ascii":"Nwe Khway","lat":17.0231,"lon":96.1458,"population":14159},{"id":1463026,"name":"Pyin Ma Pin","ascii":"Pyin Ma Pin","lat":16.9958,"lon":96.13152,"population":14025},{"id":1297516,"name":"Seikgyi","ascii":"Seikgyi","lat":16.7635,"lon":96.11126,"population":13940},{"id":1298601,"name":"Sar Bu Taung","ascii":"Sar Bu Taung","lat":17.21299,"lon":96.22972,"population":13649},{"id":1320189,"name":"Kasin","ascii":"Kasin","lat":16.88672,"lon":96.08247,"population":13349},{"id":12403084,"name":"Hpaung Gyi East","ascii":"Hpaung Gyi East","lat":17.33455,"lon":96.17541,"population":13129},{"id":1328955,"name":"Ah Twin Pa Dan","ascii":"Ah Twin Pa Dan","lat":16.87159,"lon":96.0295,"population":12972},{"id":1322301,"name":"Inbawhkon","ascii":"Inbawhkon","lat":20.4459,"lon":96.89594,"population":12481},{"id":13546406,"name":"Nant Thar Kone","ascii":"Nant Thar Kone","lat":16.89275,"lon":96.11144,"population":12304},{"id":1481696,"name":"Kyo Kone West","ascii":"Kyo Kone West","lat":16.87333,"lon":96.11306,"population":12256},{"id":1309205,"name":"Min Kone","ascii":"Min Kone","lat":17.3519,"lon":96.2103,"population":12127},{"id":1309866,"name":"Me Taw","ascii":"Me Taw","lat":11.71716,"lon":98.6303,"population":12050},{"id":13546366,"name":"Chit Tee Kone","ascii":"Chit Tee Kone","lat":16.93153,"lon":96.15921,"population":11620},{"id":1294204,"name":"Taukkyan","ascii":"Taukkyan","lat":17.04351,"lon":96.13629,"population":11497},{"id":12403088,"name":"Dar Pein South","ascii":"Dar Pein South","lat":17.02999,"lon":96.36601,"population":11424},{"id":1317343,"name":"Kyar Inn West","ascii":"Kyar Inn West","lat":17.17402,"lon":96.1381,"population":11402},{"id":1304530,"name":"Ngapali","ascii":"Ngapali","lat":18.43664,"lon":94.32215,"population":11000},{"id":10242629,"name":"Htantabin","ascii":"Htantabin","lat":17.1333,"lon":95.9167,"population":10977},{"id":1329548,"name":"Ahlone","ascii":"Ahlone","lat":16.78897,"lon":96.12649,"population":10943},{"id":13546409,"name":"Ywar Ma Middle","ascii":"Ywar Ma Middle","lat":16.8951,"lon":96.09702,"population":10904},{"id":1481898,"name":"Ah Pyin Pa Dan","ascii":"Ah Pyin Pa Dan","lat":16.86061,"lon":96.02815,"population":10712},{"id":1321921,"name":"Inn Taing","ascii":"Inn Taing","lat":17.1153,"lon":96.3228,"population":10675},{"id":1284120,"name":"Za Yat Kwin","ascii":"Za Yat Kwin","lat":17.15188,"lon":96.31343,"population":10439},{"id":13546373,"name":"Pyi Taw Thar","ascii":"Pyi Taw Thar","lat":16.93592,"lon":96.12686,"population":10365},{"id":1299371,"name":"Putao","ascii":"Putao","lat":27.35264,"lon":97.40038,"population":10000},{"id":13546368,"name":"Kyan Khin Su","ascii":"Kyan Khin Su","lat":16.89506,"lon":96.14205,"population":9994},{"id":1320997,"name":"Kanaungto","ascii":"Kanaungto","lat":16.76385,"lon":96.097,"population":9984},{"id":13561226,"name":"Shwe Kokko","ascii":"Shwe Kokko","lat":16.82082,"lon":98.53085,"population":9837},{"id":13546369,"name":"San Gyi Wa","ascii":"San Gyi Wa","lat":16.93503,"lon":96.13747,"population":9764},{"id":1289709,"name":"War Net Kone","ascii":"War Net Kone","lat":17.12959,"lon":96.26851,"population":9683},{"id":1481673,"name":"Kan Nar West","ascii":"Kan Nar West","lat":16.88099,"lon":96.09251,"population":9476},{"id":1315592,"name":"Kyun Ka Lay","ascii":"Kyun Ka Lay","lat":17.08506,"lon":96.19835,"population":9411},{"id":13546462,"name":"Ward 1","ascii":"Ward 1","lat":16.91342,"lon":96.18941,"population":9352},{"id":13546401,"name":"Zay Kone East","ascii":"Zay Kone East","lat":16.88353,"lon":96.10963,"population":9327},{"id":1325467,"name":"Haing Ku","ascii":"Haing Ku","lat":17.277,"lon":96.19017,"population":9093},{"id":13546367,"name":"Htauk Kyant Toe Cheit","ascii":"Htauk Kyant Toe Cheit","lat":17.03191,"lon":96.13959,"population":9045},{"id":1463190,"name":"Seikgyi","ascii":"Seikgyi","lat":16.78968,"lon":96.11302,"population":8905},{"id":1321209,"name":"Kalewa","ascii":"Kalewa","lat":23.19762,"lon":94.30221,"population":8819},{"id":1293586,"name":"Taw Pyar","ascii":"Taw Pyar","lat":12.21627,"lon":98.45449,"population":8804},{"id":1480237,"name":"Ye Su","ascii":"Ye Su","lat":17.0556,"lon":96.12869,"population":8537},{"id":1481708,"name":"Ananbin","ascii":"Ananbin","lat":16.91318,"lon":96.13335,"population":8419},{"id":1292931,"name":"Tha Pyay Kone","ascii":"Tha Pyay Kone","lat":16.73284,"lon":96.14139,"population":8342},{"id":1481694,"name":"Peinnegon","ascii":"Peinnegon","lat":16.88177,"lon":96.10346,"population":8233},{"id":13546466,"name":"Ward 5","ascii":"Ward 5","lat":16.89272,"lon":96.19986,"population":8168},{"id":13526961,"name":"Pa Du Mone","ascii":"Pa Du Mone","lat":26.00669,"lon":95.8647,"population":7996},{"id":1463232,"name":"Nyaung Waing","ascii":"Nyaung Waing","lat":16.66722,"lon":96.32301,"population":7988},{"id":13546402,"name":"Myo Thit Ga","ascii":"Myo Thit Ga","lat":16.86508,"lon":96.09879,"population":7869},{"id":1326279,"name":"Don Wun","ascii":"Don Wun","lat":17.14201,"lon":97.27444,"population":7775},{"id":1292208,"name":"Tha Wun Taw","ascii":"Tha Wun Taw","lat":16.76117,"lon":95.93605,"population":7422},{"id":1328348,"name":"Bawhan","ascii":"Bawhan","lat":19.86773,"lon":96.83192,"population":7302},{"id":1463186,"name":"Ta Dar Chaung","ascii":"Ta Dar Chaung","lat":16.73949,"lon":96.17307,"population":7240},{"id":12403083,"name":"Hpaung Gyi West","ascii":"Hpaung Gyi West","lat":17.32838,"lon":96.17298,"population":7216},{"id":1463025,"name":"Kyaung Kone","ascii":"Kyaung Kone","lat":17.00058,"lon":96.08275,"population":6809},{"id":1300701,"name":"Hpa Yar Gyi","ascii":"Hpa Yar Gyi","lat":16.65567,"lon":96.01853,"population":6349},{"id":1300700,"name":"Hpa Yar Gyi Su","ascii":"Hpa Yar Gyi Su","lat":16.73993,"lon":96.05901,"population":6349},{"id":1305715,"name":"Nat Sin Kone","ascii":"Nat Sin Kone","lat":16.59729,"lon":96.05138,"population":6272},{"id":1463228,"name":"Shwe Pyauk","ascii":"Shwe Pyauk","lat":16.6605,"lon":96.31287,"population":6149},{"id":1309401,"name":"Mee Pya","ascii":"Mee Pya","lat":16.54489,"lon":96.32128,"population":5740},{"id":1463210,"name":"Kyaik Tha Le","ascii":"Kyaik Tha Le","lat":16.67286,"lon":96.0135,"population":5718},{"id":13562172,"name":"Dimawso","ascii":"Dimawso","lat":19.54982,"lon":97.15604,"population":5621},{"id":12404163,"name":"Kan Beit","ascii":"Kan Beit","lat":16.72491,"lon":95.99371,"population":5568},{"id":1293120,"name":"Tanintharyi","ascii":"Tanintharyi","lat":12.09032,"lon":99.01165,"population":5514},{"id":13546374,"name":"Taw Taik","ascii":"Taw Taik","lat":16.95822,"lon":96.11501,"population":5465},{"id":1299184,"name":"Pyawbwe Gyi","ascii":"Pyawbwe Gyi","lat":16.67735,"lon":96.14391,"population":5438},{"id":1326105,"name":"Falam","nameKo":"팔람","ascii":"Falam","lat":22.91335,"lon":93.67779,"population":5404},{"id":12402945,"name":"Htein Hnit Pin","ascii":"Htein Hnit Pin","lat":16.96716,"lon":95.99132,"population":5383},{"id":1328076,"name":"Bokpyin","ascii":"Bokpyin","lat":11.26576,"lon":98.76087,"population":5324},{"id":1309230,"name":"Min Ga Lun","ascii":"Min Ga Lun","lat":16.57786,"lon":96.4619,"population":5273},{"id":1283976,"name":"Zi Byu Gon","ascii":"Zi Byu Gon","lat":16.73718,"lon":95.91683,"population":5221},{"id":1321188,"name":"Ka Lok","ascii":"Ka Lok","lat":16.67381,"lon":95.92348,"population":5100},{"id":1299225,"name":"Pya Tha Taik","ascii":"Pya Tha Taik","lat":16.64254,"lon":95.91808,"population":5014},{"id":1285198,"name":"Ye Mun","ascii":"Ye Mun","lat":17.14281,"lon":96.28308,"population":5013},{"id":11524872,"name":"Tagondaing","nameKo":"타군다잉","ascii":"Tagondaing","lat":16.0675,"lon":97.90694,"population":4994},{"id":1480133,"name":"Ngazutaung","ascii":"Ngazutaung","lat":17.21098,"lon":96.20858,"population":4986},{"id":12402807,"name":"Ma Se Zeik","ascii":"Ma Se Zeik","lat":16.53232,"lon":95.92238,"population":4977},{"id":1290372,"name":"Twen Te Wa","ascii":"Twen Te Wa","lat":16.66602,"lon":95.85877,"population":4975},{"id":13526952,"name":"Zee Hpyu Kone","ascii":"Zee Hpyu Kone","lat":25.99045,"lon":95.69677,"population":4960},{"id":1481693,"name":"Pauktaw","ascii":"Pauktaw","lat":16.8834,"lon":96.0948,"population":4876},{"id":1298063,"name":"Sane","ascii":"Sane","lat":19.21628,"lon":93.73234,"population":4821},{"id":1480047,"name":"Gway Tauk Aing","ascii":"Gway Tauk Aing","lat":17.2942,"lon":96.19146,"population":4814},{"id":12404118,"name":"Shwe Hle Gyaung","ascii":"Shwe Hle Gyaung","lat":16.66135,"lon":95.86095,"population":4791},{"id":12253851,"name":"Thar Yar Kone","ascii":"Thar Yar Kone","lat":21.85717,"lon":96.06315,"population":4777},{"id":1316233,"name":"Kye","ascii":"Kye","lat":12.79827,"lon":98.72254,"population":4747},{"id":1321137,"name":"Ka Mar Ka Loke","ascii":"Ka Mar Ka Loke","lat":16.55016,"lon":96.41383,"population":4693},{"id":1320085,"name":"Khat Hti Ya Ywar Thit","ascii":"Khat Hti Ya Ywar Thit","lat":16.88498,"lon":95.8456,"population":4650},{"id":1305975,"name":"Nan Ti","ascii":"Nan Ti","lat":17.23509,"lon":96.19443,"population":4643},{"id":1286321,"name":"Wet Kaik","ascii":"Wet Kaik","lat":16.37391,"lon":96.23289,"population":4633},{"id":1302895,"name":"Ohn Hne Kone","ascii":"Ohn Hne Kone","lat":17.10699,"lon":96.2563,"population":4620},{"id":1298558,"name":"Sar Ta Lin","ascii":"Sar Ta Lin","lat":17.06227,"lon":96.30805,"population":4550},{"id":12404176,"name":"Htaw Tho","ascii":"Htaw Tho","lat":16.69987,"lon":95.97845,"population":4488},{"id":11810635,"name":"Kyain Seikgyi","ascii":"Kyain Seikgyi","lat":15.82288,"lon":98.25257,"population":4428},{"id":12403096,"name":"Ah Lan Ga Po","ascii":"Ah Lan Ga Po","lat":17.12326,"lon":96.34364,"population":4330},{"id":1312344,"name":"Mahlwagon","ascii":"Mahlwagon","lat":16.80418,"lon":96.18376,"population":4321},{"id":12402671,"name":"Taw Kha Yan Lay","ascii":"Taw Kha Yan Lay","lat":16.4229,"lon":95.92105,"population":4283},{"id":12402676,"name":"Taw Kha Yan Ah Nauk","ascii":"Taw Kha Yan Ah Nauk","lat":16.40815,"lon":96.04138,"population":4214},{"id":1300067,"name":"Pi La Khat","ascii":"Pi La Khat","lat":16.46168,"lon":96.26459,"population":4141},{"id":6262518,"name":"Pan Taw","ascii":"Pan Taw","lat":16.62658,"lon":96.3461,"population":4060},{"id":1294959,"name":"Ta Hlaing Hmi","ascii":"Ta Hlaing Hmi","lat":17.12677,"lon":95.7976,"population":4002},{"id":1290046,"name":"War Ba Lauk Thauk","ascii":"War Ba Lauk Thauk","lat":16.5167,"lon":96.17086,"population":3968},{"id":1482070,"name":"Pyawbwe Lay","ascii":"Pyawbwe Lay","lat":16.7458,"lon":96.0917,"population":3961},{"id":12404145,"name":"Kyun Bet","ascii":"Kyun Bet","lat":16.64774,"lon":95.85188,"population":3960},{"id":1305698,"name":"Nattalin","ascii":"Nattalin","lat":18.42958,"lon":95.55279,"population":3945},{"id":1298577,"name":"Sar Hpyu Su","ascii":"Sar Hpyu Su","lat":16.85313,"lon":95.94641,"population":3943},{"id":1290814,"name":"To","ascii":"To","lat":12.86724,"lon":98.65982,"population":3924},{"id":12402812,"name":"Kyaik Htaw North","ascii":"Kyaik Htaw North","lat":16.51757,"lon":95.85997,"population":3918},{"id":13546464,"name":"Ward 3","ascii":"Ward 3","lat":16.90454,"lon":96.20028,"population":3910},{"id":12403091,"name":"Dar Pein North","ascii":"Dar Pein North","lat":17.03728,"lon":96.3661,"population":3902},{"id":1320386,"name":"Ka Nyin Kone","ascii":"Ka Nyin Kone","lat":16.33719,"lon":96.12515,"population":3825},{"id":1320257,"name":"Ka Pin Gyi","ascii":"Ka Pin Gyi","lat":16.61408,"lon":95.83121,"population":3797},{"id":12404193,"name":"Ah Shey Ah Yoe Taung","ascii":"Ah Shey Ah Yoe Taung","lat":16.6306,"lon":95.96894,"population":3769},{"id":13546465,"name":"Ward 4","ascii":"Ward 4","lat":16.89787,"lon":96.1973,"population":3721},{"id":13546418,"name":"Yangon Rubber Chan","ascii":"Yangon Rubber Chan","lat":16.68074,"lon":95.93943,"population":3687},{"id":12404189,"name":"Ga Yet La Mi","ascii":"Ga Yet La Mi","lat":16.63475,"lon":95.85423,"population":3685},{"id":1297165,"name":"Shan Te Gyi Upper","ascii":"Shan Te Gyi Upper","lat":17.03739,"lon":96.30293,"population":3647},{"id":12402885,"name":"Ne Tha Mein","ascii":"Ne Tha Mein","lat":17.03742,"lon":95.82138,"population":3628},{"id":1295219,"name":"Ta Ge Hle","ascii":"Ta Ge Hle","lat":16.7461,"lon":95.9877,"population":3612},{"id":1463297,"name":"Ma Gyi Kan","ascii":"Ma Gyi Kan","lat":16.56483,"lon":96.05889,"population":3608},{"id":12402967,"name":"Ah Twin Yae Kyaw","ascii":"Ah Twin Yae Kyaw","lat":16.59729,"lon":95.89001,"population":3558},{"id":1320912,"name":"Kan Pyaung","ascii":"Kan Pyaung","lat":16.68325,"lon":96.41117,"population":3531},{"id":1302788,"name":"Par Da Gyi","ascii":"Par Da Gyi","lat":16.65679,"lon":96.32383,"population":3509},{"id":1329064,"name":"Ah Hpyauk","ascii":"Ah Hpyauk","lat":16.61644,"lon":96.04749,"population":3458},{"id":12402824,"name":"Ma Ngay Su","ascii":"Ma Ngay Su","lat":16.9345,"lon":95.90199,"population":3448},{"id":1292732,"name":"Tha Khut Pin","ascii":"Tha Khut Pin","lat":16.60551,"lon":96.2294,"population":3384},{"id":13546463,"name":"Ward 2","ascii":"Ward 2","lat":16.89158,"lon":96.20589,"population":3374},{"id":13526964,"name":"Paw Maing","ascii":"Paw Maing","lat":25.99743,"lon":95.65073,"population":3358},{"id":12404170,"name":"Ka Li Htaw","ascii":"Ka Li Htaw","lat":16.77868,"lon":95.99299,"population":3355},{"id":1318168,"name":"Kon Wet Chaung","ascii":"Kon Wet Chaung","lat":16.68917,"lon":95.92141,"population":3330},{"id":1310236,"name":"Ma Au","ascii":"Ma Au","lat":16.96459,"lon":96.35806,"population":3323},{"id":1463193,"name":"Let Pan Gwa","ascii":"Let Pan Gwa","lat":16.76191,"lon":96.06709,"population":3309},{"id":13546412,"name":"Pa Thi","ascii":"Pa Thi","lat":16.67728,"lon":95.87461,"population":3299},{"id":1297246,"name":"Sha Bwa","ascii":"Sha Bwa","lat":16.60935,"lon":95.93794,"population":3295},{"id":13546339,"name":"Ti Law Kar Yon","ascii":"Ti Law Kar Yon","lat":17.04137,"lon":96.12676,"population":3243},{"id":1285319,"name":"Yae Kyaw","ascii":"Yae Kyaw","lat":16.7799,"lon":96.00861,"population":3237},{"id":1329336,"name":"Ale Gyaung","ascii":"Ale Gyaung","lat":16.58927,"lon":95.8676,"population":3226},{"id":12403092,"name":"Bar Lar Upper","ascii":"Bar Lar Upper","lat":16.9892,"lon":96.18,"population":3222},{"id":12403072,"name":"Ma Yan Chaung","ascii":"Ma Yan Chaung","lat":17.40539,"lon":96.2136,"population":3217},{"id":1302349,"name":"Pu Law Kone","ascii":"Pu Law Kone","lat":13.01426,"lon":98.68045,"population":3209},{"id":1463316,"name":"In Ga Lone","ascii":"In Ga Lone","lat":16.4844,"lon":96.06002,"population":3166},{"id":12404111,"name":"Ta Gun Daing","ascii":"Ta Gun Daing","lat":16.74474,"lon":95.88041,"population":3149},{"id":13513213,"name":"Pan Set","ascii":"Pan Set","lat":23.04885,"lon":94.71488,"population":3145},{"id":1285321,"name":"Yae Kyaw","ascii":"Yae Kyaw","lat":16.70114,"lon":96.34205,"population":3126},{"id":13546414,"name":"Tu Chaung Gyi","ascii":"Tu Chaung Gyi","lat":16.81595,"lon":95.87418,"population":3122},{"id":1480171,"name":"Kyauk Ku Din","ascii":"Kyauk Ku Din","lat":17.1714,"lon":96.21762,"population":3102},{"id":1480753,"name":"Tha Nat Pyin","ascii":"Tha Nat Pyin","lat":17.07997,"lon":96.31551,"population":3052},{"id":12402839,"name":"Than Pu Yar Khon","ascii":"Than Pu Yar Khon","lat":16.9411,"lon":95.95557,"population":3050},{"id":1321004,"name":"Kha Naung Ywar Ma","ascii":"Kha Naung Ywar Ma","lat":16.70341,"lon":96.18311,"population":3042},{"id":1308236,"name":"Mya Kaing","ascii":"Mya Kaing","lat":16.58588,"lon":96.52793,"population":3034},{"id":1482245,"name":"Yae Kyaw Su","ascii":"Yae Kyaw Su","lat":16.67635,"lon":96.04359,"population":3034},{"id":1301321,"name":"Papun","ascii":"Papun","lat":18.06207,"lon":97.44233,"population":3028},{"id":1328328,"name":"Baw Lel","ascii":"Baw Lel","lat":17.16021,"lon":95.78879,"population":3020},{"id":1299570,"name":"Boe Yin Ka Lay","ascii":"Boe Yin Ka Lay","lat":17.03633,"lon":96.25929,"population":2977},{"id":1321288,"name":"Kha Lauk Chaik","ascii":"Kha Lauk Chaik","lat":16.84119,"lon":96.06279,"population":2972},{"id":1463188,"name":"Ta Man Gyi Ta Khun Taing","ascii":"Ta Man Gyi Ta Khun Taing","lat":16.80497,"lon":96.02395,"population":2948},{"id":1481818,"name":"Wazu","ascii":"Wazu","lat":16.78804,"lon":96.19058,"population":2913},{"id":1295991,"name":"Sinpon","ascii":"Sinpon","lat":16.95434,"lon":96.19939,"population":2911},{"id":1329575,"name":"A Dun","ascii":"A Dun","lat":16.71155,"lon":95.85189,"population":2891},{"id":1482250,"name":"Tone Tin Gan South","ascii":"Tone Tin Gan South","lat":16.6617,"lon":96.19424,"population":2887},{"id":1292016,"name":"Tha Yet Pin Chaung","ascii":"Tha Yet Pin Chaung","lat":16.9132,"lon":96.33854,"population":2871},{"id":13562013,"name":"La Mu Tan Gyi","ascii":"La Mu Tan Gyi","lat":17.03093,"lon":95.9596,"population":2834},{"id":12404109,"name":"Ta Loke Htaw","ascii":"Ta Loke Htaw","lat":16.70881,"lon":95.96113,"population":2833},{"id":12402801,"name":"Myauk Chaung","ascii":"Myauk Chaung","lat":16.54715,"lon":96.03914,"population":2784},{"id":1329044,"name":"Ah Se","ascii":"Ah Se","lat":16.5967,"lon":96.46297,"population":2766},{"id":1311854,"name":"Man Ga leik","ascii":"Man Ga leik","lat":16.48219,"lon":95.9649,"population":2739},{"id":1463313,"name":"Let Khaik","ascii":"Let Khaik","lat":16.52224,"lon":96.07016,"population":2731},{"id":12402782,"name":"Ta Lok Taw","ascii":"Ta Lok Taw","lat":16.58208,"lon":95.91724,"population":2729},{"id":12403080,"name":"Ka Li Htaw East","ascii":"Ka Li Htaw East","lat":17.14627,"lon":96.22474,"population":2725},{"id":12402675,"name":"Taw Kha Yan Ah Shey","ascii":"Taw Kha Yan Ah Shey","lat":16.41009,"lon":96.05215,"population":2710},{"id":6262487,"name":"Taungtalok","ascii":"Taungtalok","lat":16.96798,"lon":96.26226,"population":2699},{"id":13546451,"name":"Wein Nawng","ascii":"Wein Nawng","lat":21.83578,"lon":98.58703,"population":2690},{"id":1303691,"name":"Nyaung Pin Thar","ascii":"Nyaung Pin Thar","lat":16.48693,"lon":96.12407,"population":2684},{"id":13526960,"name":"Nant Hpar","ascii":"Nant Hpar","lat":26.06813,"lon":95.80374,"population":2679},{"id":1299781,"name":"Pokthinnyo","ascii":"Pokthinnyo","lat":17.32161,"lon":96.13567,"population":2660},{"id":12402815,"name":"Kha Laung Ywa Ma","ascii":"Kha Laung Ywa Ma","lat":16.60193,"lon":95.90492,"population":2641},{"id":13526959,"name":"Hman Pin","ascii":"Hman Pin","lat":26.02203,"lon":95.75618,"population":2616},{"id":13526951,"name":"Sin Thay","ascii":"Sin Thay","lat":26.02343,"lon":95.66348,"population":2611},{"id":12403073,"name":"Ma Lit West","ascii":"Ma Lit West","lat":16.98748,"lon":96.23837,"population":2603},{"id":1463268,"name":"Ywar Thit Ka Lay","ascii":"Ywar Thit Ka Lay","lat":16.59728,"lon":96.40877,"population":2599},{"id":12404093,"name":"Yae Twin Kone","ascii":"Yae Twin Kone","lat":16.81761,"lon":95.96,"population":2587},{"id":1283760,"name":"Zwe Bar Kone Tan","ascii":"Zwe Bar Kone Tan","lat":16.53163,"lon":96.3576,"population":2560},{"id":1326431,"name":"Day Da Naw","ascii":"Day Da Naw","lat":16.47165,"lon":96.04791,"population":2503},{"id":12403077,"name":"Ka Li Htaw West","ascii":"Ka Li Htaw West","lat":17.13744,"lon":96.21996,"population":2493},{"id":1463209,"name":"San","ascii":"San","lat":16.69835,"lon":96.01162,"population":2492},{"id":12404140,"name":"Kywe Da Yut","ascii":"Kywe Da Yut","lat":16.88961,"lon":95.92697,"population":2478},{"id":12404092,"name":"Yangon Pauk","ascii":"Yangon Pauk","lat":16.71245,"lon":96.04631,"population":2476},{"id":13546337,"name":"Aye Ka Rit","ascii":"Aye Ka Rit","lat":17.04957,"lon":96.13839,"population":2468},{"id":1300438,"name":"Peik Swei","ascii":"Peik Swei","lat":16.72593,"lon":96.06932,"population":2461},{"id":13546399,"name":"Kwet Thit","ascii":"Kwet Thit","lat":16.88695,"lon":96.09845,"population":2449},{"id":1305949,"name":"Nanyun","ascii":"Nanyun","lat":26.97997,"lon":96.16855,"population":2444},{"id":12402811,"name":"Kyaik Htaw South","ascii":"Kyaik Htaw South","lat":16.51451,"lon":95.85516,"population":2394},{"id":12402820,"name":"Auk Kyaung","ascii":"Auk Kyaung","lat":16.50842,"lon":95.84739,"population":2379},{"id":1482073,"name":"Htaw Lower","ascii":"Htaw Lower","lat":16.71917,"lon":96.11992,"population":2365},{"id":1317416,"name":"Kya Khat Kone Gyi","ascii":"Kya Khat Kone Gyi","lat":16.39038,"lon":96.17691,"population":2348},{"id":1300352,"name":"Pein Hne Kone","ascii":"Pein Hne Kone","lat":16.63814,"lon":96.03009,"population":2345},{"id":1290535,"name":"Htu Gyi","ascii":"Htu Gyi","lat":16.69718,"lon":96.10075,"population":2337},{"id":12402776,"name":"Wa Thin Kha","ascii":"Wa Thin Kha","lat":16.49836,"lon":95.90459,"population":2331},{"id":12403053,"name":"War Yon Sun","ascii":"War Yon Sun","lat":17.08466,"lon":96.34039,"population":2330},{"id":1323011,"name":"Hsupwo","ascii":"Hsupwo","lat":21.83606,"lon":98.82949,"population":2324},{"id":1296357,"name":"Si In","ascii":"Si In","lat":24.24537,"lon":97.29221,"population":2306},{"id":13546422,"name":"Than Man Chaung","ascii":"Than Man Chaung","lat":16.66941,"lon":96.13512,"population":2290},{"id":1463201,"name":"Gyaung Waing Gyi","ascii":"Gyaung Waing Gyi","lat":16.78501,"lon":96.09334,"population":2288},{"id":1303524,"name":"Nyaung Gon","ascii":"Nyaung Gon","lat":16.5418,"lon":95.90443,"population":2281},{"id":1463314,"name":"Lar Wa Di","ascii":"Lar Wa Di","lat":16.51343,"lon":96.07035,"population":2280},{"id":1295807,"name":"Sitpin","ascii":"Sitpin","lat":16.95499,"lon":96.23094,"population":2267},{"id":1292257,"name":"Taung Kone","ascii":"Taung Kone","lat":16.45663,"lon":96.3146,"population":2222},{"id":1286466,"name":"Wea Gyi","ascii":"Wea Gyi","lat":16.6389,"lon":96.4608,"population":2214},{"id":12402667,"name":"Taw Ku Ah Shey","ascii":"Taw Ku Ah Shey","lat":16.43894,"lon":96.11591,"population":2213},{"id":1480872,"name":"Moke Soe Nyaung Pin","ascii":"Moke Soe Nyaung Pin","lat":17.0578,"lon":96.25026,"population":2201},{"id":12452729,"name":"Tha Yet Kone","ascii":"Tha Yet Kone","lat":24.82763,"lon":96.36492,"population":2201},{"id":1324378,"name":"Hmaw Daw","ascii":"Hmaw Daw","lat":16.48484,"lon":95.89326,"population":2191},{"id":13546335,"name":"Du-San Pya","ascii":"Du-San Pya","lat":17.03819,"lon":96.14,"population":2173},{"id":12402691,"name":"Min Ga Lun Kya Khat Kone Lay","ascii":"Min Ga Lun Kya Khat Kone Lay","lat":16.35896,"lon":96.12545,"population":2172},{"id":1317815,"name":"Kwa Hnee","ascii":"Kwa Hnee","lat":16.55095,"lon":96.38163,"population":2169},{"id":12402669,"name":"Taw Ku Ah Nauk","ascii":"Taw Ku Ah Nauk","lat":16.43159,"lon":96.1076,"population":2167},{"id":1293508,"name":"Taw Lan","ascii":"Taw Lan","lat":16.45278,"lon":96.23886,"population":2155},{"id":1480148,"name":"Sa Khan Gyi","ascii":"Sa Khan Gyi","lat":17.12323,"lon":96.22,"population":2140},{"id":1324469,"name":"Hle Seik","ascii":"Hle Seik","lat":17.24385,"lon":95.88166,"population":2112},{"id":13546400,"name":"Zay Kone West","ascii":"Zay Kone West","lat":16.88589,"lon":96.10177,"population":2101},{"id":12403081,"name":"Hpe Kha Me","ascii":"Hpe Kha Me","lat":17.07623,"lon":96.38987,"population":2091},{"id":1327565,"name":"Chaung Wa","ascii":"Chaung Wa","lat":16.58565,"lon":96.28374,"population":2075},{"id":12402892,"name":"Me Pa Li","ascii":"Me Pa Li","lat":17.21117,"lon":95.82272,"population":2069},{"id":1308608,"name":"Möng Pawk","ascii":"Moeng Pawk","lat":22.00648,"lon":99.3106,"population":2069},{"id":1315810,"name":"Kyon Kan","ascii":"Kyon Kan","lat":16.66676,"lon":96.44561,"population":2059},{"id":1291198,"name":"Thon Gwa","ascii":"Thon Gwa","lat":16.41957,"lon":95.99309,"population":2052},{"id":1303769,"name":"Nyaung Pin","ascii":"Nyaung Pin","lat":16.9222,"lon":96.327,"population":2049},{"id":1295089,"name":"Taik Gyi","ascii":"Taik Gyi","lat":16.4537,"lon":95.90547,"population":2043},{"id":1480773,"name":"Thakutpin","ascii":"Thakutpin","lat":17.01622,"lon":96.34559,"population":2028},{"id":1309333,"name":"Mikenaungea","ascii":"Mikenaungea","lat":15.95846,"lon":98.42721,"population":2005},{"id":11548637,"name":"Tamoowoug","ascii":"Tamoowoug","lat":16.03447,"lon":97.91458,"population":2005},{"id":12104779,"name":"No (1) Ward","ascii":"No (1) Ward","lat":18.46724,"lon":94.36116,"population":2004},{"id":11548704,"name":"Klonhtoug","ascii":"Klonhtoug","lat":15.95411,"lon":98.4325,"population":2001},{"id":11548693,"name":"Pulei","ascii":"Pulei","lat":16.06243,"lon":97.8828,"population":2001},{"id":11548638,"name":"Dellok","ascii":"Dellok","lat":16.04072,"lon":97.91773,"population":2000},{"id":1480231,"name":"Kalein","ascii":"Kalein","lat":17.00145,"lon":96.00816,"population":1989},{"id":1463311,"name":"Sa Bagan","ascii":"Sa Bagan","lat":16.48863,"lon":96.06309,"population":1984},{"id":1317451,"name":"Kyar Kan","ascii":"Kyar Kan","lat":16.6775,"lon":96.35346,"population":1983},{"id":1326447,"name":"Da Yei Lu","ascii":"Da Yei Lu","lat":16.43762,"lon":96.1941,"population":1944},{"id":1315989,"name":"Kyi Tan","ascii":"Kyi Tan","lat":16.75717,"lon":96.01883,"population":1928},{"id":12242238,"name":"Hta Min Ma Sar","ascii":"Hta Min Ma Sar","lat":13.11676,"lon":98.63706,"population":1924},{"id":12403100,"name":"Rakhine Chaung North","ascii":"Rakhine Chaung North","lat":16.65968,"lon":96.17999,"population":1911},{"id":1310024,"name":"Ma Yan","ascii":"Ma Yan","lat":16.46315,"lon":96.00368,"population":1893},{"id":1293521,"name":"Taw Kha Lu","ascii":"Taw Kha Lu","lat":16.48567,"lon":96.27777,"population":1872},{"id":12403108,"name":"Da Noke San Pya","ascii":"Da Noke San Pya","lat":16.61758,"lon":96.21713,"population":1871},{"id":1318819,"name":"Koe Taung","ascii":"Koe Taung","lat":16.60029,"lon":96.14155,"population":1866},{"id":1463291,"name":"Kywe Lu Aing","ascii":"Kywe Lu Aing","lat":16.6348,"lon":96.12446,"population":1858},{"id":1315581,"name":"Kyun Kone","ascii":"Kyun Kone","lat":17.0753,"lon":96.2636,"population":1851},{"id":1299806,"name":"Pok Pa","ascii":"Pok Pa","lat":16.47037,"lon":95.89495,"population":1828},{"id":1463264,"name":"Boe Ba","ascii":"Boe Ba","lat":16.57592,"lon":96.516,"population":1818},{"id":1463098,"name":"Kha Yan Wa","ascii":"Kha Yan Wa","lat":16.83967,"lon":96.00206,"population":1797},{"id":1326745,"name":"Daunt Gyi","ascii":"Daunt Gyi","lat":17.00129,"lon":95.88448,"population":1791},{"id":12404184,"name":"Hnget Pyaw San","ascii":"Hnget Pyaw San","lat":16.64832,"lon":95.94578,"population":1791},{"id":1309106,"name":"Minsin","ascii":"Minsin","lat":25.52972,"lon":95.37909,"population":1789},{"id":12402818,"name":"Kan Yin Ngu","ascii":"Kan Yin Ngu","lat":16.61519,"lon":95.92787,"population":1774},{"id":1463267,"name":"Kyan Pin","ascii":"Kyan Pin","lat":16.62399,"lon":96.39267,"population":1766},{"id":12404156,"name":"Ah Ka La","ascii":"Ah Ka La","lat":16.8944,"lon":95.86617,"population":1761},{"id":12402646,"name":"Na Ywe Chaung","ascii":"Na Ywe Chaung","lat":16.57319,"lon":96.5093,"population":1756},{"id":13546448,"name":"Hnget Yawng","ascii":"Hnget Yawng","lat":21.99761,"lon":98.78175,"population":1748},{"id":1481794,"name":"Ah Lat Chaung","ascii":"Ah Lat Chaung","lat":16.79787,"lon":96.10749,"population":1735},{"id":12402658,"name":"Wa Gauk Taw","ascii":"Wa Gauk Taw","lat":16.43114,"lon":95.95239,"population":1734},{"id":13546449,"name":"Man Wein","ascii":"Man Wein","lat":21.94123,"lon":98.98184,"population":1725},{"id":13546419,"name":"Rakhine Chaung South","ascii":"Rakhine Chaung South","lat":16.65667,"lon":96.1786,"population":1725},{"id":13546446,"name":"Tha Meit","ascii":"Tha Meit","lat":16.4636,"lon":95.86973,"population":1723},{"id":1480164,"name":"Zee Pin Wea","ascii":"Zee Pin Wea","lat":17.08361,"lon":96.21991,"population":1719},{"id":13546336,"name":"Baw Lone Kwin","ascii":"Baw Lone Kwin","lat":17.05254,"lon":96.13131,"population":1711},{"id":1299213,"name":"Byauk Yoe","ascii":"Byauk Yoe","lat":16.78312,"lon":96.05259,"population":1674},{"id":1463217,"name":"Tha Yaw Tan","ascii":"Tha Yaw Tan","lat":16.65239,"lon":96.09251,"population":1673},{"id":1463287,"name":"Kyon Da Yei","ascii":"Kyon Da Yei","lat":16.57076,"lon":96.21418,"population":1665},{"id":1285424,"name":"Yae Twin Kone","ascii":"Yae Twin Kone","lat":17.11747,"lon":95.91273,"population":1664},{"id":12402710,"name":"Hti Pha","ascii":"Hti Pha","lat":16.5118,"lon":95.9539,"population":1658},{"id":1284467,"name":"Ywar Thit Gyi","ascii":"Ywar Thit Gyi","lat":16.62182,"lon":96.4206,"population":1619},{"id":1298021,"name":"San Kin Gyi","ascii":"San Kin Gyi","lat":17.05589,"lon":95.86647,"population":1589},{"id":12403093,"name":"Ah Waing West","ascii":"Ah Waing West","lat":17.00645,"lon":96.25268,"population":1581},{"id":1292837,"name":"Tha Byu San","ascii":"Tha Byu San","lat":16.5208,"lon":95.99423,"population":1570},{"id":12404142,"name":"Kyun Ka Lay","ascii":"Kyun Ka Lay","lat":16.78079,"lon":96.08214,"population":1560},{"id":1293047,"name":"Tha Bawt Chaung","ascii":"Tha Bawt Chaung","lat":17.08479,"lon":95.93204,"population":1559},{"id":12404107,"name":"Ta Mar Ta Kaw Ah Htet","ascii":"Ta Mar Ta Kaw Ah Htet","lat":16.82112,"lon":96.04708,"population":1554},{"id":12402819,"name":"Hnget Aw San","ascii":"Hnget Aw San","lat":16.56136,"lon":95.96894,"population":1550},{"id":1284616,"name":"Ywar Tan Shey","ascii":"Ywar Tan Shey","lat":16.64297,"lon":96.08063,"population":1547},{"id":1301072,"name":"Pauk Taw","ascii":"Pauk Taw","lat":16.68935,"lon":96.01393,"population":1532},{"id":12402958,"name":"Chaung Nyi Ah Ko","ascii":"Chaung Nyi Ah Ko","lat":17.00953,"lon":95.95636,"population":1519},{"id":1310048,"name":"Ma Wun","ascii":"Ma Wun","lat":16.84762,"lon":95.98229,"population":1515},{"id":1295275,"name":"Ta Dar U","ascii":"Ta Dar U","lat":21.41961,"lon":95.87578,"population":1515},{"id":1297965,"name":"San Kauk","ascii":"San Kauk","lat":16.5331,"lon":96.0019,"population":1507},{"id":12402797,"name":"Nat Yae Twin","ascii":"Nat Yae Twin","lat":16.60818,"lon":95.96909,"population":1506},{"id":1324074,"name":"Homalin","ascii":"Homalin","lat":24.86667,"lon":94.90916,"population":1500},{"id":1290164,"name":"U Yin","ascii":"U Yin","lat":16.61378,"lon":96.4154,"population":1482},{"id":1463292,"name":"Yae Hpyu Twin","ascii":"Yae Hpyu Twin","lat":16.62111,"lon":96.08984,"population":1478},{"id":1303455,"name":"Nyaung Chaung","ascii":"Nyaung Chaung","lat":16.63308,"lon":96.2218,"population":1474},{"id":1297424,"name":"Seinnan","ascii":"Seinnan","lat":25.93654,"lon":95.60578,"population":1462},{"id":1463204,"name":"Kan","ascii":"Kan","lat":16.78834,"lon":96.04026,"population":1454},{"id":1463302,"name":"Taung Chaung","ascii":"Taung Chaung","lat":16.55298,"lon":96.0362,"population":1437},{"id":1298383,"name":"Saing Di Kone","ascii":"Saing Di Kone","lat":17.12281,"lon":96.34977,"population":1434},{"id":1482074,"name":"Ye Chaung","ascii":"Ye Chaung","lat":16.71458,"lon":96.15311,"population":1424},{"id":1463276,"name":"Kayin Chaung","ascii":"Kayin Chaung","lat":16.56995,"lon":96.41176,"population":1415},{"id":1482256,"name":"Shwe Hlay Chaung Pa","ascii":"Shwe Hlay Chaung Pa","lat":16.66652,"lon":96.14558,"population":1410},{"id":13526958,"name":"Kin Taw","ascii":"Kin Taw","lat":26.03124,"lon":95.82293,"population":1408},{"id":1319949,"name":"Kawt Dun","ascii":"Kawt Dun","lat":16.43735,"lon":96.16611,"population":1392},{"id":12402786,"name":"Ta Gu Pon","ascii":"Ta Gu Pon","lat":16.57136,"lon":95.96694,"population":1381},{"id":13546338,"name":"Bago Lan","ascii":"Bago Lan","lat":17.04421,"lon":96.13863,"population":1379},{"id":1463278,"name":"Tha Nat Pin Chin","ascii":"Tha Nat Pin Chin","lat":16.60379,"lon":96.29829,"population":1375},{"id":1313682,"name":"Linhpa","ascii":"Linhpa","lat":25.80948,"lon":95.53347,"population":1371},{"id":13546452,"name":"Min Yan Aung","ascii":"Min Yan Aung","lat":21.82417,"lon":98.64245,"population":1370},{"id":13526950,"name":"Aung Myay","ascii":"Aung Myay","lat":25.96399,"lon":95.72346,"population":1366},{"id":1328338,"name":"Baw Ga Lut","ascii":"Baw Ga Lut","lat":16.59181,"lon":96.30404,"population":1358},{"id":1315863,"name":"Kyi","ascii":"Kyi","lat":21.69567,"lon":95.37433,"population":1358},{"id":1300066,"name":"Pi La Khat","ascii":"Pi La Khat","lat":16.64245,"lon":96.3777,"population":1358},{"id":1319538,"name":"Kha Yaik Kha Ni","ascii":"Kha Yaik Kha Ni","lat":16.53717,"lon":96.20092,"population":1345},{"id":1320979,"name":"Kant Ma Lar","ascii":"Kant Ma Lar","lat":16.41232,"lon":96.20577,"population":1335},{"id":12404150,"name":"Kyaung Su","ascii":"Kyaung Su","lat":16.55913,"lon":95.85519,"population":1334},{"id":1294503,"name":"Htan Ta Pin","ascii":"Htan Ta Pin","lat":16.49187,"lon":96.20609,"population":1319},{"id":1297508,"name":"Seik Gyi","ascii":"Seik Gyi","lat":16.40446,"lon":96.02249,"population":1305},{"id":1303361,"name":"Nyaungshwe","ascii":"Nyaungshwe","lat":20.66084,"lon":96.93405,"population":1300},{"id":1316313,"name":"Kyaw","ascii":"Kyaw","lat":21.92772,"lon":94.35775,"population":1294},{"id":1463332,"name":"Pa Kauk","ascii":"Pa Kauk","lat":16.45663,"lon":96.25205,"population":1293},{"id":12402792,"name":"Pyin Ka Do","ascii":"Pyin Ka Do","lat":16.57581,"lon":95.90933,"population":1291},{"id":1291986,"name":"Tha Yet Taw","ascii":"Tha Yet Taw","lat":16.50637,"lon":96.26349,"population":1267},{"id":1482076,"name":"Nyaung Ngoke To","ascii":"Nyaung Ngoke To","lat":16.72757,"lon":96.13958,"population":1256},{"id":1285890,"name":"Yana","ascii":"Yana","lat":25.61501,"lon":95.44476,"population":1255},{"id":1320031,"name":"Kaunghein","ascii":"Kaunghein","lat":25.67657,"lon":95.42224,"population":1251},{"id":1298559,"name":"Sar Taing Hmut","ascii":"Sar Taing Hmut","lat":16.5366,"lon":96.24952,"population":1222},{"id":1324820,"name":"Kha Yan Gyi","ascii":"Kha Yan Gyi","lat":16.82455,"lon":96.00412,"population":1212},{"id":13526963,"name":"Taik Tee","ascii":"Taik Tee","lat":26.27098,"lon":96.06983,"population":1205},{"id":1320051,"name":"Kauktaung-ashe","ascii":"Kauktaung-ashe","lat":25.72558,"lon":95.45266,"population":1194},{"id":1463211,"name":"Za Yat Kone","ascii":"Za Yat Kone","lat":16.64705,"lon":96.02258,"population":1187},{"id":1328122,"name":"Boet Din","ascii":"Boet Din","lat":16.4699,"lon":96.15,"population":1182},{"id":1324268,"name":"Hnget Gyi Daung","ascii":"Hnget Gyi Daung","lat":16.39862,"lon":96.19162,"population":1181},{"id":1304811,"name":"Ne Byaw","ascii":"Ne Byaw","lat":17.02758,"lon":95.87416,"population":1181},{"id":13546420,"name":"Boe Hpyu Chaung","ascii":"Boe Hpyu Chaung","lat":16.62677,"lon":96.17309,"population":1152},{"id":1482155,"name":"Nyaung Pin","ascii":"Nyaung Pin","lat":16.62525,"lon":96.15058,"population":1141},{"id":1463325,"name":"Kyu Taw Chaung","ascii":"Kyu Taw Chaung","lat":16.54807,"lon":96.23161,"population":1125},{"id":1463319,"name":"Ma Wun","ascii":"Ma Wun","lat":16.54217,"lon":96.14425,"population":1088},{"id":1463068,"name":"Da La Ban","ascii":"Da La Ban","lat":16.94398,"lon":96.3602,"population":1050},{"id":1292630,"name":"Tha Min Chan","ascii":"Tha Min Chan","lat":16.48772,"lon":96.23757,"population":1045},{"id":1286504,"name":"Webula","ascii":"Webula","lat":23.01667,"lon":93.91667,"population":1041},{"id":12402680,"name":"Hsu Ka Lat","ascii":"Hsu Ka Lat","lat":16.45379,"lon":95.95922,"population":1033},{"id":12402808,"name":"Kyon La Ta","ascii":"Kyon La Ta","lat":16.43132,"lon":95.8765,"population":1026},{"id":1284789,"name":"Yoe Gwa","ascii":"Yoe Gwa","lat":16.95817,"lon":95.96383,"population":1017},{"id":1463346,"name":"Nyaung Ngu","ascii":"Nyaung Ngu","lat":16.46815,"lon":96.0437,"population":1008},{"id":12404171,"name":"Ka Don","ascii":"Ka Don","lat":16.61871,"lon":95.91503,"population":1004},{"id":1324384,"name":"Hmawbi","ascii":"Hmawbi","lat":17.10311,"lon":96.03615,"population":0}]