[{"id":2028462,"name":"Ulan Bator","nameKo":"울란바토르","ascii":"Ulan Bator","lat":47.90771,"lon":106.88324,"population":844818},{"id":2031405,"name":"Erdenet","nameKo":"에르데네트","ascii":"Erdenet","lat":49.03333,"lon":104.08333,"population":97814},{"id":2031964,"name":"Darhan","ascii":"Darhan","lat":49.48667,"lon":105.92278,"population":83883},{"id":2032054,"name":"Choibalsan","ascii":"Choibalsan","lat":48.07257,"lon":114.53264,"population":44835},{"id":2029901,"name":"Nalayh","ascii":"Nalayh","lat":47.76667,"lon":107.28333,"population":39579},{"id":2029945,"name":"Mörön","ascii":"Moeroen","lat":49.63417,"lon":100.1625,"population":39404},{"id":2032533,"name":"Bayanhongor","ascii":"Bayanhongor","lat":46.19444,"lon":100.71806,"population":30931},{"id":1515029,"name":"Ulaangom","ascii":"Ulaangom","lat":49.98111,"lon":92.06667,"population":30092},{"id":1516048,"name":"Khovd","nameKo":"호브드","ascii":"Khovd","lat":48.00556,"lon":91.64194,"population":29800},{"id":2032814,"name":"Arvayheer","ascii":"Arvayheer","lat":46.26389,"lon":102.775,"population":29420},{"id":1515436,"name":"Ölgii","ascii":"OElgii","lat":48.96833,"lon":89.9625,"population":28400},{"id":2030474,"name":"Bogd","ascii":"Bogd","lat":44.67024,"lon":102.17491,"population":27924},{"id":2032007,"name":"Dalandzadgad","ascii":"Dalandzadgad","lat":43.57083,"lon":104.425,"population":24863},{"id":2029156,"name":"Sühbaatar","ascii":"Suehbaatar","lat":50.23139,"lon":106.20778,"population":22741},{"id":2029656,"name":"Undurkhaan","ascii":"Undurkhaan","lat":47.31944,"lon":110.65556,"population":22741},{"id":2028606,"name":"Tsetserleg","ascii":"Tsetserleg","lat":47.475,"lon":101.45417,"population":21620},{"id":2032081,"name":"Saynshand","ascii":"Saynshand","lat":44.88239,"lon":110.11631,"population":19891},{"id":2031533,"name":"Dzüünharaa","ascii":"Dzuunharaa","lat":48.85229,"lon":106.45786,"population":18830},{"id":2032614,"name":"Baruun-Urt","nameKo":"바룬우르트","ascii":"Baruun-Urt","lat":46.68056,"lon":113.27917,"population":18190},{"id":1516393,"name":"Altai","ascii":"Altai","lat":46.37222,"lon":96.25833,"population":17617},{"id":2032201,"name":"Bulgan","nameKo":"볼강","ascii":"Bulgan","lat":48.8125,"lon":103.53472,"population":17348},{"id":2031517,"name":"Dzuunmod","ascii":"Dzuunmod","lat":47.70694,"lon":106.95278,"population":16953},{"id":7648817,"name":"Zuunmod","ascii":"Zuunmod","lat":47.70693,"lon":106.95276,"population":16953},{"id":1515007,"name":"Uliastay","nameKo":"올리아스타이","ascii":"Uliastay","lat":47.74167,"lon":96.84444,"population":16265},{"id":2030065,"name":"Mandalgovi","ascii":"Mandalgovi","lat":45.7625,"lon":106.27083,"population":12339},{"id":8468638,"name":"Zamiin Uud","ascii":"Zamiin Uud","lat":43.7193,"lon":111.90777,"population":11527},{"id":2032050,"name":"Choyr","ascii":"Choyr","lat":46.36111,"lon":108.36111,"population":10434},{"id":2032051,"name":"Choyr","ascii":"Choyr","lat":46.13333,"lon":108.65,"population":10434},{"id":1515167,"name":"Tosontsengel","ascii":"Tosontsengel","lat":48.75667,"lon":98.28389,"population":9526},{"id":7648891,"name":"Kharkhorin","ascii":"Kharkhorin","lat":47.19245,"lon":102.81349,"population":8977},{"id":6618718,"name":"Bor-Öndör","ascii":"Bor-OEndoer","lat":46.26712,"lon":109.43825,"population":8897},{"id":2028614,"name":"Tsengel","ascii":"Tsengel","lat":49.47833,"lon":100.88944,"population":8348},{"id":2029315,"name":"Sharïngol","ascii":"Sharingol","lat":49.23733,"lon":106.43005,"population":7795},{"id":6997320,"name":"Hongor","ascii":"Hongor","lat":49.23012,"lon":105.89674,"population":5874},{"id":2030316,"name":"Hutag","ascii":"Hutag","lat":49.395,"lon":102.69333,"population":4591},{"id":2032411,"name":"Berh","ascii":"Berh","lat":47.78333,"lon":111.16667,"population":3890},{"id":6618876,"name":"Jargalant","ascii":"Jargalant","lat":49.05666,"lon":104.4017,"population":3417},{"id":2030915,"name":"Orhon","ascii":"Orhon","lat":49.8325,"lon":106.13639,"population":3245},{"id":2031368,"name":"Ergel","ascii":"Ergel","lat":43.15,"lon":109.13333,"population":2853},{"id":2028534,"name":"Turt","ascii":"Turt","lat":51.50725,"lon":100.66257,"population":2140},{"id":2032871,"name":"Argalant","ascii":"Argalant","lat":47.94211,"lon":105.89584,"population":1955},{"id":2030570,"name":"Hongor","ascii":"Hongor","lat":45.8,"lon":111.2,"population":1781},{"id":2028429,"name":"Ulaanhudag","ascii":"Ulaanhudag","lat":47.33333,"lon":104.5,"population":1500},{"id":2032960,"name":"Altanbulag","ascii":"Altanbulag","lat":50.31556,"lon":106.49861,"population":500},{"id":2031374,"name":"Ereencav","ascii":"Ereencav","lat":49.8807,"lon":115.72526,"population":23},{"id":1516403,"name":"Aldar","ascii":"Aldar","lat":47.64226,"lon":96.53687,"population":0},{"id":1516400,"name":"Altan","ascii":"Altan","lat":48.11667,"lon":95.71667,"population":0},{"id":2032956,"name":"Altan-Ovoo","ascii":"Altan-Ovoo","lat":47.44742,"lon":101.75503,"population":0},{"id":1516399,"name":"Altanbulag","ascii":"Altanbulag","lat":49.30688,"lon":96.34237,"population":0},{"id":2032961,"name":"Altanbulag","ascii":"Altanbulag","lat":47.7,"lon":106.4,"population":0},{"id":1516395,"name":"Altanteel","ascii":"Altanteel","lat":47.11044,"lon":92.84374,"population":0},{"id":1516392,"name":"Altay","ascii":"Altay","lat":49.70317,"lon":96.3592,"population":0},{"id":1516389,"name":"Altraga","ascii":"Altraga","lat":50.1791,"lon":98.97205,"population":0},{"id":2032937,"name":"Amardalay","ascii":"Amardalay","lat":46.12572,"lon":106.37426,"population":0},{"id":2032899,"name":"Ar-Asgat","ascii":"Ar-Asgat","lat":48.26222,"lon":105.41194,"population":0},{"id":2032860,"name":"Argatay","ascii":"Argatay","lat":45.76667,"lon":107.98333,"population":0},{"id":2032857,"name":"Arguut","ascii":"Arguut","lat":45.46278,"lon":102.42056,"population":0},{"id":2032850,"name":"Arhust","ascii":"Arhust","lat":47.79425,"lon":107.88334,"population":0},{"id":6988111,"name":"Asgat","ascii":"Asgat","lat":49.51082,"lon":96.79944,"population":0},{"id":2032789,"name":"Avdzaga","ascii":"Avdzaga","lat":47.63333,"lon":103.51667,"population":0},{"id":2032786,"name":"Avraga","ascii":"Avraga","lat":47.17851,"lon":109.18968,"population":0},{"id":2032767,"name":"Badrah","ascii":"Badrah","lat":49.61833,"lon":101.98972,"population":0},{"id":1516329,"name":"Balgatay","ascii":"Balgatay","lat":46.9,"lon":97.15,"population":0},{"id":2032631,"name":"Baruunsuu","ascii":"Baruunsuu","lat":43.65595,"lon":105.75577,"population":0},{"id":1516313,"name":"Baruunturuun","ascii":"Baruunturuun","lat":49.65963,"lon":94.40414,"population":0},{"id":2032602,"name":"Bat-Öldziyt","ascii":"Bat-Oldziyt","lat":48.21552,"lon":104.77318,"population":0},{"id":1516308,"name":"Bayan","ascii":"Bayan","lat":49.43333,"lon":99.6,"population":0},{"id":1516309,"name":"Bayan","ascii":"Bayan","lat":46.9929,"lon":95.19962,"population":0},{"id":2032594,"name":"Bayan","ascii":"Bayan","lat":48.55,"lon":111.08333,"population":0},{"id":2032595,"name":"Bayan","ascii":"Bayan","lat":47.91667,"lon":112.95,"population":0},{"id":2032596,"name":"Bayan","ascii":"Bayan","lat":47.45,"lon":103.15,"population":0},{"id":2032597,"name":"Bayan","ascii":"Bayan","lat":47.16667,"lon":110.81667,"population":0},{"id":2032598,"name":"Bayan","ascii":"Bayan","lat":46.25,"lon":110.16667,"population":0},{"id":2030526,"name":"Bayan Uula Sumu","ascii":"Bayan Uula Sumu","lat":45.16667,"lon":101.4,"population":0},{"id":1516274,"name":"Bayan-Ovoo","ascii":"Bayan-Ovoo","lat":44.61667,"lon":94.91667,"population":0},{"id":2032490,"name":"Bayan-Ovoo","ascii":"Bayan-Ovoo","lat":49.01667,"lon":111.63333,"population":0},{"id":1516267,"name":"Bayan-Uhaa","ascii":"Bayan-Uhaa","lat":48.71906,"lon":98.79181,"population":0},{"id":2032457,"name":"Bayan-Ulaan","ascii":"Bayan-Ulaan","lat":46.52178,"lon":102.59428,"population":0},{"id":2032593,"name":"Bayanbaraat","ascii":"Bayanbaraat","lat":46.86667,"lon":106.25,"population":0},{"id":1516305,"name":"Bayanbulag","ascii":"Bayanbulag","lat":46.80981,"lon":98.09006,"population":0},{"id":2032586,"name":"Bayanbulag","ascii":"Bayanbulag","lat":47.86667,"lon":109.91667,"population":0},{"id":2032571,"name":"Bayandelger","ascii":"Bayandelger","lat":47.72732,"lon":108.11062,"population":0},{"id":1516296,"name":"Bayangol","ascii":"Bayangol","lat":45.55655,"lon":94.36449,"population":0},{"id":1516288,"name":"Bayanhoshuu","ascii":"Bayanhoshuu","lat":48.23333,"lon":91.91667,"population":0},{"id":2032523,"name":"Bayanhoshuu","ascii":"Bayanhoshuu","lat":46.70197,"lon":100.1433,"population":0},{"id":1516272,"name":"Bayansayr","ascii":"Bayansayr","lat":45.55529,"lon":99.43314,"population":0},{"id":6997301,"name":"Bayantal","ascii":"Bayantal","lat":46.56221,"lon":108.30439,"population":0},{"id":2032480,"name":"Bayantöhöm","ascii":"Bayantohom","lat":46.91667,"lon":105.05,"population":0},{"id":2032473,"name":"Bayantsagaan","ascii":"Bayantsagaan","lat":48.73167,"lon":100.76,"population":0},{"id":2032435,"name":"Bayasgalant","ascii":"Bayasgalant","lat":47.17945,"lon":108.25996,"population":0},{"id":2032436,"name":"Bayasgalant","ascii":"Bayasgalant","lat":46.98333,"lon":112.05,"population":0},{"id":1516257,"name":"Bayshint","ascii":"Bayshint","lat":49.66667,"lon":90.28333,"population":0},{"id":2032432,"name":"Bayshint","ascii":"Bayshint","lat":47.41667,"lon":104.81667,"population":0},{"id":1516240,"name":"Bilüü","ascii":"Biluu","lat":49.04372,"lon":89.43798,"population":0},{"id":2032373,"name":"Bodĭ","ascii":"Bodi","lat":45.41171,"lon":100.574,"population":0},{"id":2032362,"name":"Böhöt","ascii":"Bohot","lat":45.23223,"lon":108.28245,"population":0},{"id":1516205,"name":"Bor-Üdzüür","ascii":"Bor-Udzuur","lat":45.8,"lon":92.28333,"population":0},{"id":2032327,"name":"Bornuur","ascii":"Bornuur","lat":48.46667,"lon":106.26667,"population":0},{"id":1516198,"name":"Buga","ascii":"Buga","lat":48.95,"lon":89.98333,"population":0},{"id":1516199,"name":"Buga","ascii":"Buga","lat":47.65013,"lon":95.0005,"population":0},{"id":2032255,"name":"Bugant","ascii":"Bugant","lat":49.58333,"lon":106.85,"population":0},{"id":1516196,"name":"Bugat","ascii":"Bugat","lat":49.53333,"lon":93.81667,"population":0},{"id":2032252,"name":"Bugat","ascii":"Bugat","lat":49.06667,"lon":103.66583,"population":0},{"id":2032225,"name":"Bulag","ascii":"Bulag","lat":49.85946,"lon":100.62687,"population":0},{"id":2032226,"name":"Bulag","ascii":"Bulag","lat":48.2,"lon":108.48333,"population":0},{"id":2032221,"name":"Bulagiyn Denj","ascii":"Bulagiyn Denj","lat":47.31869,"lon":101.11576,"population":0},{"id":2032220,"name":"Bulagtay","ascii":"Bulagtay","lat":49.77594,"lon":107.51616,"population":0},{"id":1516187,"name":"Bulgan","ascii":"Bulgan","lat":44.78333,"lon":98.65,"population":0},{"id":2032200,"name":"Bulgan","ascii":"Bulgan","lat":50.54194,"lon":101.51417,"population":0},{"id":2032202,"name":"Bulgan","ascii":"Bulgan","lat":44.09745,"lon":103.54288,"population":0},{"id":2032191,"name":"Bumbat","ascii":"Bumbat","lat":46.49674,"lon":104.11777,"population":0},{"id":1516173,"name":"Bürenhayrhan","ascii":"Burenhayrhan","lat":46.09237,"lon":91.54796,"population":0},{"id":2032157,"name":"Burgaltay","ascii":"Burgaltay","lat":49.265,"lon":104.74348,"population":0},{"id":1516148,"name":"Buyanbat","ascii":"Buyanbat","lat":46.97838,"lon":95.92532,"population":0},{"id":1516143,"name":"Buyant","ascii":"Buyant","lat":48.57967,"lon":89.5475,"population":0},{"id":1516144,"name":"Buyant","ascii":"Buyant","lat":48.06667,"lon":91.81667,"population":0},{"id":1516146,"name":"Buyant","ascii":"Buyant","lat":47.21211,"lon":97.60666,"population":0},{"id":1516147,"name":"Buyant","ascii":"Buyant","lat":46.1664,"lon":98.69173,"population":0},{"id":2032085,"name":"Buyant","ascii":"Buyant","lat":46.25,"lon":110.83333,"population":0},{"id":1516136,"name":"Chandmanĭ","ascii":"Chandmani","lat":48.05,"lon":96.25,"population":0},{"id":2032070,"name":"Chandmanĭ","ascii":"Chandmani","lat":45.53333,"lon":110.46667,"population":0},{"id":1516125,"name":"Chihertey","ascii":"Chihertey","lat":48.30272,"lon":89.51557,"population":0},{"id":2032058,"name":"Chonogol","ascii":"Chonogol","lat":45.9,"lon":115.36667,"population":0},{"id":2031998,"name":"Dalay","ascii":"Dalay","lat":43.46787,"lon":103.51284,"population":0},{"id":2031965,"name":"Darhan","ascii":"Darhan","lat":48.25463,"lon":103.88054,"population":0},{"id":2031966,"name":"Darhan","ascii":"Darhan","lat":46.61667,"lon":109.41667,"population":0},{"id":1516099,"name":"Darvi","ascii":"Darvi","lat":46.45,"lon":94.11667,"population":0},{"id":1516186,"name":"Darvi","ascii":"Darvi","lat":46.93678,"lon":93.61673,"population":0},{"id":2031946,"name":"Dashbalbar","ascii":"Dashbalbar","lat":49.54571,"lon":114.40287,"population":0},{"id":2029117,"name":"Dashinchilling","ascii":"Dashinchilling","lat":47.85,"lon":104.05,"population":0},{"id":2031906,"name":"Delgerhaan","ascii":"Delgerhaan","lat":50.08578,"lon":106.18578,"population":0},{"id":1516082,"name":"Delgermörön","ascii":"Delgermoron","lat":46.40946,"lon":98.28712,"population":0},{"id":2031832,"name":"Doloon","ascii":"Doloon","lat":44.42446,"lon":105.32078,"population":0},{"id":2031728,"name":"Dund-Urt","ascii":"Dund-Urt","lat":48.03791,"lon":105.9219,"population":0},{"id":2031741,"name":"Dundbürd","ascii":"Dundburd","lat":47.9459,"lon":111.49784,"population":0},{"id":1516040,"name":"Duut","ascii":"Duut","lat":47.51667,"lon":91.63333,"population":0},{"id":2031704,"name":"Dzaanhoshuu","ascii":"Dzaanhoshuu","lat":47.49331,"lon":100.87801,"population":0},{"id":1516037,"name":"Dzadgay","ascii":"Dzadgay","lat":46.21061,"lon":99.59862,"population":0},{"id":1516036,"name":"Dzag","ascii":"Dzag","lat":46.94229,"lon":99.16689,"population":0},{"id":1516023,"name":"Dzalaa","ascii":"Dzalaa","lat":44.53333,"lon":99.26667,"population":0},{"id":2031615,"name":"Dzegstey","ascii":"Dzegstey","lat":47.66805,"lon":102.54999,"population":0},{"id":1516004,"name":"Dzel","ascii":"Dzel","lat":49.90713,"lon":93.78582,"population":0},{"id":2031613,"name":"Dzelter","ascii":"Dzelter","lat":50.31556,"lon":105.04583,"population":0},{"id":2031601,"name":"Dzogsool","ascii":"Dzogsool","lat":46.8,"lon":107.15,"population":0},{"id":1515999,"name":"Dzöölön","ascii":"Dzoolon","lat":51.10719,"lon":99.67226,"population":0},{"id":1515996,"name":"Dzür","ascii":"Dzuer","lat":49.65796,"lon":95.79323,"population":0},{"id":2031552,"name":"Dzüünbulag","ascii":"Dzueuenbulag","lat":46.95343,"lon":115.29396,"population":0},{"id":2031553,"name":"Dzüünbulag","ascii":"Dzueuenbulag","lat":46.38333,"lon":112.18333,"population":0},{"id":1515989,"name":"Dzüünhövöö","ascii":"Dzuunhovoo","lat":50.60977,"lon":92.4024,"population":0},{"id":2030066,"name":"Dzüünkharaa","ascii":"Dzuunkharaa","lat":48.63333,"lon":106.73333,"population":0},{"id":1515986,"name":"Dzuunmod","ascii":"Dzuunmod","lat":48.21987,"lon":97.3744,"population":0},{"id":1515979,"name":"Dzüyl","ascii":"Dzuyl","lat":46.30686,"lon":93.90409,"population":0},{"id":2031484,"name":"Eg","ascii":"Eg","lat":48.68333,"lon":110.18333,"population":0},{"id":2031408,"name":"Eg-Uur","ascii":"Eg-Uur","lat":50.10944,"lon":101.57528,"population":0},{"id":2031411,"name":"Enhtal","ascii":"Enhtal","lat":49.2475,"lon":105.37361,"population":0},{"id":1515957,"name":"Erdenet","ascii":"Erdenet","lat":48.94877,"lon":99.53665,"population":0},{"id":2031402,"name":"Erdenetsogt","ascii":"Erdenetsogt","lat":46.41845,"lon":100.82239,"population":0},{"id":2031403,"name":"Erdenetsogt","ascii":"Erdenetsogt","lat":42.97238,"lon":106.11866,"population":0},{"id":2031357,"name":"Erhet","ascii":"Erhet","lat":48.27394,"lon":102.9812,"population":0},{"id":2031088,"name":"Hajuu-Us","ascii":"Hajuu-Us","lat":46.04988,"lon":107.48955,"population":0},{"id":1515882,"name":"Halban","ascii":"Halban","lat":49.52877,"lon":97.7409,"population":0},{"id":1515878,"name":"Haliun","ascii":"Haliun","lat":45.9296,"lon":96.16239,"population":0},{"id":2031016,"name":"Hanhöhiy","ascii":"Hanhoehiy","lat":47.61667,"lon":112.13333,"population":0},{"id":1515806,"name":"Har-Us","ascii":"Har-Us","lat":49.03333,"lon":92.03333,"population":0},{"id":1515807,"name":"Har-Us","ascii":"Har-Us","lat":48.48333,"lon":91.43333,"population":0},{"id":2030996,"name":"Haraat","ascii":"Haraat","lat":46.41667,"lon":107.65,"population":0},{"id":1515838,"name":"Harhiraa","ascii":"Harhiraa","lat":49.77849,"lon":91.90424,"population":0},{"id":1515832,"name":"Harmod","ascii":"Harmod","lat":50.3413,"lon":91.60641,"population":0},{"id":2030890,"name":"Hashaat","ascii":"Hashaat","lat":45.24323,"lon":104.80511,"population":0},{"id":2030851,"name":"Hatansuudal","ascii":"Hatansuudal","lat":44.54595,"lon":100.82788,"population":0},{"id":2030849,"name":"Hatavch","ascii":"Hatavch","lat":46.16667,"lon":112.95,"population":0},{"id":2030841,"name":"Havirga","ascii":"Havirga","lat":45.66667,"lon":113.08333,"population":0},{"id":1515787,"name":"Havtsal","ascii":"Havtsal","lat":50.1,"lon":91.66667,"population":0},{"id":2030813,"name":"Haylaastay","ascii":"Haylaastay","lat":46.77076,"lon":113.88248,"population":0},{"id":2030764,"name":"Herlen","ascii":"Herlen","lat":47.3,"lon":110.56667,"population":0},{"id":1515762,"name":"Hödrögö","ascii":"Hodrogo","lat":48.87284,"lon":96.96259,"population":0},{"id":2030696,"name":"Höhbürd","ascii":"Hohburd","lat":46.28575,"lon":100.44834,"population":0},{"id":1515741,"name":"Höhtolgoy","ascii":"Hohtolgoy","lat":49.28001,"lon":90.91015,"population":0},{"id":1515736,"name":"Holboo","ascii":"Holboo","lat":48.58876,"lon":95.43257,"population":0},{"id":2030572,"name":"Hongor","ascii":"Hongor","lat":45.13507,"lon":113.68378,"population":0},{"id":2030531,"name":"Hoolt","ascii":"Hoolt","lat":45.53333,"lon":102.98333,"population":0},{"id":1538308,"name":"Horgo","ascii":"Horgo","lat":48.16,"lon":99.87556,"population":0},{"id":2030512,"name":"Horiult","ascii":"Horiult","lat":45.2,"lon":100.76667,"population":0},{"id":6997380,"name":"Höshigiyn-Ar","ascii":"Hoshigiyn-Ar","lat":47.55717,"lon":106.96333,"population":0},{"id":1515704,"name":"Höshööt","ascii":"Hoshoot","lat":48.94776,"lon":89.14358,"population":0},{"id":2030502,"name":"Höshööt","ascii":"Hoshoot","lat":48.1009,"lon":102.55686,"population":0},{"id":2030477,"name":"Hotont","ascii":"Hotont","lat":47.36278,"lon":102.46794,"population":0},{"id":2030473,"name":"Hovd","ascii":"Hovd","lat":44.66667,"lon":102.38333,"population":0},{"id":1515694,"name":"Höviyn Am","ascii":"Hoeviyn Am","lat":47.23123,"lon":98.5714,"population":0},{"id":2030470,"name":"Hövsgöl","ascii":"Hovsgol","lat":43.60639,"lon":109.63806,"population":0},{"id":2030427,"name":"Hujirt","ascii":"Hujirt","lat":48.88199,"lon":101.23953,"population":0},{"id":2030429,"name":"Hujirt","ascii":"Hujirt","lat":46.6,"lon":104.58333,"population":0},{"id":2030392,"name":"Hulstay","ascii":"Hulstay","lat":48.43333,"lon":114.86667,"population":0},{"id":1515662,"name":"Hungiy","ascii":"Hungiy","lat":48.51672,"lon":94.29428,"population":0},{"id":1515659,"name":"Hunt","ascii":"Hunt","lat":47.86667,"lon":99.46667,"population":0},{"id":2030368,"name":"Hüremt","ascii":"Huremt","lat":48.66306,"lon":102.62278,"population":0},{"id":2030369,"name":"Hüremt","ascii":"Huremt","lat":46.30241,"lon":102.44554,"population":0},{"id":2032663,"name":"Hushaat","ascii":"Hushaat","lat":49.5,"lon":105.61667,"population":0},{"id":2030296,"name":"Huurch","ascii":"Huurch","lat":50.10361,"lon":105.42,"population":0},{"id":1515621,"name":"Ider","ascii":"Ider","lat":48.77278,"lon":99.87389,"population":0},{"id":2030251,"name":"Ihbulag","ascii":"Ihbulag","lat":43.2,"lon":107.2,"population":0},{"id":2030218,"name":"Ihsüüj","ascii":"Ihsueuej","lat":48.2257,"lon":106.29152,"population":0},{"id":2030208,"name":"Ingettolgoy","ascii":"Ingettolgoy","lat":49.46167,"lon":103.97417,"population":0},{"id":1515577,"name":"Jargalant","ascii":"Jargalant","lat":49.30677,"lon":95.44785,"population":0},{"id":1515578,"name":"Jargalant","ascii":"Jargalant","lat":47.15,"lon":99.63333,"population":0},{"id":1515579,"name":"Jargalant","ascii":"Jargalant","lat":46.9267,"lon":91.08782,"population":0},{"id":1515580,"name":"Jargalant","ascii":"Jargalant","lat":45.70954,"lon":97.17596,"population":0},{"id":2030170,"name":"Jargalant","ascii":"Jargalant","lat":50.0675,"lon":105.88056,"population":0},{"id":2030172,"name":"Jargalant","ascii":"Jargalant","lat":49.29591,"lon":100.25711,"population":0},{"id":2030173,"name":"Jargalant","ascii":"Jargalant","lat":48.52056,"lon":105.86833,"population":0},{"id":2030175,"name":"Jargalant","ascii":"Jargalant","lat":47.79309,"lon":101.97235,"population":0},{"id":2030176,"name":"Jargalant","ascii":"Jargalant","lat":47.53333,"lon":100.21667,"population":0},{"id":6997333,"name":"Jargalant","ascii":"Jargalant","lat":49.12915,"lon":104.40803,"population":0},{"id":2030161,"name":"Javarthushuu","ascii":"Javarthushuu","lat":49.15,"lon":112.73333,"population":0},{"id":2030159,"name":"Javhlant","ascii":"Javhlant","lat":48.80189,"lon":105.924,"population":0},{"id":2032491,"name":"Javhlant","ascii":"Javhlant","lat":47.78333,"lon":112.11667,"population":0},{"id":2030428,"name":"Khujirt","ascii":"Khujirt","lat":46.89704,"lon":102.76903,"population":0},{"id":2030085,"name":"Lün","ascii":"Lun","lat":47.86667,"lon":105.25,"population":0},{"id":2030078,"name":"Maanĭt","ascii":"Maanit","lat":48.29667,"lon":103.42556,"population":0},{"id":2030079,"name":"Maanĭt","ascii":"Maanit","lat":47.25,"lon":107.53333,"population":0},{"id":1515549,"name":"Mandal","ascii":"Mandal","lat":49.9,"lon":99.43333,"population":0},{"id":2030067,"name":"Mandal","ascii":"Mandal","lat":48.63111,"lon":103.52917,"population":0},{"id":2030068,"name":"Mandal","ascii":"Mandal","lat":48.37062,"lon":106.74076,"population":0},{"id":2030053,"name":"Manhan","ascii":"Manhan","lat":50.12139,"lon":100.04306,"population":0},{"id":2030040,"name":"Mardzad","ascii":"Mardzad","lat":45.95,"lon":102.05,"population":0},{"id":2030035,"name":"Mayhan","ascii":"Mayhan","lat":46.09121,"lon":103.83951,"population":0},{"id":2029989,"name":"Modot","ascii":"Modot","lat":47.75,"lon":109.05,"population":0},{"id":2029961,"name":"Mönhbulag","ascii":"Monhbulag","lat":46.75,"lon":103.51667,"population":0},{"id":2029947,"name":"Mörön","ascii":"Moron","lat":47.38254,"lon":110.31647,"population":0},{"id":1515506,"name":"Namir","ascii":"Namir","lat":49.10641,"lon":91.71782,"population":0},{"id":1515498,"name":"Naranbulag","ascii":"Naranbulag","lat":49.36667,"lon":92.56667,"population":0},{"id":2029886,"name":"Naranbulag","ascii":"Naranbulag","lat":49.2436,"lon":113.37427,"population":0},{"id":2029840,"name":"Nart","ascii":"Nart","lat":49.145,"lon":105.38833,"population":0},{"id":1515468,"name":"Nogoonnuur","ascii":"Nogoonnuur","lat":49.61627,"lon":90.24204,"population":0},{"id":2029816,"name":"Nomgon","ascii":"Nomgon","lat":49.2001,"lon":105.66582,"population":0},{"id":2030465,"name":"Noyon Suma","ascii":"Noyon Suma","lat":43.17361,"lon":102.13194,"population":0},{"id":2029784,"name":"Nüden","ascii":"Nuden","lat":43.58333,"lon":110.46667,"population":0},{"id":1515454,"name":"Nuga","ascii":"Nuga","lat":48.31667,"lon":95.11667,"population":0},{"id":2029735,"name":"Ögöömör","ascii":"Ogoomor","lat":43.78336,"lon":104.48067,"population":0},{"id":2029698,"name":"Öldziyt","ascii":"Oldziyt","lat":48.52843,"lon":101.37394,"population":0},{"id":2029700,"name":"Öldziyt","ascii":"Oldziyt","lat":44.68333,"lon":109.01667,"population":0},{"id":2029651,"name":"Öndörhoshuu","ascii":"OEndoerhoshuu","lat":48,"lon":113.93333,"population":0},{"id":2029635,"name":"Ongi","ascii":"Ongi","lat":46.46667,"lon":102.28333,"population":0},{"id":2029636,"name":"Ongi","ascii":"Ongi","lat":45.45,"lon":103.9,"population":0},{"id":2029624,"name":"Ongon","ascii":"Ongon","lat":46.98259,"lon":103.78389,"population":0},{"id":2029610,"name":"Onon","ascii":"Onon","lat":48.61667,"lon":110.6,"population":0},{"id":1515416,"name":"Orgil","ascii":"Orgil","lat":48.58722,"lon":99.35083,"population":0},{"id":2029597,"name":"Orgil","ascii":"Orgil","lat":48.4538,"lon":105.31769,"population":0},{"id":2029596,"name":"Örgön","ascii":"Orgon","lat":44.73637,"lon":100.39135,"population":0},{"id":2029588,"name":"Orhontuul","ascii":"Orhontuul","lat":48.94972,"lon":104.97583,"population":0},{"id":1515405,"name":"Övögdiy","ascii":"Ovogdiy","lat":48.64278,"lon":97.61861,"population":0},{"id":2029558,"name":"Ovoot","ascii":"Ovoot","lat":45.30423,"lon":113.84977,"population":0},{"id":2029542,"name":"Övt","ascii":"Ovt","lat":46.81667,"lon":102.25,"population":0},{"id":1515402,"name":"Oygon","ascii":"Oygon","lat":48.98562,"lon":96.54339,"population":0},{"id":1515392,"name":"Rashaant","ascii":"Rashaant","lat":47.76667,"lon":90.83333,"population":0},{"id":2029525,"name":"Rashaant","ascii":"Rashaant","lat":49.12667,"lon":101.42806,"population":0},{"id":2029527,"name":"Rashaant","ascii":"Rashaant","lat":45.3,"lon":106.2,"population":0},{"id":1515378,"name":"Sangiyn Dalay","ascii":"Sangiyn Dalay","lat":45.13333,"lon":97.75,"population":0},{"id":2029494,"name":"Sangiyn Dalay","ascii":"Sangiyn Dalay","lat":46.65,"lon":103.31667,"population":0},{"id":2029495,"name":"Sangiyn Dalay","ascii":"Sangiyn Dalay","lat":46.00793,"lon":104.94209,"population":0},{"id":2029499,"name":"Sangiyn Dalay","ascii":"Sangiyn Dalay","lat":42.84199,"lon":105.13796,"population":0},{"id":1515367,"name":"Sayn-Ust","ascii":"Sayn-Ust","lat":47.35732,"lon":94.52448,"population":0},{"id":2029463,"name":"Saynshand","ascii":"Saynshand","lat":43.61667,"lon":102.53333,"population":0},{"id":2029433,"name":"Selenge","ascii":"Selenge","lat":49.43333,"lon":101.46667,"population":0},{"id":2029427,"name":"Senj","ascii":"Senj","lat":44.71667,"lon":110.76667,"population":0},{"id":2029419,"name":"Sergelen","ascii":"Sergelen","lat":48.56667,"lon":114.08333,"population":0},{"id":2029420,"name":"Sergelen","ascii":"Sergelen","lat":46.2,"lon":111.81667,"population":0},{"id":1515332,"name":"Sharbulag","ascii":"Sharbulag","lat":48.81667,"lon":93.1,"population":0},{"id":1515329,"name":"Sharga","ascii":"Sharga","lat":49.8,"lon":98.8,"population":0},{"id":1515331,"name":"Sharga","ascii":"Sharga","lat":46.25,"lon":95.26667,"population":0},{"id":2029335,"name":"Sharga","ascii":"Sharga","lat":49.04192,"lon":102.08925,"population":0},{"id":2029321,"name":"Sharhulsan","ascii":"Sharhulsan","lat":44.65,"lon":104.05,"population":0},{"id":1515303,"name":"Shiree","ascii":"Shiree","lat":47.49714,"lon":96.80311,"population":0},{"id":2029241,"name":"Shiree","ascii":"Shiree","lat":45.85,"lon":103.4,"population":0},{"id":2029238,"name":"Shireet","ascii":"Shireet","lat":45.72727,"lon":112.35563,"population":0},{"id":6997302,"name":"Shiveegovĭ","ascii":"Shiveegovi","lat":46.10558,"lon":108.62061,"population":0},{"id":2029176,"name":"Sört","ascii":"Sort","lat":49.31751,"lon":104.38196,"population":0},{"id":6997293,"name":"Sümber","ascii":"Suember","lat":47.65858,"lon":118.51014,"population":0},{"id":2029130,"name":"Sümiyn Bulag","ascii":"Suemiyn Bulag","lat":49.13333,"lon":114.88333,"population":0},{"id":2029118,"name":"Suugaant","ascii":"Suugaant","lat":45.53257,"lon":107.04546,"population":0},{"id":1515247,"name":"Tahilt","ascii":"Tahilt","lat":45.3466,"lon":96.6457,"population":0},{"id":1515229,"name":"Talshand","ascii":"Talshand","lat":45.33333,"lon":97.98333,"population":0},{"id":2028983,"name":"Tavanbulag","ascii":"Tavanbulag","lat":47.38185,"lon":101.90815,"population":0},{"id":2028972,"name":"Tavin","ascii":"Tavin","lat":46.39194,"lon":105.73517,"population":0},{"id":1515213,"name":"Taygan","ascii":"Taygan","lat":46.35356,"lon":97.36633,"population":0},{"id":2028961,"name":"Teel","ascii":"Teel","lat":48.04639,"lon":100.50917,"population":0},{"id":1515208,"name":"Tegsh","ascii":"Tegsh","lat":48.75132,"lon":95.99974,"population":0},{"id":2028933,"name":"Teshig","ascii":"Teshig","lat":49.94669,"lon":102.66123,"population":0},{"id":1515194,"name":"Tögöl","ascii":"Togol","lat":50.68333,"lon":99.23333,"population":0},{"id":1515186,"name":"Tögrög","ascii":"Togrog","lat":47.42414,"lon":92.22439,"population":0},{"id":1515187,"name":"Tögrög","ascii":"Togrog","lat":45.82976,"lon":94.81544,"population":0},{"id":2028905,"name":"Töhöm","ascii":"Tohom","lat":44.4,"lon":108.25,"population":0},{"id":1515180,"name":"Tolbo","ascii":"Tolbo","lat":48.41667,"lon":90.28333,"population":0},{"id":1515172,"name":"Tooromt","ascii":"Tooromt","lat":50.46667,"lon":93.58333,"population":0},{"id":1515131,"name":"Tsagaan-Olom","ascii":"Tsagaan-Olom","lat":46.71327,"lon":96.52588,"population":0},{"id":2028720,"name":"Tsagaan-Ovoo","ascii":"Tsagaan-Ovoo","lat":45.96404,"lon":101.45977,"population":0},{"id":2028722,"name":"Tsagaan-Ovoo","ascii":"Tsagaan-Ovoo","lat":45.50719,"lon":105.75594,"population":0},{"id":2030525,"name":"Tsagaan-Owoo","ascii":"Tsagaan-Owoo","lat":48.4,"lon":113.43333,"population":0},{"id":1515157,"name":"Tsagaanchuluut","ascii":"Tsagaanchuluut","lat":47.11196,"lon":96.67145,"population":0},{"id":2028792,"name":"Tsagaanders","ascii":"Tsagaanders","lat":48.05,"lon":114.36667,"population":0},{"id":2028790,"name":"Tsagaandörvölj","ascii":"Tsagaandorvolj","lat":45.79817,"lon":109.31826,"population":0},{"id":1515532,"name":"Tsagaanhayrhan","ascii":"Tsagaanhayrhan","lat":49.4,"lon":94.23333,"population":0},{"id":1516069,"name":"Tsagaannuur","ascii":"Tsagaannuur","lat":51.35639,"lon":99.34444,"population":0},{"id":1515124,"name":"Tsagaantüngi","ascii":"Tsagaantungi","lat":49.05,"lon":90.45,"population":0},{"id":1515117,"name":"Tsahir","ascii":"Tsahir","lat":48.07972,"lon":98.85167,"population":0},{"id":1515114,"name":"Tsalgar","ascii":"Tsalgar","lat":49.71667,"lon":93.26667,"population":0},{"id":2028653,"name":"Tsant","ascii":"Tsant","lat":46.18333,"lon":106.71667,"population":0},{"id":1515106,"name":"Tseel","ascii":"Tseel","lat":45.56667,"lon":95.86667,"population":0},{"id":1515101,"name":"Tsenher","ascii":"Tsenher","lat":46.91667,"lon":92.11667,"population":0},{"id":1515097,"name":"Tsetsegnuur","ascii":"Tsetsegnuur","lat":46.6,"lon":93.26667,"population":0},{"id":1515092,"name":"Tsetserleg","ascii":"Tsetserleg","lat":49.27128,"lon":94.85836,"population":0},{"id":2028581,"name":"Tsomog","ascii":"Tsomog","lat":45.91667,"lon":109.06667,"population":0},{"id":2028577,"name":"Tsoohor","ascii":"Tsoohor","lat":43.30657,"lon":104.07417,"population":0},{"id":2028562,"name":"Tsul-Ulaan","ascii":"Tsul-Ulaan","lat":47.83333,"lon":104.5,"population":0},{"id":2028445,"name":"Ulaan-Ereg","ascii":"Ulaan-Ereg","lat":46.9,"lon":109.75,"population":0},{"id":2028357,"name":"Ulaan-Uul","ascii":"Ulaan-Uul","lat":46.0674,"lon":100.81724,"population":0},{"id":2028359,"name":"Ulaan-Uul","ascii":"Ulaan-Uul","lat":44.33333,"lon":111.23333,"population":0},{"id":2028450,"name":"Ulaandel","ascii":"Ulaandel","lat":46.36446,"lon":113.577,"population":0},{"id":2028437,"name":"Ulaanhad","ascii":"Ulaanhad","lat":47.94993,"lon":105.55321,"population":0},{"id":2028411,"name":"Ulaanjirem","ascii":"Ulaanjirem","lat":45.05,"lon":105.56667,"population":0},{"id":6988118,"name":"Ulaanshiveet","ascii":"Ulaanshiveet","lat":47.28948,"lon":103.85659,"population":0},{"id":1515018,"name":"Ulaantolgoy","ascii":"Ulaantolgoy","lat":46.68333,"lon":92.78333,"population":0},{"id":2028351,"name":"Uldz","ascii":"Uldz","lat":48.69028,"lon":111.99463,"population":0},{"id":2030646,"name":"Undur Sume","ascii":"Undur Sume","lat":50.47278,"lon":100.92778,"population":0},{"id":1514993,"name":"Urdgol","ascii":"Urdgol","lat":47.83333,"lon":92.65,"population":0},{"id":2028313,"name":"Urt","ascii":"Urt","lat":43.23245,"lon":101.04813,"population":0},{"id":2028287,"name":"Uubulan","ascii":"Uubulan","lat":48.60885,"lon":101.93424,"population":0},{"id":1514975,"name":"Uujim","ascii":"Uujim","lat":48.9,"lon":89.61667,"population":0},{"id":2028252,"name":"Üydzen","ascii":"UEydzen","lat":44.08216,"lon":106.86985,"population":0},{"id":1514961,"name":"Üyönch","ascii":"Uyonch","lat":46.05,"lon":92.01667,"population":0}]