[{"id":934154,"name":"Port Louis","nameKo":"포트루이스","ascii":"Port Louis","lat":-20.16194,"lon":57.49889,"population":155226},{"id":933945,"name":"Vacoas","ascii":"Vacoas","lat":-20.29806,"lon":57.47833,"population":115289},{"id":934765,"name":"Beau Bassin-Rose Hill","ascii":"Beau Bassin-Rose Hill","lat":-20.23325,"lon":57.46609,"population":111355},{"id":934570,"name":"Curepipe","nameKo":"쿠레피페","ascii":"Curepipe","lat":-20.31628,"lon":57.52594,"population":78618},{"id":934131,"name":"Quatre Bornes","ascii":"Quatre Bornes","lat":-20.26381,"lon":57.4791,"population":77308},{"id":933959,"name":"Triolet","ascii":"Triolet","lat":-20.0576,"lon":57.55025,"population":24361},{"id":934488,"name":"Goodlands","ascii":"Goodlands","lat":-20.03841,"lon":57.65055,"population":21063},{"id":934750,"name":"Bel Air Rivière Sèche","ascii":"Bel Air Riviere Seche","lat":-20.25777,"lon":57.74976,"population":18036},{"id":934778,"name":"Bambous","ascii":"Bambous","lat":-20.25667,"lon":57.40611,"population":17818},{"id":934631,"name":"Centre de Flacq","ascii":"Centre de Flacq","lat":-20.18972,"lon":57.71444,"population":17710},{"id":934322,"name":"Mahébourg","ascii":"Mahebourg","lat":-20.40806,"lon":57.7,"population":17042},{"id":934032,"name":"Saint Pierre","ascii":"Saint Pierre","lat":-20.2215,"lon":57.53431,"population":16704},{"id":1106809,"name":"Le Hochet","ascii":"Le Hochet","lat":-20.13859,"lon":57.53013,"population":15662},{"id":1106616,"name":"Baie du Tombeau","ascii":"Baie du Tombeau","lat":-20.11944,"lon":57.49139,"population":15301},{"id":933953,"name":"Trou aux Biches","ascii":"Trou aux Biches","lat":-20.03301,"lon":57.55033,"population":14706},{"id":934072,"name":"Rose Belle","ascii":"Rose Belle","lat":-20.40028,"lon":57.59667,"population":12619},{"id":934614,"name":"Chemin Grenier","ascii":"Chemin Grenier","lat":-20.48722,"lon":57.46556,"population":12457},{"id":934482,"name":"Grand Baie","ascii":"Grand Baie","lat":-20.01816,"lon":57.58015,"population":12173},{"id":11205637,"name":"Lallmatie","ascii":"Lallmatie","lat":-20.01839,"lon":57.58017,"population":11910},{"id":933974,"name":"Terre Rouge","ascii":"Terre Rouge","lat":-20.1283,"lon":57.53116,"population":11210},{"id":934240,"name":"New Grove","ascii":"New Grove","lat":-20.40861,"lon":57.61361,"population":11023},{"id":934091,"name":"Rivière du Rempart","ascii":"Riviere du Rempart","lat":-20.10306,"lon":57.68472,"population":10825},{"id":934169,"name":"Plaine Magnien","ascii":"Plaine Magnien","lat":-20.42967,"lon":57.66968,"population":10778},{"id":934065,"name":"Rouge Terre","ascii":"Rouge Terre","lat":-20.04333,"lon":57.56833,"population":10760},{"id":934390,"name":"Lalmatie","ascii":"Lalmatie","lat":-20.18972,"lon":57.66111,"population":10641},{"id":934219,"name":"Pailles","ascii":"Pailles","lat":-20.19271,"lon":57.48826,"population":10622},{"id":933988,"name":"Surinam","ascii":"Surinam","lat":-20.50972,"lon":57.50528,"population":10621},{"id":934095,"name":"Rivière des Anguilles","ascii":"Riviere des Anguilles","lat":-20.493,"lon":57.563,"population":9927},{"id":934213,"name":"Pamplemousses","ascii":"Pamplemousses","lat":-20.10389,"lon":57.57028,"population":9682},{"id":934262,"name":"Montagne Blanche","ascii":"Montagne Blanche","lat":-20.28538,"lon":57.65865,"population":9440},{"id":934184,"name":"Petit Raffray","ascii":"Petit Raffray","lat":-20.02022,"lon":57.62296,"population":9410},{"id":934277,"name":"Moka","ascii":"Moka","lat":-20.21904,"lon":57.51083,"population":9364},{"id":12168288,"name":"Richelieu","ascii":"Richelieu","lat":-20.19324,"lon":57.45952,"population":9178},{"id":934149,"name":"Poste de Flacq","ascii":"Poste de Flacq","lat":-20.16306,"lon":57.73056,"population":8659},{"id":1545752,"name":"Port Mathurin","ascii":"Port Mathurin","lat":-19.68333,"lon":63.41667,"population":8350},{"id":934170,"name":"Plaine des Papayes","ascii":"Plaine des Papayes","lat":-20.065,"lon":57.5725,"population":7925},{"id":934343,"name":"L’Escalier","ascii":"L'Escalier","lat":-20.47,"lon":57.61222,"population":7899},{"id":934485,"name":"Grand Bois","ascii":"Grand Bois","lat":-20.41889,"lon":57.54417,"population":7804},{"id":934333,"name":"Long Mountain","ascii":"Long Mountain","lat":-20.151,"lon":57.573,"population":7775},{"id":934479,"name":"Grand Gaube","ascii":"Grand Gaube","lat":-20.00639,"lon":57.66083,"population":7706},{"id":934677,"name":"Brisée Verdière","ascii":"Brisee Verdiere","lat":-20.16389,"lon":57.64667,"population":7696},{"id":934736,"name":"Belle Vue Harel","ascii":"Belle Vue Harel","lat":-20.06583,"lon":57.59417,"population":7607},{"id":934739,"name":"Belle Vue Maurel","ascii":"Belle Vue Maurel","lat":-20.12028,"lon":57.66361,"population":7607},{"id":1106614,"name":"Pointe aux Piments","ascii":"Pointe aux Piments","lat":-20.06494,"lon":57.52347,"population":7556},{"id":934400,"name":"Dagotière","ascii":"Dagotiere","lat":-20.24476,"lon":57.56188,"population":7468},{"id":934229,"name":"Nouvelle France","ascii":"Nouvelle France","lat":-20.37056,"lon":57.56111,"population":7238},{"id":934753,"name":"Beau Vallon","ascii":"Beau Vallon","lat":-20.42325,"lon":57.70351,"population":7016},{"id":934693,"name":"Bon Accueil","ascii":"Bon Accueil","lat":-20.175,"lon":57.672,"population":6553},{"id":934133,"name":"Quartier Militaire","ascii":"Quartier Militaire","lat":-20.2479,"lon":57.59737,"population":6424},{"id":8643380,"name":"Calodyne","ascii":"Calodyne","lat":-20.00215,"lon":57.64249,"population":6252},{"id":1106584,"name":"Laventure","ascii":"Laventure","lat":-20.14583,"lon":57.67667,"population":6171},{"id":934058,"name":"Morcellement Saint André","ascii":"Morcellement Saint Andre","lat":-20.07199,"lon":57.56833,"population":6150},{"id":10171149,"name":"Anse La Raye","ascii":"Anse La Raye","lat":-19.99057,"lon":57.63202,"population":6060},{"id":1106660,"name":"Ecroignard","ascii":"Ecroignard","lat":-20.22611,"lon":57.73611,"population":5952},{"id":934255,"name":"Piton","ascii":"Piton","lat":-20.09028,"lon":57.63028,"population":5909},{"id":934513,"name":"Fond du Sac","ascii":"Fond du Sac","lat":-20.04732,"lon":57.584,"population":5796},{"id":934013,"name":"Sebastopol","ascii":"Sebastopol","lat":-20.2907,"lon":57.68779,"population":5745},{"id":934085,"name":"Roches Noire","ascii":"Roches Noire","lat":-20.11111,"lon":57.71222,"population":5733},{"id":1106643,"name":"Quatre Cocos","ascii":"Quatre Cocos","lat":-20.20151,"lon":57.77448,"population":5724},{"id":934195,"name":"Petite Rivière","ascii":"Petite Riviere","lat":-20.19551,"lon":57.44592,"population":5331},{"id":934660,"name":"Camp Diable","ascii":"Camp Diable","lat":-20.46278,"lon":57.57889,"population":5082},{"id":1106611,"name":"Péreybère","ascii":"Pereybere","lat":-19.99883,"lon":57.5885,"population":5000},{"id":934624,"name":"Chamouny","ascii":"Chamouny","lat":-20.48222,"lon":57.46611,"population":4913},{"id":934649,"name":"Cap Malheureux","ascii":"Cap Malheureux","lat":-19.98417,"lon":57.61417,"population":4803},{"id":1106811,"name":"Calebasses","ascii":"Calebasses","lat":-20.11167,"lon":57.55389,"population":4648},{"id":934282,"name":"Midlands","ascii":"Midlands","lat":-20.338,"lon":57.567,"population":4546},{"id":934735,"name":"Belle Vue Pilot","ascii":"Belle Vue Pilot","lat":-20.05486,"lon":57.58365,"population":4518},{"id":933995,"name":"Souillac","ascii":"Souillac","lat":-20.51667,"lon":57.51667,"population":4434},{"id":1106645,"name":"Camp Ithier","ascii":"Camp Ithier","lat":-20.21583,"lon":57.74556,"population":4401},{"id":933982,"name":"Tamarin","ascii":"Tamarin","lat":-20.32556,"lon":57.37056,"population":4371},{"id":1106631,"name":"Plaines des Roches","ascii":"Plaines des Roches","lat":-20.11167,"lon":57.69083,"population":4218},{"id":934047,"name":"Saint Hubert","ascii":"Saint Hubert","lat":-20.36417,"lon":57.63833,"population":4170},{"id":934225,"name":"Olivia","ascii":"Olivia","lat":-20.28778,"lon":57.73097,"population":3980},{"id":934232,"name":"Notre Dame","ascii":"Notre Dame","lat":-20.14298,"lon":57.55969,"population":3959},{"id":933970,"name":"The Vale","ascii":"The Vale","lat":-20.03018,"lon":57.60219,"population":3707},{"id":1106596,"name":"Cottage","ascii":"Cottage","lat":-20.05972,"lon":57.62917,"population":3646},{"id":934127,"name":"Quatre Soeurs","ascii":"Quatre Soeurs","lat":-20.29917,"lon":57.77056,"population":3515},{"id":1106763,"name":"Gros Cailloux","ascii":"Gros Cailloux","lat":-20.20722,"lon":57.43,"population":3361},{"id":934812,"name":"Albion","ascii":"Albion","lat":-20.20814,"lon":57.40766,"population":3254},{"id":934076,"name":"Roche Terre","ascii":"Roche Terre","lat":-20.01861,"lon":57.64472,"population":3199},{"id":934043,"name":"Saint Julien","ascii":"Saint Julien","lat":-20.208,"lon":57.676,"population":3188},{"id":934138,"name":"Providence","ascii":"Providence","lat":-20.24472,"lon":57.61222,"population":3126},{"id":934573,"name":"Crève Coeur","ascii":"Creve Coeur","lat":-20.19346,"lon":57.56328,"population":3097},{"id":934126,"name":"Queen Victoria","ascii":"Queen Victoria","lat":-20.22,"lon":57.7075,"population":3025},{"id":1106630,"name":"Amaury","ascii":"Amaury","lat":-20.13083,"lon":57.65917,"population":2912},{"id":1106788,"name":"Dubreuil","ascii":"Dubreuil","lat":-20.30132,"lon":57.59861,"population":2726},{"id":934661,"name":"Camp de Masque","ascii":"Camp de Masque","lat":-20.236,"lon":57.676,"population":2721},{"id":934644,"name":"Cascavelle","ascii":"Cascavelle","lat":-20.28694,"lon":57.40722,"population":2613},{"id":1106813,"name":"Arsenal","ascii":"Arsenal","lat":-20.10556,"lon":57.53528,"population":2599},{"id":1547471,"name":"Baie aux Huîtres","ascii":"Baie aux Huitres","lat":-19.69444,"lon":63.40833,"population":2500},{"id":934475,"name":"Grande Rivière Sud Est","ascii":"Grande Riviere Sud Est","lat":-20.28611,"lon":57.77583,"population":2472},{"id":934731,"name":"Bel Ombre","ascii":"Bel Ombre","lat":-20.50222,"lon":57.40611,"population":2417},{"id":934144,"name":"Poudre d’Or","ascii":"Poudre d'Or","lat":-20.06,"lon":57.67667,"population":2373},{"id":934089,"name":"Grande Rivière Noire","ascii":"Grande Riviere Noire","lat":-20.36028,"lon":57.36611,"population":2361},{"id":934533,"name":"Espérance Trébuchet","ascii":"Esperance Trebuchet","lat":-20.06972,"lon":57.64194,"population":2323},{"id":934656,"name":"Camp Thorel","ascii":"Camp Thorel","lat":-20.21472,"lon":57.61611,"population":2299},{"id":934459,"name":"Grand Sable","ascii":"Grand Sable","lat":-20.31417,"lon":57.76444,"population":2208},{"id":933933,"name":"Verdun","ascii":"Verdun","lat":-20.23417,"lon":57.55476,"population":2208},{"id":934092,"name":"Rivière du Poste","ascii":"Riviere du Poste","lat":-20.42417,"lon":57.56694,"population":2170},{"id":1106638,"name":"Mare La Chaux","ascii":"Mare La Chaux","lat":-20.19806,"lon":57.74944,"population":2058},{"id":934517,"name":"Flic en Flac","ascii":"Flic en Flac","lat":-20.278,"lon":57.372,"population":2010},{"id":934288,"name":"Melrose","ascii":"Melrose","lat":-20.26972,"lon":57.63194,"population":2002},{"id":934705,"name":"Bois des Amourettes","ascii":"Bois des Amourettes","lat":-20.36306,"lon":57.73111,"population":1986},{"id":1106621,"name":"Congomah","ascii":"Congomah","lat":-20.14889,"lon":57.59083,"population":1956},{"id":934599,"name":"Clémencia","ascii":"Clemencia","lat":-20.26389,"lon":57.70611,"population":1835},{"id":934056,"name":"Saint Aubin","ascii":"Saint Aubin","lat":-20.496,"lon":57.55,"population":1659},{"id":1106589,"name":"Cluny","ascii":"Cluny","lat":-20.36694,"lon":57.60389,"population":1629},{"id":1106677,"name":"Bambous Virieux","ascii":"Bambous Virieux","lat":-20.34278,"lon":57.7575,"population":1540},{"id":934198,"name":"Petite Case Noyale","ascii":"Petite Case Noyale","lat":-20.404,"lon":57.371,"population":1525},{"id":1106771,"name":"Mapou","ascii":"Mapou","lat":-20.07583,"lon":57.60139,"population":1288},{"id":1106748,"name":"Ebene","ascii":"Ebene","lat":-20.24494,"lon":57.49163,"population":1001},{"id":12022106,"name":"Vingt Cinq","ascii":"Vingt Cinq","lat":-10.38803,"lon":56.61795,"population":250},{"id":8199111,"name":"Cargados Carajos","ascii":"Cargados Carajos","lat":-16.60329,"lon":59.65851,"population":63}]