[{"id":3352136,"name":"Windhoek","nameKo":"빈트후크","ascii":"Windhoek","lat":-22.55941,"lon":17.08323,"population":386219},{"id":3353383,"name":"Rundu","nameKo":"룬두","ascii":"Rundu","lat":-17.91796,"lon":19.77314,"population":75180},{"id":3359638,"name":"Walvis Bay","nameKo":"월비스베이","ascii":"Walvis Bay","lat":-22.9575,"lon":14.50528,"population":73598},{"id":3352844,"name":"Swakopmund","nameKo":"스바코프문트","ascii":"Swakopmund","lat":-22.67842,"lon":14.52663,"population":53009},{"id":3354021,"name":"Oshakati","ascii":"Oshakati","lat":-17.78833,"lon":15.70436,"population":43309},{"id":3353540,"name":"Rehoboth","ascii":"Rehoboth","lat":-23.317,"lon":17.09,"population":34185},{"id":877178,"name":"Katima Mulilo","nameKo":"카티마물릴로","ascii":"Katima Mulilo","lat":-17.50467,"lon":24.27574,"population":33615},{"id":3353811,"name":"Otjiwarongo","ascii":"Otjiwarongo","lat":-20.46369,"lon":16.64772,"population":33481},{"id":3354247,"name":"Ondangwa","ascii":"Ondangwa","lat":-17.90824,"lon":15.98037,"population":27049},{"id":3354898,"name":"Okahandja","ascii":"Okahandja","lat":-21.98141,"lon":16.9029,"population":26832},{"id":3357114,"name":"Grootfontein","nameKo":"그루트폰테인","ascii":"Grootfontein","lat":-19.57328,"lon":18.1003,"population":24099},{"id":3354147,"name":"Ongwediva","ascii":"Ongwediva","lat":-17.77198,"lon":15.76564,"population":24012},{"id":3356264,"name":"Keetmanshoop","nameKo":"케이트만스호프","ascii":"Keetmanshoop","lat":-26.57654,"lon":18.13359,"population":23049},{"id":12718704,"name":"Helao Nafidi","ascii":"Helao Nafidi","lat":-17.39321,"lon":15.89107,"population":22963},{"id":3352593,"name":"Tsumeb","nameKo":"추메브","ascii":"Tsumeb","lat":-19.24842,"lon":17.71345,"population":22845},{"id":3357247,"name":"Gobabis","ascii":"Gobabis","lat":-22.45338,"lon":18.97159,"population":22639},{"id":3356294,"name":"Katutura","ascii":"Katutura","lat":-22.52306,"lon":17.06028,"population":21243},{"id":876961,"name":"Ndiyona","ascii":"Ndiyona","lat":-18.03892,"lon":20.70058,"population":20633},{"id":3355672,"name":"Lüderitz","nameKo":"뤼데리츠","ascii":"Luderitz","lat":-26.64807,"lon":15.15383,"population":15137},{"id":3355595,"name":"Mariental","nameKo":"마리엔탈","ascii":"Mariental","lat":-24.62705,"lon":17.96471,"population":14789},{"id":3356213,"name":"Khorixas","ascii":"Khorixas","lat":-20.37711,"lon":14.96203,"population":12021},{"id":3354540,"name":"Omaruru","ascii":"Omaruru","lat":-21.42403,"lon":15.94611,"population":11547},{"id":3358416,"name":"Bethanie","ascii":"Bethanie","lat":-26.49958,"lon":17.1599,"population":10363},{"id":3353715,"name":"Outjo","ascii":"Outjo","lat":-20.10691,"lon":16.15415,"population":10009},{"id":3352461,"name":"Usakos","ascii":"Usakos","lat":-22.00219,"lon":15.58601,"population":9147},{"id":3354077,"name":"Opuwo","ascii":"Opuwo","lat":-18.06068,"lon":13.83998,"population":9075},{"id":3354071,"name":"Oranjemund","ascii":"Oranjemund","lat":-28.55153,"lon":16.42728,"population":8496},{"id":3353871,"name":"Otjimbingwe","ascii":"Otjimbingwe","lat":-22.35536,"lon":16.12883,"population":7677},{"id":3371197,"name":"Outapi","ascii":"Outapi","lat":-17.50375,"lon":14.98383,"population":7629},{"id":3354897,"name":"Okahao","ascii":"Okahao","lat":-17.88758,"lon":15.06677,"population":7000},{"id":3356332,"name":"Karibib","ascii":"Karibib","lat":-21.93554,"lon":15.85654,"population":6898},{"id":3352263,"name":"Warmbad","ascii":"Warmbad","lat":-28.44611,"lon":18.73569,"population":6700},{"id":3357804,"name":"Eenhana","ascii":"Eenhana","lat":-17.48535,"lon":16.3294,"population":6551},{"id":7116015,"name":"Rosh Pinah","ascii":"Rosh Pinah","lat":-27.96605,"lon":16.76136,"population":6540},{"id":3353934,"name":"Otavi","ascii":"Otavi","lat":-19.63805,"lon":17.33986,"population":6213},{"id":3358670,"name":"Arandis","ascii":"Arandis","lat":-22.41749,"lon":14.97385,"population":6127},{"id":3356343,"name":"Karasburg","ascii":"Karasburg","lat":-28.01658,"lon":18.74797,"population":6054},{"id":12718706,"name":"Osire","ascii":"Osire","lat":-21.07391,"lon":17.36599,"population":5941},{"id":12718705,"name":"Ondangwa East","ascii":"Ondangwa East","lat":-17.93021,"lon":16.0172,"population":5742},{"id":3356832,"name":"Henties Bay","ascii":"Henties Bay","lat":-22.11609,"lon":14.28394,"population":5594},{"id":3354876,"name":"Okakarara","ascii":"Okakarara","lat":-20.58755,"lon":17.45942,"population":5581},{"id":12718702,"name":"Aussenkehr","ascii":"Aussenkehr","lat":-28.36274,"lon":17.41272,"population":5359},{"id":3354367,"name":"Omuthiya","ascii":"Omuthiya","lat":-18.36463,"lon":16.58146,"population":5000},{"id":3354130,"name":"Oniipa","ascii":"Oniipa","lat":-17.91667,"lon":16.03333,"population":4740},{"id":3358666,"name":"Aranos","ascii":"Aranos","lat":-24.14126,"lon":19.11754,"population":4365},{"id":3352604,"name":"Tsintsabis","ascii":"Tsintsabis","lat":-18.76936,"lon":17.9629,"population":4000},{"id":3353400,"name":"Ruacana","ascii":"Ruacana","lat":-17.42817,"lon":14.41504,"population":3537},{"id":3357124,"name":"Groot Aub","ascii":"Groot Aub","lat":-22.9385,"lon":17.19534,"population":3452},{"id":3353989,"name":"Oshikuku","ascii":"Oshikuku","lat":-17.63584,"lon":15.48173,"population":3272},{"id":3357293,"name":"Gibeon","ascii":"Gibeon","lat":-25.12213,"lon":17.76935,"population":3118},{"id":3356802,"name":"Hoachanas","ascii":"Hoachanas","lat":-23.92109,"lon":18.05328,"population":3000},{"id":3355624,"name":"Maltahöhe","ascii":"Maltahoehe","lat":-24.83923,"lon":16.9859,"population":2819},{"id":3354178,"name":"Ongandjera","ascii":"Ongandjera","lat":-17.87847,"lon":15.06961,"population":2719},{"id":3353996,"name":"Oshikango","ascii":"Oshikango","lat":-17.40161,"lon":15.89077,"population":2658},{"id":3354650,"name":"Ekongo","ascii":"Ekongo","lat":-17.56667,"lon":17.21667,"population":2650},{"id":3353863,"name":"Otjinene","ascii":"Otjinene","lat":-21.13889,"lon":18.7836,"population":2491},{"id":3355099,"name":"Noordoewer","ascii":"Noordoewer","lat":-28.71817,"lon":17.62147,"population":2401},{"id":3352934,"name":"Stampriet","ascii":"Stampriet","lat":-24.34494,"lon":18.40464,"population":2307},{"id":3353962,"name":"Oshivelo","ascii":"Oshivelo","lat":-18.61972,"lon":17.16743,"population":2287},{"id":3356469,"name":"Kamanjab","ascii":"Kamanjab","lat":-19.62882,"lon":14.8452,"population":2127},{"id":3352083,"name":"Witvlei","ascii":"Witvlei","lat":-22.41039,"lon":18.49359,"population":2095},{"id":877349,"name":"Bagani","ascii":"Bagani","lat":-18.11065,"lon":21.61645,"population":2000},{"id":3352609,"name":"Tses","ascii":"Tses","lat":-25.88489,"lon":18.12469,"population":2000},{"id":3358610,"name":"Aroab","ascii":"Aroab","lat":-26.79744,"lon":19.6527,"population":1967},{"id":3356049,"name":"Koës","ascii":"Koes","lat":-25.93091,"lon":19.12814,"population":1813},{"id":3352523,"name":"Uis","ascii":"Uis","lat":-21.2177,"lon":14.86569,"population":1771},{"id":876747,"name":"Tsumkwe","nameKo":"춤쿠에","ascii":"Tsumkwe","lat":-19.59363,"lon":20.50203,"population":1664},{"id":3356487,"name":"Kalkfeld","ascii":"Kalkfeld","lat":-20.88719,"lon":16.19038,"population":1656},{"id":3356477,"name":"Kalkrand","ascii":"Kalkrand","lat":-24.07367,"lon":17.58635,"population":1467},{"id":3355748,"name":"Leonardville","ascii":"Leonardville","lat":-23.50462,"lon":18.7912,"population":1411},{"id":3354654,"name":"Okondjatu","ascii":"Okondjatu","lat":-20.98168,"lon":18.22422,"population":1386},{"id":3357234,"name":"Gochas","ascii":"Gochas","lat":-24.85762,"lon":18.80137,"population":1378},{"id":3354850,"name":"Okalongo","ascii":"Okalongo","lat":-17.44006,"lon":15.33234,"population":1320},{"id":3354676,"name":"Okombahe","ascii":"Okombahe","lat":-21.358,"lon":15.37748,"population":1295},{"id":3358522,"name":"Aus","ascii":"Aus","lat":-26.66557,"lon":16.26109,"population":1263},{"id":3353231,"name":"Schlip","ascii":"Schlip","lat":-24.04631,"lon":17.12844,"population":1141},{"id":3353172,"name":"Sesfontein","ascii":"Sesfontein","lat":-19.12279,"lon":13.6205,"population":1088},{"id":877130,"name":"Linyanti","ascii":"Linyanti","lat":-18.07229,"lon":24.01566,"population":1061},{"id":3352636,"name":"Tsandi","ascii":"Tsandi","lat":-17.74292,"lon":14.88575,"population":1056},{"id":3355137,"name":"Nkurenkuru","ascii":"Nkurenkuru","lat":-17.64182,"lon":18.61966,"population":732}]