[{"id":2139521,"name":"Nouméa","nameKo":"누메아","ascii":"Noumea","lat":-22.27407,"lon":166.44884,"population":93060},{"id":2140066,"name":"Mont-Dore","ascii":"Mont-Dore","lat":-22.26257,"lon":166.56621,"population":24680},{"id":2141394,"name":"Dumbéa","ascii":"Dumbea","lat":-22.15757,"lon":166.4572,"population":19346},{"id":2138981,"name":"Païta","ascii":"Paita","lat":-22.13105,"lon":166.35717,"population":12617},{"id":2137690,"name":"Wé","ascii":"We","lat":-20.91687,"lon":167.26461,"population":10375},{"id":11956197,"name":"Vallée des Colons","ascii":"Vallee des Colons","lat":-22.27727,"lon":166.45803,"population":8866},{"id":2138285,"name":"Tadine","ascii":"Tadine","lat":-21.54751,"lon":167.88019,"population":7492},{"id":11956106,"name":"Magenta","ascii":"Magenta","lat":-22.26867,"lon":166.47122,"population":7169},{"id":11956101,"name":"Rivière-Salée","ascii":"Riviere-Salee","lat":-22.23144,"lon":166.46421,"population":6873},{"id":2141714,"name":"Bourail","ascii":"Bourail","lat":-21.5669,"lon":165.49736,"population":5531},{"id":2138717,"name":"Poindimié","ascii":"Poindimie","lat":-20.93714,"lon":165.33121,"population":5006},{"id":2140691,"name":"Koné","ascii":"Kone","lat":-21.05951,"lon":164.86582,"population":4572},{"id":2141006,"name":"Houaïlou","ascii":"Houailou","lat":-21.28333,"lon":165.61667,"population":4562},{"id":11185984,"name":"Portes de Fer","ascii":"Portes de Fer","lat":-22.25796,"lon":166.46081,"population":4093},{"id":13526992,"name":"Aérodrome","ascii":"Aerodrome","lat":-22.25496,"lon":166.47022,"population":3951},{"id":11956196,"name":"Septième Kilomètre","ascii":"Septieme Kilometre","lat":-22.23135,"lon":166.48082,"population":3944},{"id":10861676,"name":"Anse-Vata","ascii":"Anse-Vata","lat":-22.30037,"lon":166.44347,"population":3729},{"id":11956109,"name":"Val Plaisance","ascii":"Val Plaisance","lat":-22.30048,"lon":166.45469,"population":3631},{"id":10861677,"name":"N'Géa","ascii":"N'Gea","lat":-22.28953,"lon":166.45411,"population":3624},{"id":2141658,"name":"Canala","ascii":"Canala","lat":-21.53333,"lon":165.95,"population":3538},{"id":2139508,"name":"Nouville","ascii":"Nouville","lat":-22.26024,"lon":166.40225,"population":3481},{"id":2141305,"name":"Ouvéa","ascii":"Ouvea","lat":-20.65284,"lon":166.53641,"population":3401},{"id":2139544,"name":"Normandie","ascii":"Normandie","lat":-22.2225,"lon":166.48007,"population":3316},{"id":11185986,"name":"Kaméré","ascii":"Kamere","lat":-22.23,"lon":166.43244,"population":3127},{"id":2140558,"name":"Koumac","ascii":"Koumac","lat":-20.56667,"lon":164.28333,"population":3060},{"id":11956194,"name":"Sixième Kilomètre","ascii":"Sixieme Kilometre","lat":-22.24626,"lon":166.47204,"population":2949},{"id":2140466,"name":"La Foa","ascii":"La Foa","lat":-21.71079,"lon":165.82764,"population":2947},{"id":11956110,"name":"Trianon","ascii":"Trianon","lat":-22.2871,"lon":166.44913,"population":2944},{"id":2138103,"name":"Thio","ascii":"Thio","lat":-21.61667,"lon":166.21667,"population":2748},{"id":2138687,"name":"Ponérihouen","ascii":"Ponerihouen","lat":-21.08333,"lon":165.4,"population":2739},{"id":2141894,"name":"Faubourg Blanchot","ascii":"Faubourg Blanchot","lat":-22.28186,"lon":166.4541,"population":2730},{"id":11956114,"name":"Vallée du Génie","ascii":"Vallee du Genie","lat":-22.27065,"lon":166.44113,"population":2699},{"id":2141050,"name":"Hienghène","ascii":"Hienghene","lat":-20.68333,"lon":164.93333,"population":2668},{"id":2138522,"name":"Poya","ascii":"Poya","lat":-21.35,"lon":165.15,"population":2617},{"id":10227143,"name":"Receiving","ascii":"Receiving","lat":-22.29227,"lon":166.4427,"population":2604},{"id":2138607,"name":"Pouébo","ascii":"Pouebo","lat":-20.4,"lon":164.56667,"population":2391},{"id":2137873,"name":"Touho","ascii":"Touho","lat":-20.79094,"lon":165.24987,"population":2283},{"id":2137748,"name":"Voh","ascii":"Voh","lat":-20.96667,"lon":164.7,"population":2272},{"id":11956113,"name":"Quartier Latin","ascii":"Quartier Latin","lat":-22.27538,"lon":166.44651,"population":2267},{"id":11956193,"name":"Quatrième Kilomètre","ascii":"Quatrieme Kilometre","lat":-22.24616,"lon":166.46159,"population":2267},{"id":2137776,"name":"Vallée du Tir","ascii":"Vallee du Tir","lat":-22.2609,"lon":166.44715,"population":2190},{"id":2141722,"name":"Bouloupari","ascii":"Bouloupari","lat":-21.86226,"lon":166.05122,"population":2146},{"id":2139259,"name":"Ouégoa","ascii":"Ouegoa","lat":-20.35,"lon":164.43333,"population":2127},{"id":10227145,"name":"Baie Des Citrons","ascii":"Baie Des Citrons","lat":-22.29072,"lon":166.43639,"population":2097},{"id":13526994,"name":"Ducos","ascii":"Ducos","lat":-22.2415,"lon":166.4234,"population":2082},{"id":13526991,"name":"Haut-Magenta","ascii":"Haut-Magenta","lat":-22.2632,"lon":166.45863,"population":2010},{"id":2140915,"name":"Kaala-Gomén","ascii":"Kaala-Gomen","lat":-20.66667,"lon":164.4,"population":1897},{"id":2137644,"name":"Yaté-Barrage","ascii":"Yate-Barrage","lat":-22.15,"lon":166.88333,"population":1871},{"id":2137773,"name":"Vao","ascii":"Vao","lat":-22.66645,"lon":167.49627,"population":1862},{"id":11185983,"name":"Montravel","ascii":"Montravel","lat":-22.25165,"lon":166.45467,"population":1858},{"id":11956105,"name":"Ouémo","ascii":"Ouemo","lat":-22.27441,"lon":166.4766,"population":1636},{"id":11956119,"name":"Tina","ascii":"Tina","lat":-22.23437,"lon":166.49631,"population":1586},{"id":2138592,"name":"Pouembout","ascii":"Pouembout","lat":-21.13333,"lon":164.9,"population":1511},{"id":11956111,"name":"Orphelinat","ascii":"Orphelinat","lat":-22.28238,"lon":166.44437,"population":1414},{"id":2138555,"name":"Poum","ascii":"Poum","lat":-20.23333,"lon":164.01667,"population":1405},{"id":10861871,"name":"Artillerie","ascii":"Artillerie","lat":-22.27972,"lon":166.43897,"population":1398},{"id":11103495,"name":"Tindu","ascii":"Tindu","lat":-22.23119,"lon":166.42004,"population":1391},{"id":11103499,"name":"Logicoop","ascii":"Logicoop","lat":-22.23528,"lon":166.43455,"population":1208},{"id":13526993,"name":"Zone industriel Ducos","ascii":"Zone industriel Ducos","lat":-22.2393,"lon":166.44686,"population":1151},{"id":2137713,"name":"Wala","ascii":"Wala","lat":-19.71161,"lon":163.64702,"population":890}]