[{"id":287286,"name":"Muscat","nameKo":"무스카트","ascii":"Muscat","lat":23.58413,"lon":58.40778,"population":797000},{"id":288967,"name":"Seeb","nameKo":"시브","ascii":"Seeb","lat":23.67027,"lon":58.18911,"population":470878},{"id":288764,"name":"Bawshar","ascii":"Bawshar","lat":23.57769,"lon":58.39982,"population":383257},{"id":287830,"name":"‘Ibrī","ascii":"'Ibri","lat":23.22573,"lon":56.51572,"population":163473},{"id":286621,"name":"Şalālah","ascii":"Salalah","lat":17.01505,"lon":54.09237,"population":163140},{"id":286647,"name":"Şaḩam","ascii":"Saham","lat":24.17222,"lon":56.88861,"population":140000},{"id":289011,"name":"Rustaq","ascii":"Rustaq","lat":23.39083,"lon":57.42444,"population":120000},{"id":286282,"name":"Sohar","nameKo":"소하르","ascii":"Sohar","lat":24.34745,"lon":56.70937,"population":108274},{"id":288955,"name":"As Suwayq","ascii":"As Suwayq","lat":23.84944,"lon":57.43861,"population":107143},{"id":288789,"name":"Barkā’","ascii":"Barka'","lat":23.67872,"lon":57.88605,"population":81647},{"id":286590,"name":"Samā’il","ascii":"Sama'il","lat":23.29838,"lon":57.9531,"population":80538},{"id":289317,"name":"Al Buraymī","ascii":"Al Buraymi","lat":24.25088,"lon":55.79312,"population":73670},{"id":286987,"name":"Nizwá","ascii":"Nizwa","lat":22.93333,"lon":57.53333,"population":72076},{"id":286245,"name":"Sur","nameKo":"수르","ascii":"Sur","lat":22.56667,"lon":59.52889,"population":71152},{"id":286839,"name":"Qurayyāt","ascii":"Qurayyat","lat":23.26298,"lon":58.92014,"population":63133},{"id":288899,"name":"Bahlā’","ascii":"Bahla'","lat":22.97886,"lon":57.3047,"population":54338},{"id":289199,"name":"Al Khābūrah","ascii":"Al Khaburah","lat":23.97144,"lon":57.09313,"population":50223},{"id":286402,"name":"Shināş","ascii":"Shinas","lat":24.7426,"lon":56.46698,"population":48009},{"id":286293,"name":"Sufālat Samā’il","ascii":"Sufalat Sama'il","lat":23.31667,"lon":58.01667,"population":47718},{"id":287814,"name":"Izkī","ascii":"Izki","lat":22.93333,"lon":57.76667,"population":36203},{"id":289174,"name":"Liwá","ascii":"Liwa","lat":24.53077,"lon":56.563,"population":26372},{"id":287832,"name":"Ibrā’","ascii":"Ibra'","lat":22.69057,"lon":58.53337,"population":25265},{"id":288721,"name":"Bidbid","ascii":"Bidbid","lat":23.40787,"lon":58.1283,"population":21188},{"id":288902,"name":"Badīyah","ascii":"Badiyah","lat":22.45,"lon":58.8,"population":18479},{"id":287614,"name":"Khasab","nameKo":"하사브","ascii":"Khasab","lat":26.17993,"lon":56.24774,"population":17904},{"id":289433,"name":"Adam","ascii":"Adam","lat":22.37934,"lon":57.52718,"population":17283},{"id":411849,"name":"Yanqul","ascii":"Yanqul","lat":23.58645,"lon":56.53969,"population":16599},{"id":289142,"name":"Al Qābil","ascii":"Al Qabil","lat":22.571,"lon":58.69472,"population":14008},{"id":412084,"name":"Bayt al ‘Awābī","ascii":"Bayt al `Awabi","lat":23.30324,"lon":57.52459,"population":10711},{"id":288507,"name":"Dib Dibba","ascii":"Dib Dibba","lat":26.19778,"lon":56.25778,"population":5000},{"id":13440142,"name":"Madḩā’","ascii":"Madha'","lat":25.28357,"lon":56.33196,"population":4306},{"id":291586,"name":"Madḩā’ al Jadīdah","ascii":"Madha' al Jadidah","lat":25.28345,"lon":56.3328,"population":2260},{"id":289162,"name":"Al Māzim","ascii":"Al Mazim","lat":23.40194,"lon":56.28306,"population":1318},{"id":287939,"name":"Haymā’","ascii":"Hayma'","lat":19.95931,"lon":56.27575,"population":1294},{"id":8549596,"name":"Al Mazyūnah","ascii":"Al Mazyunah","lat":17.83836,"lon":52.66042,"population":0}]