[{"id":4034561,"name":"Faaa","ascii":"Faaa","lat":-17.55933,"lon":-149.60352,"population":29851},{"id":4033936,"name":"Papeete","nameKo":"파페에테","ascii":"Papeete","lat":-17.5347,"lon":-149.56843,"population":26357},{"id":4033779,"name":"Punaauia","ascii":"Punaauia","lat":-17.63333,"lon":-149.6,"population":25750},{"id":4033838,"name":"Pirae","ascii":"Pirae","lat":-17.52985,"lon":-149.55119,"population":14475},{"id":4034307,"name":"Mahina","ascii":"Mahina","lat":-17.50648,"lon":-149.48899,"population":14369},{"id":4034005,"name":"Paea","ascii":"Paea","lat":-17.68333,"lon":-149.58333,"population":12084},{"id":4033951,"name":"Papao","ascii":"Papao","lat":-17.75,"lon":-149.55,"population":10360},{"id":4034636,"name":"Arue","ascii":"Arue","lat":-17.52764,"lon":-149.53437,"population":9458},{"id":4033062,"name":"Vaitoare","ascii":"Vaitoare","lat":-16.67618,"lon":-151.45743,"population":5946},{"id":4034745,"name":"Afaahiti","ascii":"Afaahiti","lat":-17.74395,"lon":-149.32444,"population":5186},{"id":4033077,"name":"Vaitape","nameKo":"바이타페","ascii":"Vaitape","lat":-16.50741,"lon":-151.74913,"population":4927},{"id":4034022,"name":"Otutara","ascii":"Otutara","lat":-17.77207,"lon":-149.41341,"population":4609},{"id":4033958,"name":"Paopao","ascii":"Paopao","lat":-17.51863,"lon":-149.82193,"population":4221},{"id":4033566,"name":"Taunoa","ascii":"Taunoa","lat":-17.75139,"lon":-149.35602,"population":4131},{"id":4034438,"name":"Haapiti","ascii":"Haapiti","lat":-17.56352,"lon":-149.86905,"population":3959},{"id":4033205,"name":"Uturoa","ascii":"Uturoa","lat":-16.73022,"lon":-151.44256,"population":3668},{"id":4034741,"name":"Afareaitu","ascii":"Afareaitu","lat":-17.55,"lon":-149.78333,"population":3213},{"id":4033295,"name":"Tohautu","ascii":"Tohautu","lat":-17.76099,"lon":-149.31676,"population":2842},{"id":4033356,"name":"Tiarei","ascii":"Tiarei","lat":-17.53333,"lon":-149.33333,"population":2795},{"id":4033094,"name":"Vairao","ascii":"Vairao","lat":-17.78333,"lon":-149.28333,"population":2423},{"id":4033557,"name":"Tautira","ascii":"Tautira","lat":-17.74744,"lon":-149.16123,"population":2293},{"id":4033514,"name":"Teavaro","ascii":"Teavaro","lat":-17.5,"lon":-149.76667,"population":2289},{"id":4034551,"name":"Faanui","ascii":"Faanui","lat":-16.48679,"lon":-151.74102,"population":2061},{"id":4033792,"name":"Pueu","ascii":"Pueu","lat":-17.73831,"lon":-149.22376,"population":1968},{"id":4033910,"name":"Papetoai","ascii":"Papetoai","lat":-17.49538,"lon":-149.87437,"population":1964},{"id":4033375,"name":"Tevaitoa","ascii":"Tevaitoa","lat":-16.79139,"lon":-151.48893,"population":1851},{"id":4034402,"name":"Hitiaa","ascii":"Hitiaa","lat":-17.6,"lon":-149.3,"population":1826},{"id":4020109,"name":"Atuona","ascii":"Atuona","lat":-9.80342,"lon":-139.04202,"population":1762},{"id":4034548,"name":"Faone","ascii":"Faone","lat":-17.66917,"lon":-149.30919,"population":1747},{"id":4034496,"name":"Fare","ascii":"Fare","lat":-16.7123,"lon":-151.03493,"population":1540},{"id":4033543,"name":"Teahupoo","ascii":"Teahupoo","lat":-17.84645,"lon":-149.26682,"population":1422},{"id":4034688,"name":"Anau","ascii":"Anau","lat":-16.50148,"lon":-151.72135,"population":1412},{"id":8063344,"name":"Taiohae","ascii":"Taiohae","lat":-8.91093,"lon":-140.09972,"population":1224},{"id":4034451,"name":"Fitii","ascii":"Fitii","lat":-16.73535,"lon":-151.0327,"population":1154},{"id":4030556,"name":"Rikitea","ascii":"Rikitea","lat":-23.12322,"lon":-134.96858,"population":1103},{"id":4034188,"name":"Moerai","ascii":"Moerai","lat":-22.45133,"lon":-151.34191,"population":1044},{"id":4034036,"name":"Otepa","ascii":"Otepa","lat":-18.10616,"lon":-140.9059,"population":1009},{"id":11427336,"name":"Tapuarava","ascii":"Tapuarava","lat":-18.46647,"lon":-136.46328,"population":0}]