[{"id":756135,"name":"Warsaw","nameKo":"바르샤바","ascii":"Warsaw","lat":52.22977,"lon":21.01178,"population":1702139},{"id":3094802,"name":"Kraków","nameKo":"크라쿠프","ascii":"Krakow","lat":50.06143,"lon":19.93658,"population":804237},{"id":3081368,"name":"Wrocław","nameKo":"브로츠와프","ascii":"Wroclaw","lat":51.10286,"lon":17.03006,"population":672545},{"id":3093133,"name":"Łódź","nameKo":"우치","ascii":"Lodz","lat":51.77058,"lon":19.47395,"population":645693},{"id":3088171,"name":"Poznań","nameKo":"포즈난","ascii":"Poznan","lat":52.40692,"lon":16.92993,"population":536151},{"id":3099434,"name":"Gdańsk","nameKo":"그단스크","ascii":"Gdansk","lat":54.35227,"lon":18.64912,"population":487371},{"id":3083829,"name":"Szczecin","nameKo":"슈체친","ascii":"Szczecin","lat":53.42894,"lon":14.55302,"population":395513},{"id":765876,"name":"Lublin","nameKo":"루블린","ascii":"Lublin","lat":51.25058,"lon":22.57009,"population":336339},{"id":3102014,"name":"Bydgoszcz","nameKo":"비드고슈치","ascii":"Bydgoszcz","lat":53.1235,"lon":18.00762,"population":330038},{"id":776069,"name":"Białystok","nameKo":"비아위스토크","ascii":"Bialystok","lat":53.13333,"lon":23.16433,"population":295683},{"id":3096472,"name":"Katowice","nameKo":"카토비체","ascii":"Katowice","lat":50.2597,"lon":19.02173,"population":286960},{"id":3099424,"name":"Gdynia","nameKo":"그디니아","ascii":"Gdynia","lat":54.51889,"lon":18.53188,"population":257000},{"id":3100946,"name":"Częstochowa","nameKo":"쳉스토호바","ascii":"Czestochowa","lat":50.79646,"lon":19.12409,"population":248125},{"id":3085128,"name":"Sosnowiec","ascii":"Sosnowiec","lat":50.28682,"lon":19.10385,"population":227295},{"id":760778,"name":"Radom","nameKo":"라돔","ascii":"Radom","lat":51.40253,"lon":21.14714,"population":226794},{"id":764484,"name":"Mokotów","ascii":"Mokotow","lat":52.1934,"lon":21.03487,"population":217683},{"id":3099230,"name":"Gliwice","nameKo":"글리비체","ascii":"Gliwice","lat":50.29761,"lon":18.67658,"population":198835},{"id":759734,"name":"Rzeszów","nameKo":"제슈프","ascii":"Rzeszow","lat":50.04132,"lon":21.99901,"population":198317},{"id":3083271,"name":"Toruń","nameKo":"토룬","ascii":"Torun","lat":53.01375,"lon":18.59814,"population":196935},{"id":769250,"name":"Kielce","nameKo":"키엘체","ascii":"Kielce","lat":50.87033,"lon":20.62752,"population":192468},{"id":3080985,"name":"Zabrze","nameKo":"자브제","ascii":"Zabrze","lat":50.32492,"lon":18.78576,"population":192177},{"id":3101950,"name":"Bytom","nameKo":"비톰","ascii":"Bytom","lat":50.34802,"lon":18.93282,"population":189186},{"id":6545348,"name":"Praga Południe","ascii":"Praga Poludnie","lat":52.24424,"lon":21.08545,"population":179836},{"id":3103402,"name":"Bielsko-Biala","nameKo":"비엘스코비아와","ascii":"Bielsko-Biala","lat":49.82245,"lon":19.04686,"population":176515},{"id":763166,"name":"Olsztyn","ascii":"Olsztyn","lat":53.78376,"lon":20.49272,"population":169793},{"id":6545326,"name":"Ursynów","ascii":"Ursynow","lat":52.15051,"lon":21.05041,"population":149775},{"id":3086800,"name":"Ruda Śląska","nameKo":"루다실롱스카","ascii":"Ruda Slaska","lat":50.2584,"lon":18.85632,"population":146189},{"id":3086586,"name":"Rybnik","nameKo":"리브니크","ascii":"Rybnik","lat":50.09713,"lon":18.54179,"population":142510},{"id":755330,"name":"Wola","ascii":"Wola","lat":52.23477,"lon":20.96004,"population":140958},{"id":776029,"name":"Bielany","ascii":"Bielany","lat":52.29242,"lon":20.93531,"population":131910},{"id":3082914,"name":"Tychy","nameKo":"티히","ascii":"Tychy","lat":50.13717,"lon":18.96641,"population":130000},{"id":776103,"name":"Białołeka","ascii":"Bialoleka","lat":52.32127,"lon":20.97204,"population":129106},{"id":3090048,"name":"Opole","nameKo":"오폴레","ascii":"Opole","lat":50.67119,"lon":17.92604,"population":127676},{"id":3099759,"name":"Elbląg","nameKo":"엘블롱크","ascii":"Elblag","lat":54.1522,"lon":19.40884,"population":127558},{"id":3088825,"name":"Płock","nameKo":"프워츠크","ascii":"Plock","lat":52.54682,"lon":19.70638,"population":127474},{"id":3082707,"name":"Wałbrzych","nameKo":"바우브지흐","ascii":"Walbrzych","lat":50.77141,"lon":16.28432,"population":127431},{"id":757065,"name":"Targówek","ascii":"Targowek","lat":52.29185,"lon":21.04845,"population":124279},{"id":776251,"name":"Bemowo","ascii":"Bemowo","lat":52.2546,"lon":20.90844,"population":123932},{"id":3081741,"name":"Włocławek","nameKo":"브워츠와베크","ascii":"Wloclawek","lat":52.64817,"lon":19.0678,"population":120339},{"id":3080165,"name":"Zielona Góra","nameKo":"지엘로나구라","ascii":"Zielona Gora","lat":51.93548,"lon":15.50643,"population":118433},{"id":757026,"name":"Tarnów","nameKo":"타르누프","ascii":"Tarnow","lat":50.01381,"lon":20.98698,"population":117799},{"id":3100796,"name":"Dąbrowa Górnicza","nameKo":"동브로바구르니차","ascii":"Dabrowa Gornicza","lat":50.33394,"lon":19.20479,"population":116971},{"id":3098722,"name":"Gorzów Wielkopolski","nameKo":"고주프비엘코폴스키","ascii":"Gorzow Wielkopolski","lat":52.73371,"lon":15.22505,"population":114567},{"id":3101619,"name":"Chorzów","nameKo":"호주프","ascii":"Chorzow","lat":50.30582,"lon":18.9742,"population":113430},{"id":3096880,"name":"Kalisz","nameKo":"칼리시","ascii":"Kalisz","lat":51.76109,"lon":18.09102,"population":108759},{"id":3095049,"name":"Koszalin","nameKo":"코샬린","ascii":"Koszalin","lat":54.19438,"lon":16.17222,"population":107450},{"id":3093692,"name":"Legnica","nameKo":"레그니차","ascii":"Legnica","lat":51.21006,"lon":16.1619,"population":106033},{"id":758470,"name":"Śródmieście","ascii":"Srodmiescie","lat":52.22904,"lon":21.01644,"population":99950},{"id":13562332,"name":"Śródmieście","ascii":"Srodmiescie","lat":51.11316,"lon":17.08145,"population":99088},{"id":3085450,"name":"Słupsk","nameKo":"스웁스크","ascii":"Slupsk","lat":54.46405,"lon":17.02872,"population":98608},{"id":3097333,"name":"Jaworzno","nameKo":"야보주노","ascii":"Jaworzno","lat":50.20528,"lon":19.27498,"population":96541},{"id":3097391,"name":"Jastrzębie Zdrój","ascii":"Jastrzebie Zdroj","lat":49.95542,"lon":18.57479,"population":95813},{"id":13562335,"name":"Psie Pole","ascii":"Psie Pole","lat":51.14595,"lon":17.03519,"population":95615},{"id":6545347,"name":"Praga Północ","ascii":"Praga Polnoc","lat":52.25443,"lon":21.03472,"population":93192},{"id":3098218,"name":"Grudziądz","nameKo":"그루지옹츠","ascii":"Grudziadz","lat":53.48411,"lon":18.75366,"population":92552},{"id":763534,"name":"Nowy Sącz","nameKo":"노비송치","ascii":"Nowy Sacz","lat":49.62177,"lon":20.69705,"population":84376},{"id":763442,"name":"Ochota","ascii":"Ochota","lat":52.22096,"lon":20.98526,"population":82774},{"id":3095321,"name":"Konin","nameKo":"코닌","ascii":"Konin","lat":52.22338,"lon":18.25121,"population":81258},{"id":3088972,"name":"Piotrków Trybunalski","nameKo":"피오트르쿠프트리부날스키","ascii":"Piotrkow Trybunalski","lat":51.40547,"lon":19.70321,"population":80128},{"id":3097872,"name":"Inowrocław","ascii":"Inowroclaw","lat":52.79886,"lon":18.26387,"population":77597},{"id":3092931,"name":"Lubin","nameKo":"루빈","ascii":"Lubin","lat":51.40089,"lon":16.20149,"population":77532},{"id":3097257,"name":"Jelenia Góra","nameKo":"옐레니아구라","ascii":"Jelenia Gora","lat":50.89973,"lon":15.72899,"population":77366},{"id":756092,"name":"Wawer","ascii":"Wawer","lat":52.19656,"lon":21.17752,"population":77205},{"id":759412,"name":"Siedlce","nameKo":"시에들체","ascii":"Siedlce","lat":52.16772,"lon":22.29006,"population":77185},{"id":3089033,"name":"Piła","nameKo":"피와","ascii":"Pila","lat":53.15145,"lon":16.73782,"population":75532},{"id":762863,"name":"Ostrowiec Świętokrzyski","ascii":"Ostrowiec Swietokrzyski","lat":50.92936,"lon":21.38525,"population":73989},{"id":3086024,"name":"Siemianowice Śląskie","nameKo":"시에미아노비체실롱스키에","ascii":"Siemianowice Slaskie","lat":50.32738,"lon":19.02901,"population":73121},{"id":3089684,"name":"Ostrów Wielkopolski","ascii":"Ostrow Wielkopolski","lat":51.65501,"lon":17.80686,"population":72898},{"id":3091232,"name":"Mysłowice","nameKo":"미스워비체","ascii":"Myslowice","lat":50.20745,"lon":19.16668,"population":72124},{"id":3084840,"name":"Stargard","nameKo":"스타르가르트슈체친스키","ascii":"Stargard","lat":53.33672,"lon":15.0499,"population":71224},{"id":3089578,"name":"Pabianice","ascii":"Pabianice","lat":51.66446,"lon":19.35473,"population":70542},{"id":3099112,"name":"Gniezno","nameKo":"그니에즈노","ascii":"Gniezno","lat":52.53481,"lon":17.58259,"population":70269},{"id":3099654,"name":"Fordon","ascii":"Fordon","lat":53.14821,"lon":18.17036,"population":70000},{"id":757718,"name":"Suwałki","nameKo":"수바우키","ascii":"Suwalki","lat":54.11175,"lon":22.93087,"population":69222},{"id":756867,"name":"Tomaszów Mazowiecki","ascii":"Tomaszow Mazowiecki","lat":51.53131,"lon":20.00855,"population":67197},{"id":761168,"name":"Przemyśl","nameKo":"프셰미실","ascii":"Przemysl","lat":49.78498,"lon":22.76728,"population":67013},{"id":758445,"name":"Stalowa Wola","ascii":"Stalowa Wola","lat":50.58286,"lon":22.05334,"population":66495},{"id":753866,"name":"Zamość","nameKo":"자모시치","ascii":"Zamosc","lat":50.72314,"lon":23.25196,"population":66034},{"id":3096372,"name":"Kędzierzyn-Koźle","ascii":"Kedzierzyn-Kozle","lat":50.34984,"lon":18.22606,"population":65636},{"id":3099213,"name":"Głogów","nameKo":"그워구프","ascii":"Glogow","lat":51.66361,"lon":16.0845,"population":65400},{"id":3081318,"name":"Wrzeszcz","ascii":"Wrzeszcz","lat":54.37648,"lon":18.60753,"population":65000},{"id":3093524,"name":"Leszno","nameKo":"레슈노","ascii":"Leszno","lat":51.84034,"lon":16.57494,"population":63565},{"id":3080004,"name":"Żory","nameKo":"조리","ascii":"Zory","lat":50.04523,"lon":18.70062,"population":63174},{"id":3103709,"name":"Bełchatów","nameKo":"베우하투프","ascii":"Belchatow","lat":51.36883,"lon":19.35671,"population":62896},{"id":766027,"name":"Łomża","nameKo":"웜자","ascii":"Lomza","lat":53.17806,"lon":22.05935,"population":62019},{"id":3083440,"name":"Tarnowskie Góry","nameKo":"타르노프스키에구리","ascii":"Tarnowskie Gory","lat":50.44548,"lon":18.86147,"population":60938},{"id":3084093,"name":"Świdnica","ascii":"Swidnica","lat":50.84378,"lon":16.48859,"population":60351},{"id":774558,"name":"Chełm","nameKo":"헤움","ascii":"Chelm","lat":51.14312,"lon":23.4716,"population":60231},{"id":3083426,"name":"Tczew","ascii":"Tczew","lat":54.09242,"lon":18.77787,"population":60133},{"id":3089125,"name":"Piekary Śląskie","nameKo":"피에카리실롱스키에","ascii":"Piekary Slaskie","lat":50.38017,"lon":18.92653,"population":59757},{"id":764849,"name":"Mielec","ascii":"Mielec","lat":50.28709,"lon":21.4239,"population":59509},{"id":3087584,"name":"Racibórz","nameKo":"라치부시","ascii":"Raciborz","lat":50.09195,"lon":18.21928,"population":58464},{"id":3103719,"name":"Będzin","nameKo":"벵진","ascii":"Bedzin","lat":50.32607,"lon":19.12565,"population":58236},{"id":3080251,"name":"Zgierz","nameKo":"즈기에시","ascii":"Zgierz","lat":51.85561,"lon":19.40623,"population":58036},{"id":776175,"name":"Biała Podlaska","nameKo":"비아와포들라스카","ascii":"Biala Podlaska","lat":52.03238,"lon":23.11652,"population":57541},{"id":772621,"name":"Ełk","ascii":"Elk","lat":53.82824,"lon":22.36469,"population":55769},{"id":3083988,"name":"Świętochłowice","nameKo":"시비엥토흐워비체","ascii":"Swietochlowice","lat":50.29636,"lon":18.91726,"population":55600},{"id":761228,"name":"Pruszków","ascii":"Pruszkow","lat":52.17072,"lon":20.81214,"population":55371},{"id":762909,"name":"Ostrołęka","nameKo":"오스트로웽카","ascii":"Ostroleka","lat":53.08621,"lon":21.57566,"population":53740},{"id":758390,"name":"Starachowice","ascii":"Starachowice","lat":51.0374,"lon":21.07126,"population":53739},{"id":3080526,"name":"Zawiercie","ascii":"Zawiercie","lat":50.48766,"lon":19.41679,"population":53159},{"id":753142,"name":"Żoliborz","ascii":"Zoliborz","lat":52.26896,"lon":20.98644,"population":50934},{"id":766555,"name":"Legionowo","ascii":"Legionowo","lat":52.40149,"lon":20.92664,"population":50786},{"id":757033,"name":"Tarnobrzeg","nameKo":"타르노브제크","ascii":"Tarnobrzeg","lat":50.57304,"lon":21.67937,"population":50459},{"id":760924,"name":"Puławy","ascii":"Pulawy","lat":51.41655,"lon":21.96939,"population":49759},{"id":3081677,"name":"Wodzisław Śląski","ascii":"Wodzislaw Slaski","lat":50.00377,"lon":18.47205,"population":49521},{"id":759141,"name":"Skarżysko-Kamienna","ascii":"Skarzysko-Kamienna","lat":51.11311,"lon":20.87162,"population":49410},{"id":759123,"name":"Skierniewice","nameKo":"스키에르니에비체","ascii":"Skierniewice","lat":51.95485,"lon":20.15837,"population":49042},{"id":3094170,"name":"Kutno","ascii":"Kutno","lat":52.23064,"lon":19.36409,"population":48323},{"id":767470,"name":"Krosno","nameKo":"크로스노","ascii":"Krosno","lat":49.68866,"lon":21.77058,"population":47784},{"id":773380,"name":"Dębica","ascii":"Debica","lat":50.05146,"lon":21.41141,"population":47366},{"id":756320,"name":"Ursus","ascii":"Ursus","lat":52.19517,"lon":20.88419,"population":47285},{"id":3090436,"name":"Nysa","nameKo":"니사","ascii":"Nysa","lat":50.47379,"lon":17.33437,"population":47283},{"id":3084826,"name":"Starogard Gdański","ascii":"Starogard Gdanski","lat":53.96396,"lon":18.52638,"population":47272},{"id":3082473,"name":"Wejherowo","ascii":"Wejherowo","lat":54.60568,"lon":18.23559,"population":46820},{"id":774208,"name":"Ciechanów","nameKo":"치에하누프","ascii":"Ciechanow","lat":52.88141,"lon":20.61996,"population":46438},{"id":3086706,"name":"Rumia","ascii":"Rumia","lat":54.57092,"lon":18.38802,"population":44791},{"id":3087497,"name":"Radomsko","nameKo":"라돔스코","ascii":"Radomsko","lat":51.06713,"lon":19.44477,"population":44700},{"id":3080414,"name":"Zduńska Wola","ascii":"Zdunska Wola","lat":51.59915,"lon":18.93974,"population":44515},{"id":3085978,"name":"Sieradz","ascii":"Sieradz","lat":51.59584,"lon":18.73023,"population":44436},{"id":3095795,"name":"Kołobrzeg","nameKo":"코워브제크","ascii":"Kolobrzeg","lat":54.17565,"lon":15.58342,"population":44377},{"id":12047644,"name":"Rejon placu Świętego Macieja","ascii":"Rejon placu Swietego Macieja","lat":51.12056,"lon":17.03761,"population":44090},{"id":762788,"name":"Otwock","ascii":"Otwock","lat":52.10577,"lon":21.26129,"population":43388},{"id":775984,"name":"Bieńczyce","ascii":"Bienczyce","lat":50.08809,"lon":20.02786,"population":42633},{"id":752967,"name":"Żyrardów","ascii":"Zyrardow","lat":52.0488,"lon":20.44599,"population":41179},{"id":3083955,"name":"Świnoujście","nameKo":"시비노우이시치에","ascii":"Swinoujscie","lat":53.91053,"lon":14.24712,"population":40919},{"id":3102987,"name":"Bolesławiec","ascii":"Boleslawiec","lat":51.26418,"lon":15.5697,"population":40682},{"id":3090764,"name":"Nowa Sól","ascii":"Nowa Sol","lat":51.80333,"lon":15.71702,"population":40354},{"id":757692,"name":"Świdnik","ascii":"Swidnik","lat":51.21898,"lon":22.69621,"population":40050},{"id":3101547,"name":"Chrzanów","nameKo":"흐샤누프","ascii":"Chrzanow","lat":50.13546,"lon":19.40203,"population":39973},{"id":3095971,"name":"Knurów","ascii":"Knurow","lat":50.21971,"lon":18.65067,"population":39744},{"id":759591,"name":"Sanok","nameKo":"사노크","ascii":"Sanok","lat":49.55573,"lon":22.2056,"population":39684},{"id":3091831,"name":"Mikołów","ascii":"Mikolow","lat":50.17103,"lon":18.9041,"population":38821},{"id":3101672,"name":"Chojnice","ascii":"Chojnice","lat":53.69554,"lon":17.55701,"population":38789},{"id":3080644,"name":"Żary","ascii":"Zary","lat":51.64205,"lon":15.13727,"population":38779},{"id":3083826,"name":"Szczecinek","ascii":"Szczecinek","lat":53.70791,"lon":16.69937,"population":38496},{"id":758682,"name":"Sochaczew","nameKo":"소하체프","ascii":"Sochaczew","lat":52.22944,"lon":20.23838,"population":38267},{"id":3102459,"name":"Brzeg","ascii":"Brzeg","lat":50.86079,"lon":17.4674,"population":38259},{"id":770293,"name":"Jasło","ascii":"Jaslo","lat":49.74506,"lon":21.47252,"population":37851},{"id":3090146,"name":"Olkusz","ascii":"Olkusz","lat":50.2813,"lon":19.56503,"population":37744},{"id":3094086,"name":"Kwidzyn","ascii":"Kwidzyn","lat":53.72495,"lon":18.93114,"population":37601},{"id":764679,"name":"Mińsk Mazowiecki","ascii":"Minsk Mazowiecki","lat":52.17935,"lon":21.57251,"population":37027},{"id":3090170,"name":"Oleśnica","ascii":"Olesnica","lat":51.21338,"lon":17.38986,"population":36956},{"id":3092472,"name":"Malbork","ascii":"Malbork","lat":54.03591,"lon":19.0266,"population":36709},{"id":754800,"name":"Wołomin","nameKo":"보워민","ascii":"Wolomin","lat":52.34006,"lon":21.24207,"population":36592},{"id":762423,"name":"Piaseczno","ascii":"Piaseczno","lat":52.0814,"lon":21.02397,"population":36278},{"id":755475,"name":"Włochy","ascii":"Wlochy","lat":52.17941,"lon":20.94612,"population":36276},{"id":767623,"name":"Kraśnik","ascii":"Krasnik","lat":50.9236,"lon":22.22706,"population":35834},{"id":3101321,"name":"Cieszyn","nameKo":"치에신","ascii":"Cieszyn","lat":49.75133,"lon":18.63213,"population":35586},{"id":770380,"name":"Jarosław","ascii":"Jaroslaw","lat":50.01623,"lon":22.67776,"population":35475},{"id":3093739,"name":"Lębork","ascii":"Lebork","lat":54.53921,"lon":17.75012,"population":35161},{"id":3085151,"name":"Sopot","nameKo":"소포트","ascii":"Sopot","lat":54.4418,"lon":18.56003,"population":35049},{"id":3101076,"name":"Czechowice-Dziedzice","ascii":"Czechowice-Dziedzice","lat":49.91342,"lon":19.00479,"population":34703},{"id":3088461,"name":"Police","nameKo":"폴리체","ascii":"Police","lat":53.55214,"lon":14.57182,"population":34350},{"id":3101057,"name":"Czeladź","ascii":"Czeladz","lat":50.31542,"lon":19.07824,"population":34308},{"id":3089658,"name":"Oświęcim","nameKo":"오시비엥침","ascii":"Oswiecim","lat":50.03437,"lon":19.21037,"population":34170},{"id":3099828,"name":"Dzierżoniów","ascii":"Dzierzoniow","lat":50.7282,"lon":16.65141,"population":34168},{"id":763523,"name":"Nowy Targ","ascii":"Nowy Targ","lat":49.47783,"lon":20.03228,"population":33763},{"id":3089779,"name":"Ostróda","ascii":"Ostroda","lat":53.69671,"lon":19.96486,"population":33524},{"id":3091217,"name":"Myszków","ascii":"Myszkow","lat":50.5752,"lon":19.32461,"population":33273},{"id":3080231,"name":"Zgorzelec","nameKo":"즈고젤레츠","ascii":"Zgorzelec","lat":51.14942,"lon":15.00835,"population":33247},{"id":3090205,"name":"Oława","ascii":"Olawa","lat":50.9466,"lon":17.2926,"population":33029},{"id":3097902,"name":"Iława","ascii":"Ilawa","lat":53.59601,"lon":19.56849,"population":32557},{"id":3079855,"name":"Żywiec","nameKo":"지비에츠","ascii":"Zywiec","lat":49.68529,"lon":19.19243,"population":32132},{"id":8425978,"name":"Karłowice-Różanka","ascii":"Karlowice-Rozanka","lat":51.13675,"lon":17.04323,"population":31813},{"id":8425966,"name":"Pilczyce-Kozanów-Popowice Północne","ascii":"Pilczyce-Kozanow-Popowice Polnocne","lat":51.13092,"lon":16.97654,"population":31320},{"id":8425989,"name":"Ołbin","ascii":"Olbin","lat":51.12132,"lon":17.05303,"population":31216},{"id":8426032,"name":"Chełm","ascii":"Chelm","lat":54.34048,"lon":18.61925,"population":30743},{"id":765749,"name":"Łuków","ascii":"Lukow","lat":51.929,"lon":22.37956,"population":30465},{"id":3085056,"name":"Śrem","ascii":"Srem","lat":52.08868,"lon":17.01508,"population":30404},{"id":769893,"name":"Kabaty","ascii":"Kabaty","lat":52.13012,"lon":21.08148,"population":30000},{"id":772195,"name":"Giżycko","nameKo":"기지츠코","ascii":"Gizycko","lat":54.03811,"lon":21.76441,"population":29972},{"id":8426046,"name":"Ujeścisko-Łostowice","ascii":"Ujescisko-Lostowice","lat":54.32435,"lon":18.60269,"population":29845},{"id":3093066,"name":"Łowicz","nameKo":"워비치","ascii":"Lowicz","lat":52.10714,"lon":19.94525,"population":29809},{"id":776597,"name":"Augustów","ascii":"Augustow","lat":53.84321,"lon":22.97979,"population":29752},{"id":8425982,"name":"Psie Pole Zawidawie","ascii":"Psie Pole Zawidawie","lat":51.14756,"lon":17.11438,"population":29606},{"id":3082998,"name":"Turek","ascii":"Turek","lat":52.01548,"lon":18.50055,"population":29533},{"id":764634,"name":"Mława","ascii":"Mlawa","lat":53.11278,"lon":20.3841,"population":29398},{"id":3103476,"name":"Bielawa","ascii":"Bielawa","lat":50.69075,"lon":16.623,"population":29232},{"id":3094625,"name":"Krotoszyn","ascii":"Krotoszyn","lat":51.69868,"lon":17.43738,"population":29231},{"id":775758,"name":"Bochnia","ascii":"Bochnia","lat":49.96905,"lon":20.43028,"population":29184},{"id":3084130,"name":"Swarzędz","ascii":"Swarzedz","lat":52.41289,"lon":17.08503,"population":29010},{"id":3098171,"name":"Grzegórzki","ascii":"Grzegorzki","lat":50.06423,"lon":19.96761,"population":28960},{"id":3100974,"name":"Czerwionka-Leszczyny","ascii":"Czerwionka-Leszczyny","lat":50.15007,"lon":18.67762,"population":28740},{"id":3081324,"name":"Września","ascii":"Wrzesnia","lat":52.32512,"lon":17.56519,"population":28703},{"id":771804,"name":"Gorlice","ascii":"Gorlice","lat":49.65563,"lon":21.16035,"population":28609},{"id":772227,"name":"Gierłoż","ascii":"Gierloz","lat":54.08134,"lon":21.49551,"population":28351},{"id":763556,"name":"Nowy Dwór Mazowiecki","ascii":"Nowy Dwor Mazowiecki","lat":52.43022,"lon":20.71652,"population":27633},{"id":769274,"name":"Kętrzyn","nameKo":"켕트신","ascii":"Ketrzyn","lat":54.07676,"lon":21.37527,"population":27478},{"id":3102627,"name":"Brodnica","ascii":"Brodnica","lat":53.25967,"lon":19.39653,"population":27341},{"id":3080866,"name":"Zakopane","nameKo":"자코파네","ascii":"Zakopane","lat":49.29899,"lon":19.94885,"population":27266},{"id":8426039,"name":"Piecki-Migowo","ascii":"Piecki-Migowo","lat":54.35698,"lon":18.58174,"population":27173},{"id":12047623,"name":"Rejon placu Grunwaldzkiego","ascii":"Rejon placu Grunwaldzkiego","lat":51.11669,"lon":17.06126,"population":27030},{"id":775922,"name":"Biłgoraj","ascii":"Bilgoraj","lat":50.54114,"lon":22.72204,"population":26987},{"id":771401,"name":"Grodzisk Mazowiecki","ascii":"Grodzisk Mazowiecki","lat":52.10387,"lon":20.6337,"population":26684},{"id":754454,"name":"Wyszków","ascii":"Wyszkow","lat":52.59278,"lon":21.4584,"population":26500},{"id":775986,"name":"Bielsk Podlaski","ascii":"Bielsk Podlaski","lat":52.76512,"lon":23.18647,"population":26493},{"id":3092856,"name":"Luboń","ascii":"Lubon","lat":52.34705,"lon":16.89267,"population":26431},{"id":757357,"name":"Szczytno","ascii":"Szczytno","lat":53.56259,"lon":20.98747,"population":26044},{"id":3096003,"name":"Kluczbork","ascii":"Kluczbork","lat":50.97281,"lon":18.21816,"population":25978},{"id":3082704,"name":"Wałcz","ascii":"Walcz","lat":53.27787,"lon":16.47122,"population":25971},{"id":3084074,"name":"Świecie","ascii":"Swiecie","lat":53.40953,"lon":18.44742,"population":25843},{"id":3080944,"name":"Żagań","ascii":"Zagan","lat":51.61759,"lon":15.31486,"population":25731},{"id":3096053,"name":"Kłodzko","ascii":"Klodzko","lat":50.43488,"lon":16.66145,"population":25717},{"id":3082712,"name":"Wągrowiec","ascii":"Wagrowiec","lat":52.80842,"lon":17.19961,"population":25648},{"id":3097528,"name":"Jarocin","ascii":"Jarocin","lat":51.97266,"lon":17.50256,"population":25582},{"id":3087705,"name":"Pszczyna","ascii":"Pszczyna","lat":49.98037,"lon":18.95382,"population":25288},{"id":759603,"name":"Sandomierz","nameKo":"산도미에시","ascii":"Sandomierz","lat":50.68265,"lon":21.74898,"population":25087},{"id":3090768,"name":"Nowa Ruda","nameKo":"노바루다","ascii":"Nowa Ruda","lat":50.58008,"lon":16.50164,"population":24753},{"id":8425959,"name":"Gądów-Popowice Południowe","ascii":"Gadow-Popowice Poludniowe","lat":51.1272,"lon":16.97027,"population":24508},{"id":3103556,"name":"Białogard","ascii":"Bialogard","lat":54.00696,"lon":15.98751,"population":24368},{"id":8426041,"name":"Przymorze Wielkie","ascii":"Przymorze Wielkie","lat":54.41166,"lon":18.5984,"population":24368},{"id":8425974,"name":"Osiedle Powstańców Śląskich","ascii":"Osiedle Powstancow Slaskich","lat":51.09289,"lon":17.02061,"population":24329},{"id":3095151,"name":"Kościan","ascii":"Koscian","lat":52.08829,"lon":16.64866,"population":24096},{"id":3097367,"name":"Jawor","ascii":"Jawor","lat":51.05132,"lon":16.19347,"population":23865},{"id":3092906,"name":"Lubliniec","ascii":"Lubliniec","lat":50.66897,"lon":18.6844,"population":23784},{"id":3085807,"name":"Skawina","ascii":"Skawina","lat":49.97524,"lon":19.82869,"population":23647},{"id":3088034,"name":"Pruszcz Gdański","ascii":"Pruszcz Gdanski","lat":54.26217,"lon":18.63625,"population":23618},{"id":3095797,"name":"Koło","ascii":"Kolo","lat":52.20024,"lon":18.63865,"population":23493},{"id":776337,"name":"Bartoszyce","ascii":"Bartoszyce","lat":54.25354,"lon":20.80819,"population":23482},{"id":754351,"name":"Ząbki","ascii":"Zabki","lat":52.29271,"lon":21.10539,"population":23473},{"id":8426045,"name":"Środmieście","ascii":"Srodmiescie","lat":54.35048,"lon":18.65556,"population":23364},{"id":3088065,"name":"Prudnik","ascii":"Prudnik","lat":50.32124,"lon":17.57461,"population":23343},{"id":3095126,"name":"Kościerzyna","ascii":"Koscierzyna","lat":54.12226,"lon":17.98119,"population":23327},{"id":762381,"name":"Piastów","ascii":"Piastow","lat":52.18435,"lon":20.83952,"population":23290},{"id":3084084,"name":"Świebodzice","ascii":"Swiebodzice","lat":50.85974,"lon":16.31966,"population":23228},{"id":765191,"name":"Marki","nameKo":"마르키","ascii":"Marki","lat":52.32065,"lon":21.10474,"population":23177},{"id":8425988,"name":"Nadodrze","ascii":"Nadodrze","lat":51.12541,"lon":17.0307,"population":23177},{"id":753895,"name":"Zambrów","ascii":"Zambrow","lat":52.9855,"lon":22.24319,"population":22857},{"id":765927,"name":"Lubartów","ascii":"Lubartow","lat":51.46026,"lon":22.60952,"population":22839},{"id":771506,"name":"Grajewo","ascii":"Grajewo","lat":53.64728,"lon":22.45537,"population":22803},{"id":8426082,"name":"Drzetowo-Grabowo","ascii":"Drzetowo-Grabowo","lat":53.44888,"lon":14.5792,"population":22655},{"id":762850,"name":"Ostrów Mazowiecka","ascii":"Ostrow Mazowiecka","lat":52.80245,"lon":21.89507,"population":22653},{"id":763111,"name":"Opoczno","ascii":"Opoczno","lat":51.37569,"lon":20.27827,"population":22592},{"id":3098966,"name":"Goleniów","ascii":"Goleniow","lat":53.56392,"lon":14.82854,"population":22505},{"id":3093040,"name":"Lubań","ascii":"Luban","lat":51.12014,"lon":15.28768,"population":22245},{"id":762021,"name":"Płońsk","ascii":"Plonsk","lat":52.62348,"lon":20.37552,"population":22217},{"id":771158,"name":"Hajnówka","ascii":"Hajnowka","lat":52.74328,"lon":23.58122,"population":22157},{"id":3093785,"name":"Łaziska Górne","ascii":"Laziska Gorne","lat":50.14952,"lon":18.84215,"population":21983},{"id":764312,"name":"Mrągowo","ascii":"Mragowo","lat":53.86437,"lon":21.30507,"population":21965},{"id":3104115,"name":"Andrychów","ascii":"Andrychow","lat":49.85497,"lon":19.33834,"population":21954},{"id":760503,"name":"Rembertów","ascii":"Rembertow","lat":52.26059,"lon":21.16355,"population":21893},{"id":3086531,"name":"Rydułtowy","ascii":"Rydultowy","lat":50.05857,"lon":18.41703,"population":21887},{"id":8425958,"name":"Gajowice","ascii":"Gajowice","lat":51.09627,"lon":17.00195,"population":21781},{"id":3085045,"name":"Środa Wielkopolska","ascii":"Sroda Wielkopolska","lat":52.22843,"lon":17.27617,"population":21757},{"id":3084062,"name":"Świebodzin","ascii":"Swiebodzin","lat":52.24751,"lon":15.53355,"population":21757},{"id":3096779,"name":"Kamienna Góra","ascii":"Kamienna Gora","lat":50.78314,"lon":16.03037,"population":21743},{"id":766583,"name":"Łęczna","nameKo":"웽치나","ascii":"Leczna","lat":51.30121,"lon":22.88135,"population":21719},{"id":8426048,"name":"Wrzeszcz Dolny","ascii":"Wrzeszcz Dolny","lat":54.38473,"lon":18.61273,"population":21648},{"id":3082197,"name":"Wieluń","nameKo":"비엘룬","ascii":"Wielun","lat":51.22097,"lon":18.56964,"population":21624},{"id":3088435,"name":"Polkowice","ascii":"Polkowice","lat":51.50391,"lon":16.07261,"population":21565},{"id":3087307,"name":"Rawicz","ascii":"Rawicz","lat":51.60946,"lon":16.85852,"population":21380},{"id":3098200,"name":"Gryfino","ascii":"Gryfino","lat":53.25243,"lon":14.48831,"population":21270},{"id":8425972,"name":"Krzyki-Partynice","ascii":"Krzyki-Partynice","lat":51.06413,"lon":17.00186,"population":21233},{"id":772748,"name":"Działdowo","ascii":"Dzialdowo","lat":53.23958,"lon":20.17004,"population":21127},{"id":8426050,"name":"Wrzeszcz Górny","ascii":"Wrzeszcz Gorny","lat":54.37978,"lon":18.59539,"population":20810},{"id":3098625,"name":"Gostyń","ascii":"Gostyn","lat":51.88247,"lon":17.01225,"population":20771},{"id":768218,"name":"Końskie","ascii":"Konskie","lat":51.19166,"lon":20.40607,"population":20756},{"id":12047628,"name":"Rejon ulicy Traugutta","ascii":"Rejon ulicy Traugutta","lat":51.10247,"lon":17.04827,"population":20617},{"id":3089582,"name":"Ozorków","ascii":"Ozorkow","lat":51.96336,"lon":19.29139,"population":20608},{"id":3101795,"name":"Chełmno","ascii":"Chelmno","lat":53.34855,"lon":18.4251,"population":20576},{"id":8425975,"name":"Przedmieście Oławskie","ascii":"Przedmiescie Olawskie","lat":51.10209,"lon":17.04829,"population":20316},{"id":3104132,"name":"Aleksandrów Łódzki","ascii":"Aleksandrow Lodzki","lat":51.81965,"lon":19.30384,"population":20292},{"id":756868,"name":"Tomaszów Lubelski","ascii":"Tomaszow Lubelski","lat":50.44767,"lon":23.41616,"population":20261},{"id":3084415,"name":"Strzelce Opolskie","ascii":"Strzelce Opolskie","lat":50.5107,"lon":18.30056,"population":20241},{"id":756004,"name":"Wesoła","ascii":"Wesola","lat":52.25451,"lon":21.22407,"population":20000},{"id":762199,"name":"Pionki","ascii":"Pionki","lat":51.47604,"lon":21.44995,"population":19966},{"id":8425987,"name":"Biskupin-Sępolno-Dąbie-Bartoszowice","ascii":"Biskupin-Sepolno-Dabie-Bartoszowice","lat":51.10833,"lon":17.09134,"population":19951},{"id":13100477,"name":"Orunia Górna-Gdańsk Południe","ascii":"Orunia Gorna-Gdansk Poludnie","lat":54.32491,"lon":18.61567,"population":19807},{"id":3101680,"name":"Chodzież","ascii":"Chodziez","lat":52.99505,"lon":16.9198,"population":19776},{"id":3103365,"name":"Bieruń","ascii":"Bierun","lat":50.09,"lon":19.09291,"population":19659},{"id":3091150,"name":"Nakło nad Notecią","ascii":"Naklo nad Notecia","lat":53.14214,"lon":17.60181,"population":19565},{"id":767605,"name":"Krasnystaw","ascii":"Krasnystaw","lat":50.98464,"lon":23.1742,"population":19532},{"id":3096328,"name":"Kęty","ascii":"Kety","lat":49.88214,"lon":19.22333,"population":19249},{"id":3082722,"name":"Wadowice","nameKo":"바도비체","ascii":"Wadowice","lat":49.88335,"lon":19.49292,"population":19238},{"id":762120,"name":"Pisz","ascii":"Pisz","lat":53.62744,"lon":21.81253,"population":19232},{"id":8425969,"name":"Gaj","ascii":"Gaj","lat":51.08006,"lon":17.04018,"population":19136},{"id":758651,"name":"Sokółka","ascii":"Sokolka","lat":53.40715,"lon":23.50228,"population":19079},{"id":12047617,"name":"Osiedle Kosmonautów","ascii":"Osiedle Kosmonautow","lat":51.12753,"lon":16.96186,"population":19048},{"id":760917,"name":"Pułtusk","ascii":"Pultusk","lat":52.7025,"lon":21.08276,"population":19039},{"id":3087628,"name":"Pyskowice","ascii":"Pyskowice","lat":50.4,"lon":18.63333,"population":19018},{"id":3098619,"name":"Gostynin","ascii":"Gostynin","lat":52.42938,"lon":19.46194,"population":18976},{"id":3085941,"name":"Sierpc","ascii":"Sierpc","lat":52.8568,"lon":19.66913,"population":18866},{"id":3083111,"name":"Trzebinia","ascii":"Trzebinia","lat":50.15931,"lon":19.46966,"population":18828},{"id":8425970,"name":"Huby","ascii":"Huby","lat":51.08928,"lon":17.04113,"population":18727},{"id":755889,"name":"Wieliczka","nameKo":"비엘리치카","ascii":"Wieliczka","lat":49.98738,"lon":20.06473,"population":18677},{"id":3091969,"name":"Międzyrzecz","ascii":"Miedzyrzecz","lat":52.44461,"lon":15.57801,"population":18669},{"id":770966,"name":"Hrubieszów","ascii":"Hrubieszow","lat":50.80502,"lon":23.89251,"population":18605},{"id":3083878,"name":"Szamotuły","ascii":"Szamotuly","lat":52.61201,"lon":16.57794,"population":18588},{"id":3093902,"name":"Łask","ascii":"Lask","lat":51.59056,"lon":19.13278,"population":18577},{"id":8425986,"name":"Szczepin","ascii":"Szczepin","lat":51.11614,"lon":17.01018,"population":18488},{"id":3089965,"name":"Orzesze","ascii":"Orzesze","lat":50.15595,"lon":18.77923,"population":18438},{"id":757809,"name":"Sulejówek","ascii":"Sulejowek","lat":52.25221,"lon":21.26902,"population":18414},{"id":3080071,"name":"Złotów","ascii":"Zlotow","lat":53.36346,"lon":17.04082,"population":18395},{"id":3102677,"name":"Braniewo","ascii":"Braniewo","lat":54.37971,"lon":19.81959,"population":18356},{"id":3095277,"name":"Konstantynów Łódzki","ascii":"Konstantynow Lodzki","lat":51.74776,"lon":19.32564,"population":18335},{"id":3094788,"name":"Krapkowice","ascii":"Krapkowice","lat":50.47515,"lon":17.96539,"population":18275},{"id":766810,"name":"Łańcut","ascii":"Lancut","lat":50.06871,"lon":22.22912,"population":18266},{"id":758626,"name":"Sokołów Podlaski","ascii":"Sokolow Podlaski","lat":52.40677,"lon":22.25307,"population":18241},{"id":3087281,"name":"Reda","ascii":"Reda","lat":54.60528,"lon":18.34717,"population":18116},{"id":3084241,"name":"Sulechów","ascii":"Sulechow","lat":52.08362,"lon":15.62513,"population":18055},{"id":3090403,"name":"Oborniki","ascii":"Oborniki","lat":52.64739,"lon":16.81406,"population":17915},{"id":769981,"name":"Józefów","ascii":"Jozefow","lat":52.13707,"lon":21.23589,"population":17910},{"id":3093457,"name":"Libiąż","ascii":"Libiaz","lat":50.10396,"lon":19.31568,"population":17834},{"id":3095057,"name":"Kostrzyn nad Odrą","ascii":"Kostrzyn nad Odra","lat":52.58713,"lon":14.64953,"population":17778},{"id":773357,"name":"Dęblin","ascii":"Deblin","lat":51.55912,"lon":21.84829,"population":17775},{"id":760584,"name":"Rawa Mazowiecka","ascii":"Rawa Mazowiecka","lat":51.76437,"lon":20.25493,"population":17770},{"id":3091256,"name":"Myślenice","ascii":"Myslenice","lat":49.83383,"lon":19.9383,"population":17686},{"id":768905,"name":"Kobyłka","ascii":"Kobylka","lat":52.33953,"lon":21.19589,"population":17659},{"id":3088848,"name":"Pleszew","ascii":"Pleszew","lat":51.89636,"lon":17.78549,"population":17640},{"id":3085495,"name":"Słubice","nameKo":"스우비체","ascii":"Slubice","lat":52.35088,"lon":14.56065,"population":17567},{"id":753276,"name":"Zielonka","ascii":"Zielonka","lat":52.30376,"lon":21.16018,"population":17518},{"id":3087529,"name":"Radlin","ascii":"Radlin","lat":50.0502,"lon":18.47626,"population":17479},{"id":3087418,"name":"Radzionków","ascii":"Radzionkow","lat":50.40026,"lon":18.90232,"population":17167},{"id":764862,"name":"Międzyrzec Podlaski","nameKo":"미엥지제츠포들라스키","ascii":"Miedzyrzec Podlaski","lat":51.9864,"lon":22.78248,"population":17158},{"id":774747,"name":"Busko-Zdrój","ascii":"Busko-Zdroj","lat":50.47078,"lon":20.71884,"population":17095},{"id":767814,"name":"Kozienice","ascii":"Kozienice","lat":51.58294,"lon":21.54779,"population":17075},{"id":3083185,"name":"Trzcianka","ascii":"Trzcianka","lat":53.04063,"lon":16.45629,"population":16914},{"id":775183,"name":"Brzesko","ascii":"Brzesko","lat":49.96911,"lon":20.60606,"population":16866},{"id":770157,"name":"Jędrzejów","ascii":"Jedrzejow","lat":50.63945,"lon":20.30454,"population":16792},{"id":3103034,"name":"Boguszów-Gorce","ascii":"Boguszow-Gorce","lat":50.75514,"lon":16.20494,"population":16726},{"id":3101943,"name":"Bytów","ascii":"Bytow","lat":54.17057,"lon":17.49187,"population":16724},{"id":3098201,"name":"Gryfice","ascii":"Gryfice","lat":53.9165,"lon":15.20027,"population":16720},{"id":761218,"name":"Przasnysz","ascii":"Przasnysz","lat":53.01907,"lon":20.88029,"population":16718},{"id":3090558,"name":"Nowogard","ascii":"Nowogard","lat":53.67437,"lon":15.1163,"population":16703},{"id":3098130,"name":"Gubin","ascii":"Gubin","lat":51.94956,"lon":14.72837,"population":16629},{"id":3086511,"name":"Rypin","ascii":"Rypin","lat":53.06603,"lon":19.40941,"population":16589},{"id":768216,"name":"Konstancin-Jeziorna","ascii":"Konstancin-Jeziorna","lat":52.0938,"lon":21.11761,"population":16548},{"id":766307,"name":"Lidzbark Warmiński","ascii":"Lidzbark Warminski","lat":54.12588,"lon":20.57954,"population":16540},{"id":3103096,"name":"Bogatynia","ascii":"Bogatynia","lat":50.90747,"lon":14.95634,"population":16460},{"id":766783,"name":"Łapy","ascii":"Lapy","lat":52.9911,"lon":22.88422,"population":16434},{"id":3091141,"name":"Namysłów","ascii":"Namyslow","lat":51.07592,"lon":17.72284,"population":16376},{"id":3093708,"name":"Lędziny","ascii":"Ledziny","lat":50.14264,"lon":19.13149,"population":16305},{"id":3082756,"name":"Ustka","nameKo":"우스트카","ascii":"Ustka","lat":54.58048,"lon":16.86194,"population":16250},{"id":758252,"name":"Staszów","ascii":"Staszow","lat":50.56307,"lon":21.16593,"population":16137},{"id":3084440,"name":"Strzegom","ascii":"Strzegom","lat":50.96264,"lon":16.35006,"population":16106},{"id":760680,"name":"Radzyń Podlaski","ascii":"Radzyn Podlaski","lat":51.78333,"lon":22.61667,"population":16071},{"id":8426094,"name":"Świerczewo","ascii":"Swierczewo","lat":53.4273,"lon":14.51303,"population":16034},{"id":3089823,"name":"Osowa","ascii":"Osowa","lat":54.43109,"lon":18.46727,"population":16021},{"id":763291,"name":"Olecko","ascii":"Olecko","lat":54.03374,"lon":22.50704,"population":15923},{"id":772339,"name":"Garwolin","ascii":"Garwolin","lat":51.89747,"lon":21.61466,"population":15912},{"id":12047636,"name":"Kozanów","ascii":"Kozanow","lat":51.14447,"lon":16.96937,"population":15901},{"id":761131,"name":"Przeworsk","ascii":"Przeworsk","lat":50.05912,"lon":22.49408,"population":15805},{"id":764749,"name":"Milanówek","ascii":"Milanowek","lat":52.11879,"lon":20.67155,"population":15784},{"id":12047651,"name":"Różanka-Polanka","ascii":"Rozanka-Polanka","lat":51.14344,"lon":17.01987,"population":15746},{"id":3101613,"name":"Choszczno","ascii":"Choszczno","lat":53.16905,"lon":15.42054,"population":15733},{"id":3084085,"name":"Świdwin","ascii":"Swidwin","lat":53.77464,"lon":15.77671,"population":15725},{"id":3082751,"name":"Ustroń","ascii":"Ustron","lat":49.72153,"lon":18.80198,"population":15637},{"id":763829,"name":"Nisko","ascii":"Nisko","lat":50.51987,"lon":22.13968,"population":15573},{"id":3080074,"name":"Złotoryja","ascii":"Zlotoryja","lat":51.12637,"lon":15.91979,"population":15564},{"id":3093726,"name":"Łęczyca","ascii":"Leczyca","lat":52.05959,"lon":19.19972,"population":15528},{"id":759320,"name":"Siemiatycze","ascii":"Siemiatycze","lat":52.42719,"lon":22.86231,"population":15421},{"id":3101787,"name":"Chełmża","ascii":"Chelmza","lat":53.18463,"lon":18.60466,"population":15403},{"id":7303641,"name":"Jelcz Laskowice","ascii":"Jelcz Laskowice","lat":51.02134,"lon":17.31649,"population":15340},{"id":766042,"name":"Łomianki","ascii":"Lomianki","lat":52.33413,"lon":20.88602,"population":15315},{"id":3097271,"name":"Jelcz","ascii":"Jelcz","lat":51.02102,"lon":17.32095,"population":15308},{"id":760343,"name":"Ropczyce","ascii":"Ropczyce","lat":50.05229,"lon":21.60891,"population":15279},{"id":3090452,"name":"Nowy Tomyśl","ascii":"Nowy Tomysl","lat":52.3195,"lon":16.12844,"population":15179},{"id":3085172,"name":"Solec Kujawski","ascii":"Solec Kujawski","lat":53.08371,"lon":18.22572,"population":15125},{"id":3099169,"name":"Głuchołazy","ascii":"Glucholazy","lat":50.31505,"lon":17.38355,"population":15120},{"id":3099180,"name":"Głowno","ascii":"Glowno","lat":51.96463,"lon":19.71565,"population":15103},{"id":3081046,"name":"Ząbkowice Śląskie","ascii":"Zabkowice Slaskie","lat":50.58969,"lon":16.81239,"population":15004},{"id":3096525,"name":"Kartuzy","nameKo":"카르투지","ascii":"Kartuzy","lat":54.33424,"lon":18.19735,"population":15002},{"id":3101367,"name":"Cieplice Śląskie Zdrój","ascii":"Cieplice Slaskie Zdroj","lat":50.86545,"lon":15.68367,"population":15000},{"id":3092813,"name":"Lubsko","nameKo":"룹스코","ascii":"Lubsko","lat":51.78467,"lon":14.97196,"population":14994},{"id":8426040,"name":"Przymorze Małe","ascii":"Przymorze Male","lat":54.40981,"lon":18.5784,"population":14912},{"id":3081752,"name":"Władysławowo","ascii":"Wladyslawowo","lat":54.79086,"lon":18.4009,"population":14889},{"id":771384,"name":"Grójec","ascii":"Grojec","lat":51.86252,"lon":20.86757,"population":14880},{"id":8425965,"name":"Nowy Dwór","ascii":"Nowy Dwor","lat":51.1147,"lon":16.95577,"population":14832},{"id":3093268,"name":"Lipno","ascii":"Lipno","lat":52.84436,"lon":19.17852,"population":14821},{"id":3096338,"name":"Kępno","ascii":"Kepno","lat":51.2784,"lon":17.98908,"population":14813},{"id":3085786,"name":"Skoczów","ascii":"Skoczow","lat":49.80089,"lon":18.7877,"population":14810},{"id":3094871,"name":"Koźle","ascii":"Kozle","lat":50.3356,"lon":18.14332,"population":14780},{"id":3091462,"name":"Morąg","ascii":"Morag","lat":53.91711,"lon":19.92602,"population":14745},{"id":766301,"name":"Limanowa","ascii":"Limanowa","lat":49.70594,"lon":20.42204,"population":14738},{"id":764039,"name":"Nidzica","nameKo":"니지차","ascii":"Nidzica","lat":53.36052,"lon":20.42749,"population":14720},{"id":3090147,"name":"Oliwa","ascii":"Oliwa","lat":54.40723,"lon":18.55363,"population":14618},{"id":8426055,"name":"Żabianka-Wejhera-Jelitkowo-Tysiąclecia","ascii":"Zabianka-Wejhera-Jelitkowo-Tysiaclecia","lat":54.42307,"lon":18.57445,"population":14540},{"id":3085481,"name":"Słupca","ascii":"Slupca","lat":52.28733,"lon":17.87192,"population":14476},{"id":3081300,"name":"Wschowa","ascii":"Wschowa","lat":51.80705,"lon":16.31663,"population":14458},{"id":3089670,"name":"Ostrzeszów","ascii":"Ostrzeszow","lat":51.4264,"lon":17.93355,"population":14446},{"id":3103824,"name":"Barlinek","ascii":"Barlinek","lat":52.99464,"lon":15.21864,"population":14385},{"id":3101660,"name":"Chojnów","ascii":"Chojnow","lat":51.27373,"lon":15.93661,"population":14209},{"id":8426038,"name":"Orunia-Św. Wojciech-Lipce","ascii":"Orunia-Sw. Wojciech-Lipce","lat":54.31469,"lon":18.63685,"population":14136},{"id":12047639,"name":"Stabłowice","ascii":"Stablowice","lat":51.15375,"lon":16.9002,"population":14099},{"id":755726,"name":"Wilanów","ascii":"Wilanow","lat":52.16311,"lon":21.08748,"population":14032},{"id":3087701,"name":"Pszów","ascii":"Pszow","lat":50.03994,"lon":18.39472,"population":14028},{"id":3080047,"name":"Żnin","ascii":"Znin","lat":52.84958,"lon":17.71992,"population":14008},{"id":757323,"name":"Szerszenie","ascii":"Szerszenie","lat":52.3978,"lon":22.95632,"population":14000},{"id":766332,"name":"Leżajsk","ascii":"Lezajsk","lat":50.26257,"lon":22.41932,"population":13958},{"id":3082734,"name":"Wąbrzeźno","ascii":"Wabrzezno","lat":53.27989,"lon":18.94773,"population":13911},{"id":8425985,"name":"Przedmieście Świdnickie","ascii":"Przedmiescie Swidnickie","lat":51.10083,"lon":17.03458,"population":13870},{"id":3098288,"name":"Grodzisk Wielkopolski","ascii":"Grodzisk Wielkopolski","lat":52.22762,"lon":16.36534,"population":13826},{"id":3100545,"name":"Dębno","ascii":"Debno","lat":52.73901,"lon":14.698,"population":13804},{"id":771953,"name":"Gołdap","ascii":"Goldap","lat":54.30631,"lon":22.30362,"population":13769},{"id":3099174,"name":"Głubczyce","ascii":"Glubczyce","lat":50.20086,"lon":17.82858,"population":13697},{"id":3081419,"name":"Wolsztyn","ascii":"Wolsztyn","lat":52.11552,"lon":16.11712,"population":13689},{"id":3083043,"name":"Tuchola","ascii":"Tuchola","lat":53.58792,"lon":17.85905,"population":13686},{"id":3085610,"name":"Sławno","ascii":"Slawno","lat":54.36276,"lon":16.67888,"population":13415},{"id":3080389,"name":"Zdzieszowice","ascii":"Zdzieszowice","lat":50.42482,"lon":18.12349,"population":13401},{"id":3100933,"name":"Człuchów","ascii":"Czluchow","lat":53.66722,"lon":17.35883,"population":13350},{"id":3095413,"name":"Koluszki","ascii":"Koluszki","lat":51.73872,"lon":19.81994,"population":13343},{"id":3080102,"name":"Złocieniec","ascii":"Zlocieniec","lat":53.53286,"lon":16.01132,"population":13337},{"id":3100637,"name":"Darłowo","ascii":"Darlowo","lat":54.42095,"lon":16.4107,"population":13324},{"id":3100874,"name":"Dąbie","ascii":"Dabie","lat":53.40027,"lon":14.67644,"population":13275},{"id":8425990,"name":"Plac Grunwaldzki","ascii":"Plac Grunwaldzki","lat":51.11164,"lon":17.06005,"population":13187},{"id":8425960,"name":"Grabiszyn-Grabiszynek","ascii":"Grabiszyn-Grabiszynek","lat":51.09352,"lon":16.98152,"population":13170},{"id":755474,"name":"Włodawa","ascii":"Wlodawa","lat":51.55,"lon":23.55,"population":13142},{"id":8425964,"name":"Muchobór Wielki","ascii":"Muchobor Wielki","lat":51.0974,"lon":16.94478,"population":13098},{"id":3087601,"name":"Rabka-Zdrój","ascii":"Rabka-Zdroj","lat":49.60889,"lon":19.96654,"population":13071},{"id":12047657,"name":"Krzyki","ascii":"Krzyki","lat":51.07085,"lon":16.99475,"population":12993},{"id":3098925,"name":"Golub-Dobrzyń","ascii":"Golub-Dobrzyn","lat":53.11087,"lon":19.05381,"population":12937},{"id":3096090,"name":"Kłobuck","ascii":"Klobuck","lat":50.90081,"lon":18.93674,"population":12934},{"id":3087630,"name":"Pyrzyce","ascii":"Pyrzyce","lat":53.1462,"lon":14.89257,"population":12893},{"id":3092212,"name":"Maślice","ascii":"Maslice","lat":51.15773,"lon":16.92715,"population":12793},{"id":3083632,"name":"Szprotawa","ascii":"Szprotawa","lat":51.56563,"lon":15.53664,"population":12786},{"id":3098898,"name":"Góra","ascii":"Gora","lat":51.66638,"lon":16.53494,"population":12668},{"id":12047659,"name":"Karłowice","ascii":"Karlowice","lat":51.14132,"lon":17.05212,"population":12651},{"id":765932,"name":"Lubaczów","ascii":"Lubaczow","lat":50.157,"lon":23.12339,"population":12595},{"id":756046,"name":"Węgrów","ascii":"Wegrow","lat":52.39954,"lon":22.01634,"population":12512},{"id":3102456,"name":"Brzeg Dolny","ascii":"Brzeg Dolny","lat":51.27299,"lon":16.70815,"population":12511},{"id":8426043,"name":"Siedlce","ascii":"Siedlce","lat":54.34692,"lon":18.61694,"population":12473},{"id":3091523,"name":"Mogilno","ascii":"Mogilno","lat":52.65806,"lon":17.95578,"population":12465},{"id":8426054,"name":"Zaspa-Rozstaje","ascii":"Zaspa-Rozstaje","lat":54.39672,"lon":18.61299,"population":12446},{"id":3081471,"name":"Wolin","ascii":"Wolin","lat":53.84214,"lon":14.61465,"population":12438},{"id":3084404,"name":"Strzelin","ascii":"Strzelin","lat":50.78157,"lon":17.06477,"population":12394},{"id":8426053,"name":"Zaspa-Młyniec","ascii":"Zaspa-Mlyniec","lat":54.39127,"lon":18.59848,"population":12376},{"id":3091407,"name":"Mosina","ascii":"Mosina","lat":52.24543,"lon":16.84709,"population":12318},{"id":775224,"name":"Brwinów","ascii":"Brwinow","lat":52.14269,"lon":20.71697,"population":12315},{"id":3104133,"name":"Aleksandrów Kujawski","ascii":"Aleksandrow Kujawski","lat":52.87659,"lon":18.69345,"population":12290},{"id":3102390,"name":"Brzeziny","nameKo":"브셰지니","ascii":"Brzeziny","lat":51.80023,"lon":19.75144,"population":12289},{"id":3081430,"name":"Wołów","ascii":"Wolow","lat":51.33656,"lon":16.64429,"population":12276},{"id":767374,"name":"Krynica-Zdrój","ascii":"Krynica-Zdroj","lat":49.42225,"lon":20.95942,"population":12270},{"id":3089392,"name":"Pasłęk","ascii":"Paslek","lat":54.0616,"lon":19.65932,"population":12267},{"id":3083103,"name":"Trzebnica","ascii":"Trzebnica","lat":51.31076,"lon":17.06331,"population":12212},{"id":775820,"name":"Błonie","ascii":"Blonie","lat":52.19849,"lon":20.61709,"population":12195},{"id":3094633,"name":"Krosno Odrzańskie","ascii":"Krosno Odrzanskie","lat":52.05492,"lon":15.09882,"population":12178},{"id":757178,"name":"Szydłowiec","ascii":"Szydlowiec","lat":51.22823,"lon":20.86106,"population":12128},{"id":3091253,"name":"Myślibórz","ascii":"Mysliborz","lat":52.92382,"lon":14.86785,"population":12092},{"id":12047655,"name":"Powstańców Śląskich Zachód-Centrum Południow","ascii":"Powstancow Slaskich Zachod-Centrum Poludniow","lat":51.09607,"lon":17.0177,"population":12077},{"id":12047640,"name":"Zgorzelisko","ascii":"Zgorzelisko","lat":51.13833,"lon":17.13365,"population":11967},{"id":3094831,"name":"Kozy","ascii":"Kozy","lat":49.84756,"lon":19.14891,"population":11920},{"id":8425968,"name":"Borek","ascii":"Borek","lat":51.08429,"lon":17.0095,"population":11883},{"id":756048,"name":"Węgorzewo","ascii":"Wegorzewo","lat":54.21567,"lon":21.7372,"population":11864},{"id":770425,"name":"Janów Lubelski","ascii":"Janow Lubelski","lat":50.70695,"lon":22.41039,"population":11811},{"id":762201,"name":"Pińczów","ascii":"Pinczow","lat":50.52052,"lon":20.52649,"population":11806},{"id":764917,"name":"Miechów","ascii":"Miechow","lat":50.35648,"lon":20.02788,"population":11735},{"id":3101145,"name":"Czarnków","ascii":"Czarnkow","lat":52.90214,"lon":16.56413,"population":11562},{"id":763783,"name":"Nowa Dęba","ascii":"Nowa Deba","lat":50.42974,"lon":21.75078,"population":11489},{"id":3081350,"name":"Wronki","ascii":"Wronki","lat":52.71051,"lon":16.38044,"population":11462},{"id":12047662,"name":"Powstańców Śląskich Wschód","ascii":"Powstancow Slaskich Wschod","lat":51.09164,"lon":17.0247,"population":11456},{"id":3087691,"name":"Puck","ascii":"Puck","lat":54.7179,"lon":18.40841,"population":11415},{"id":3081874,"name":"Wisła","ascii":"Wisla","lat":49.65629,"lon":18.8591,"population":11379},{"id":3091788,"name":"Milicz","ascii":"Milicz","lat":51.5277,"lon":17.27137,"population":11304},{"id":12047631,"name":"Biskupin","ascii":"Biskupin","lat":51.10097,"lon":17.10442,"population":11292},{"id":773569,"name":"Dąbrowa Tarnowska","ascii":"Dabrowa Tarnowska","lat":50.17462,"lon":20.98633,"population":11291},{"id":3100139,"name":"Drawsko Pomorskie","ascii":"Drawsko Pomorskie","lat":53.53056,"lon":15.80967,"population":11275},{"id":12047629,"name":"Grabiszynek","ascii":"Grabiszynek","lat":51.08703,"lon":16.98629,"population":11145},{"id":756151,"name":"Warka","ascii":"Warka","lat":51.7843,"lon":21.19091,"population":11048},{"id":3090613,"name":"Nowe Miasto Lubawskie","ascii":"Nowe Miasto Lubawskie","lat":53.42079,"lon":19.59515,"population":10997},{"id":3091983,"name":"Międzychód","ascii":"Miedzychod","lat":52.59882,"lon":15.89696,"population":10994},{"id":3095192,"name":"Koronowo","ascii":"Koronowo","lat":53.3137,"lon":17.93698,"population":10965},{"id":3092080,"name":"Miastko","ascii":"Miastko","lat":54.00283,"lon":16.98263,"population":10954},{"id":3102343,"name":"Brzeźno Gdańskie","ascii":"Brzezno Gdanskie","lat":54.40365,"lon":18.63144,"population":10938},{"id":3102444,"name":"Brzeszcze","ascii":"Brzeszcze","lat":49.98203,"lon":19.15157,"population":10935},{"id":3102076,"name":"Bukowno","ascii":"Bukowno","lat":50.26474,"lon":19.45962,"population":10874},{"id":3094934,"name":"Kowary","ascii":"Kowary","lat":50.79313,"lon":15.83559,"population":10869},{"id":3087072,"name":"Rogoźno","ascii":"Rogozno","lat":52.75226,"lon":16.99049,"population":10859},{"id":3091031,"name":"Niedobczyce","ascii":"Niedobczyce","lat":50.0654,"lon":18.49531,"population":10846},{"id":3101426,"name":"Ciechocinek","ascii":"Ciechocinek","lat":52.87908,"lon":18.79505,"population":10832},{"id":3083921,"name":"Syców","ascii":"Sycow","lat":51.30814,"lon":17.71979,"population":10809},{"id":771870,"name":"Góra Kalwaria","ascii":"Gora Kalwaria","lat":51.97653,"lon":21.21537,"population":10777},{"id":12047624,"name":"Zakrzów","ascii":"Zakrzow","lat":51.16624,"lon":17.13688,"population":10737},{"id":3081699,"name":"Włoszczowa","ascii":"Wloszczowa","lat":50.85256,"lon":19.96593,"population":10661},{"id":768785,"name":"Kolno","ascii":"Kolno","lat":53.41148,"lon":21.92905,"population":10659},{"id":3093158,"name":"Łobez","nameKo":"워베스","ascii":"Lobez","lat":53.63918,"lon":15.62129,"population":10609},{"id":764421,"name":"Mońki","ascii":"Monki","lat":53.40496,"lon":22.79791,"population":10577},{"id":3100127,"name":"Drezdenko","ascii":"Drezdenko","lat":52.83831,"lon":15.83079,"population":10541},{"id":773148,"name":"Dobre Miasto","ascii":"Dobre Miasto","lat":53.98668,"lon":20.39749,"population":10514},{"id":768805,"name":"Kolbuszowa","ascii":"Kolbuszowa","lat":50.2441,"lon":21.7761,"population":10442},{"id":3101968,"name":"Bystrzyca Kłodzka","ascii":"Bystrzyca Klodzka","lat":50.30179,"lon":16.64231,"population":10375},{"id":775890,"name":"Biskupiec","ascii":"Biskupiec","lat":53.86467,"lon":20.95692,"population":10340},{"id":3083145,"name":"Trzebiatów","ascii":"Trzebiatow","lat":54.06147,"lon":15.26475,"population":10322},{"id":769539,"name":"Karczew","ascii":"Karczew","lat":52.07655,"lon":21.24962,"population":10319},{"id":762643,"name":"Parczew","ascii":"Parczew","lat":51.64021,"lon":22.90057,"population":10249},{"id":3095856,"name":"Kokoszki","ascii":"Kokoszki","lat":54.35563,"lon":18.49102,"population":10240},{"id":3090158,"name":"Olesno","ascii":"Olesno","lat":50.87698,"lon":18.42094,"population":10236},{"id":3094303,"name":"Kudowa-Zdrój","ascii":"Kudowa-Zdroj","lat":50.44297,"lon":16.24397,"population":10176},{"id":3084237,"name":"Sulęcin","ascii":"Sulecin","lat":52.44429,"lon":15.11676,"population":10090},{"id":761546,"name":"Poniatowa","ascii":"Poniatowa","lat":51.17983,"lon":22.13093,"population":10056},{"id":3085656,"name":"Skwierzyna","ascii":"Skwierzyna","lat":52.59914,"lon":15.50652,"population":10051},{"id":3096986,"name":"Wielki Kack","ascii":"Wielki Kack","lat":54.46754,"lon":18.4881,"population":10012},{"id":3091293,"name":"Murowana Goślina","ascii":"Murowana Goslina","lat":52.57463,"lon":17.00933,"population":9989},{"id":3094490,"name":"Krzeszowice","ascii":"Krzeszowice","lat":50.14248,"lon":19.63223,"population":9978},{"id":765430,"name":"Maków Mazowiecki","ascii":"Makow Mazowiecki","lat":52.86493,"lon":21.10053,"population":9978},{"id":3084421,"name":"Strzelce Krajeńskie","ascii":"Strzelce Krajenskie","lat":52.87726,"lon":15.52978,"population":9978},{"id":3089583,"name":"Ozimek","ascii":"Ozimek","lat":50.67944,"lon":18.2137,"population":9963},{"id":3089340,"name":"Pawłowice","ascii":"Pawlowice","lat":49.96127,"lon":18.71778,"population":9929},{"id":3103274,"name":"Blachownia","ascii":"Blachownia","lat":50.78015,"lon":18.96389,"population":9891},{"id":764194,"name":"Nadarzyn","ascii":"Nadarzyn","lat":52.09438,"lon":20.80776,"population":9881},{"id":3090502,"name":"Nowy Dwór Gdański","ascii":"Nowy Dwor Gdanski","lat":54.21305,"lon":19.11771,"population":9822},{"id":3084300,"name":"Sucha Beskidzka","ascii":"Sucha Beskidzka","lat":49.74188,"lon":19.59429,"population":9801},{"id":3083616,"name":"Sztum","ascii":"Sztum","lat":53.92077,"lon":19.03072,"population":9766},{"id":3094832,"name":"Kożuchów","ascii":"Kozuchow","lat":51.74558,"lon":15.59492,"population":9679},{"id":3092638,"name":"Lwówek Śląski","ascii":"Lwowek Slaski","lat":51.11074,"lon":15.58582,"population":9657},{"id":759852,"name":"Ryki","ascii":"Ryki","lat":51.62574,"lon":21.93274,"population":9619},{"id":756280,"name":"Ustrzyki Dolne","ascii":"Ustrzyki Dolne","lat":49.4304,"lon":22.59381,"population":9610},{"id":773941,"name":"Czarna Białostocka","ascii":"Czarna Bialostocka","lat":53.30509,"lon":23.28146,"population":9592},{"id":3084288,"name":"Suchanino","ascii":"Suchanino","lat":54.35493,"lon":18.60406,"population":9587},{"id":3094585,"name":"Kruszwica","ascii":"Kruszwica","lat":52.67562,"lon":18.33131,"population":9494},{"id":756120,"name":"Wasilków","ascii":"Wasilkow","lat":53.19909,"lon":23.20776,"population":9440},{"id":763066,"name":"Orneta","ascii":"Orneta","lat":54.11483,"lon":20.13328,"population":9412},{"id":3089065,"name":"Pieszyce","ascii":"Pieszyce","lat":50.71287,"lon":16.58232,"population":9406},{"id":3100984,"name":"Czersk","ascii":"Czersk","lat":53.79589,"lon":17.97647,"population":9390},{"id":763903,"name":"Niepołomice","ascii":"Niepolomice","lat":50.04066,"lon":20.22257,"population":9384},{"id":8425971,"name":"Jagodno","ascii":"Jagodno","lat":51.05163,"lon":17.05868,"population":9355},{"id":3080226,"name":"Ziębice","ascii":"Ziebice","lat":50.60122,"lon":17.04065,"population":9328},{"id":3093028,"name":"Lubawa","ascii":"Lubawa","lat":53.50428,"lon":19.74966,"population":9302},{"id":3086153,"name":"Sępólno Krajeńskie","ascii":"Sepolno Krajenskie","lat":53.45198,"lon":17.53169,"population":9223},{"id":3083611,"name":"Szubin","ascii":"Szubin","lat":53.00967,"lon":17.74,"population":9206},{"id":754479,"name":"Wysokie Mazowieckie","ascii":"Wysokie Mazowieckie","lat":52.91661,"lon":22.51712,"population":9203},{"id":757886,"name":"Suchedniów","ascii":"Suchedniow","lat":51.04776,"lon":20.82922,"population":9184},{"id":3097688,"name":"Janikowo","ascii":"Janikowo","lat":52.75328,"lon":18.11328,"population":9169},{"id":3081495,"name":"Wolbrom","ascii":"Wolbrom","lat":50.37957,"lon":19.75831,"population":9146},{"id":3087640,"name":"Puszczykowo","ascii":"Puszczykowo","lat":52.2857,"lon":16.84925,"population":9143},{"id":8425976,"name":"Tarnogaj","ascii":"Tarnogaj","lat":51.0817,"lon":17.0634,"population":9108},{"id":3101812,"name":"Chełmek","ascii":"Chelmek","lat":50.10163,"lon":19.24801,"population":9059},{"id":3096765,"name":"Kamień Pomorski","nameKo":"카미엔포모르스키","ascii":"Kamien Pomorski","lat":53.96849,"lon":14.77262,"population":9036},{"id":3079942,"name":"Żuromin","ascii":"Zuromin","lat":53.06611,"lon":19.90894,"population":9019},{"id":3079897,"name":"Żychlin","ascii":"Zychlin","lat":52.24404,"lon":19.62613,"population":9009},{"id":3090076,"name":"Opalenica","ascii":"Opalenica","lat":52.30887,"lon":16.41278,"population":8991},{"id":3095058,"name":"Kostrzyn","ascii":"Kostrzyn","lat":52.39847,"lon":17.22811,"population":8965},{"id":758282,"name":"Stary Sącz","ascii":"Stary Sacz","lat":49.56364,"lon":20.63496,"population":8959},{"id":3081636,"name":"Wojkowice","ascii":"Wojkowice","lat":50.36509,"lon":19.03652,"population":8927},{"id":3085047,"name":"Środa Śląska","ascii":"Sroda Slaska","lat":51.16406,"lon":16.59508,"population":8912},{"id":8425992,"name":"Stare Miasto","ascii":"Stare Miasto","lat":51.11034,"lon":17.03714,"population":8883},{"id":760684,"name":"Radzymin","ascii":"Radzymin","lat":52.41592,"lon":21.18415,"population":8818},{"id":763107,"name":"Opole Lubelskie","ascii":"Opole Lubelskie","lat":51.14775,"lon":21.96897,"population":8780},{"id":757957,"name":"Strzyżów","ascii":"Strzyzow","lat":49.87074,"lon":21.79413,"population":8739},{"id":12047615,"name":"Leśnica-Ratyń-Pustki","ascii":"Lesnica-Ratyn-Pustki","lat":51.14228,"lon":16.84773,"population":8724},{"id":3088273,"name":"Poręba","ascii":"Poreba","lat":50.48831,"lon":19.33903,"population":8718},{"id":3082176,"name":"Wieruszów","ascii":"Wieruszow","lat":51.29488,"lon":18.15547,"population":8692},{"id":3088477,"name":"Połczyn-Zdrój","ascii":"Polczyn-Zdroj","lat":53.76424,"lon":16.09574,"population":8682},{"id":3088749,"name":"Pobiedziska","ascii":"Pobiedziska","lat":52.47753,"lon":17.28767,"population":8677},{"id":3096911,"name":"Kalety","ascii":"Kalety","lat":50.5627,"lon":18.8926,"population":8670},{"id":3098333,"name":"Grodków","ascii":"Grodkow","lat":50.69836,"lon":17.38449,"population":8654},{"id":3088676,"name":"Podjuchy","ascii":"Podjuchy","lat":53.36223,"lon":14.59953,"population":8606},{"id":3081604,"name":"Wola","ascii":"Wola","lat":50.01745,"lon":19.12333,"population":8508},{"id":8168336,"name":"Mierzyn","ascii":"Mierzyn","lat":53.43004,"lon":14.4653,"population":8494},{"id":3088161,"name":"Prabuty","ascii":"Prabuty","lat":53.755,"lon":19.20547,"population":8488},{"id":8426036,"name":"Nowy Port","ascii":"Nowy Port","lat":54.40161,"lon":18.66767,"population":8465},{"id":3097420,"name":"Jastrowie","ascii":"Jastrowie","lat":53.42048,"lon":16.81756,"population":8452},{"id":3090401,"name":"Oborniki Śląskie","ascii":"Oborniki Slaskie","lat":51.30137,"lon":16.91465,"population":8440},{"id":3080538,"name":"Zawadzkie","ascii":"Zawadzkie","lat":50.60503,"lon":18.48467,"population":8439},{"id":3089282,"name":"Pelplin","ascii":"Pelplin","lat":53.92834,"lon":18.6977,"population":8320},{"id":762769,"name":"Ożarów Mazowiecki","ascii":"Ozarow Mazowiecki","lat":52.21039,"lon":20.79716,"population":8237},{"id":3101722,"name":"Chocianów","ascii":"Chocianow","lat":51.41867,"lon":15.90172,"population":8187},{"id":3093439,"name":"Lidzbark","ascii":"Lidzbark","lat":53.26283,"lon":19.82663,"population":8177},{"id":761652,"name":"Połaniec","ascii":"Polaniec","lat":50.43324,"lon":21.2812,"population":8158},{"id":3088135,"name":"Praszka","ascii":"Praszka","lat":51.05375,"lon":18.45317,"population":8150},{"id":3089566,"name":"Paczków","ascii":"Paczkow","lat":50.46395,"lon":17.00658,"population":8081},{"id":3097886,"name":"Imielin","ascii":"Imielin","lat":50.14534,"lon":19.18599,"population":8057},{"id":753004,"name":"Zwoleń","ascii":"Zwolen","lat":51.35542,"lon":21.58768,"population":8048},{"id":771729,"name":"Gorzyce","ascii":"Gorzyce","lat":50.6672,"lon":21.84013,"population":8009},{"id":3080295,"name":"Zelów","ascii":"Zelow","lat":51.46452,"lon":19.21972,"population":8003},{"id":3089924,"name":"Osiek","ascii":"Osiek","lat":49.95067,"lon":19.26444,"population":8000},{"id":3088710,"name":"Poddębice","ascii":"Poddebice","lat":51.89344,"lon":18.9573,"population":7840},{"id":3083077,"name":"Trzemeszno","ascii":"Trzemeszno","lat":52.56139,"lon":17.82311,"population":7840},{"id":775086,"name":"Brzozów","ascii":"Brzozow","lat":49.69501,"lon":22.01926,"population":7836},{"id":3081826,"name":"Witkowo","ascii":"Witkowo","lat":52.43964,"lon":17.77264,"population":7825},{"id":3088759,"name":"Pniewy","ascii":"Pniewy","lat":52.50943,"lon":16.25668,"population":7738},{"id":12047620,"name":"Sępolno","ascii":"Sepolno","lat":51.10995,"lon":17.102,"population":7724},{"id":3103856,"name":"Barcin","ascii":"Barcin","lat":52.86607,"lon":17.94625,"population":7682},{"id":763165,"name":"Olsztynek","ascii":"Olsztynek","lat":53.58374,"lon":20.28471,"population":7591},{"id":8425963,"name":"Muchobór Mały","ascii":"Muchobor Maly","lat":51.10893,"lon":16.96862,"population":7586},{"id":764276,"name":"Mszana Dolna","ascii":"Mszana Dolna","lat":49.67432,"lon":20.07992,"population":7500},{"id":756919,"name":"Tłuszcz","ascii":"Tluszcz","lat":52.43058,"lon":21.43561,"population":7482},{"id":3102648,"name":"Brętowo","ascii":"Bretowo","lat":54.37009,"lon":18.57105,"population":7446},{"id":764100,"name":"Nasielsk","ascii":"Nasielsk","lat":52.58887,"lon":20.80553,"population":7445},{"id":8425979,"name":"Kleczków","ascii":"Kleczkow","lat":51.12824,"lon":17.02787,"population":7418},{"id":3101675,"name":"Chojna","ascii":"Chojna","lat":52.96389,"lon":14.42797,"population":7398},{"id":776114,"name":"Białobrzegi","ascii":"Bialobrzegi","lat":51.64695,"lon":20.95041,"population":7328},{"id":776384,"name":"Barczewo","ascii":"Barczewo","lat":53.83055,"lon":20.69112,"population":7315},{"id":12047663,"name":"Wojszyce","ascii":"Wojszyce","lat":51.05837,"lon":17.04513,"population":7285},{"id":3099120,"name":"Gniewkowo","ascii":"Gniewkowo","lat":52.89461,"lon":18.40785,"population":7224},{"id":765976,"name":"Łosice","ascii":"Losice","lat":52.21129,"lon":22.71801,"population":7207},{"id":3095194,"name":"Kórnik","ascii":"Kornik","lat":52.24772,"lon":17.08949,"population":7206},{"id":3080495,"name":"Zbąszyń","ascii":"Zbaszyn","lat":52.2509,"lon":15.9252,"population":7185},{"id":3093768,"name":"Łazy","ascii":"Lazy","lat":50.42769,"lon":19.39465,"population":7166},{"id":3082945,"name":"Tuszyn","ascii":"Tuszyn","lat":51.60949,"lon":19.53009,"population":7124},{"id":760607,"name":"Raszyn","ascii":"Raszyn","lat":52.15603,"lon":20.9226,"population":7109},{"id":759504,"name":"Sędziszów Małopolski","ascii":"Sedziszow Malopolski","lat":50.07069,"lon":21.70062,"population":7096},{"id":3085970,"name":"Sierakowice","ascii":"Sierakowice","lat":54.3461,"lon":17.89252,"population":7068},{"id":3102961,"name":"Bolszewo","ascii":"Bolszewo","lat":54.61801,"lon":18.17585,"population":7064},{"id":3092643,"name":"Luzino","ascii":"Luzino","lat":54.56604,"lon":18.10907,"population":7056},{"id":3092082,"name":"Miasteczko Śląskie","ascii":"Miasteczko Slaskie","lat":50.50262,"lon":18.93949,"population":7044},{"id":12047635,"name":"Gądów Mały","ascii":"Gadow Maly","lat":51.11853,"lon":16.98596,"population":7042},{"id":3083677,"name":"Szklarska Poręba","ascii":"Szklarska Poreba","lat":50.82567,"lon":15.52274,"population":6970},{"id":3088496,"name":"Polanica-Zdrój","ascii":"Polanica-Zdroj","lat":50.40373,"lon":16.51271,"population":6966},{"id":776252,"name":"Bełżyce","ascii":"Belzyce","lat":51.17415,"lon":22.28027,"population":6958},{"id":3090087,"name":"Ołtaszyn","ascii":"Oltaszyn","lat":51.06176,"lon":17.02869,"population":6948},{"id":3085826,"name":"Skarszewy","ascii":"Skarszewy","lat":54.06911,"lon":18.44416,"population":6942},{"id":3101204,"name":"Czaplinek","ascii":"Czaplinek","lat":53.55775,"lon":16.23333,"population":6933},{"id":3093136,"name":"Łodygowice","ascii":"Lodygowice","lat":49.72992,"lon":19.13939,"population":6925},{"id":3085252,"name":"Sobótka","ascii":"Sobotka","lat":50.89992,"lon":16.74441,"population":6906},{"id":3085616,"name":"Sławków","ascii":"Slawkow","lat":50.29943,"lon":19.38967,"population":6901},{"id":3099146,"name":"Głuszyca","ascii":"Gluszyca","lat":50.68743,"lon":16.37173,"population":6897},{"id":760632,"name":"Rakszawa","ascii":"Rakszawa","lat":50.16051,"lon":22.23907,"population":6894},{"id":3098199,"name":"Gryfów Śląski","ascii":"Gryfow Slaski","lat":51.03081,"lon":15.42017,"population":6890},{"id":3082938,"name":"Twardogóra","ascii":"Twardogora","lat":51.36487,"lon":17.46878,"population":6840},{"id":3081818,"name":"Witnica","ascii":"Witnica","lat":52.67318,"lon":14.89765,"population":6821},{"id":12047622,"name":"Rejon ulicy Mieleckiej","ascii":"Rejon ulicy Mieleckiej","lat":51.09145,"lon":17.00207,"population":6815},{"id":763121,"name":"Opatów","ascii":"Opatow","lat":50.80058,"lon":21.42538,"population":6799},{"id":759507,"name":"Sędziszów","ascii":"Sedziszow","lat":50.5659,"lon":20.05563,"population":6771},{"id":760055,"name":"Rudnik nad Sanem","ascii":"Rudnik nad Sanem","lat":50.44152,"lon":22.24856,"population":6770},{"id":3099127,"name":"Gniew","ascii":"Gniew","lat":53.83602,"lon":18.8231,"population":6759},{"id":3089025,"name":"Piława Górna","ascii":"Pilawa Gorna","lat":50.68357,"lon":16.74359,"population":6736},{"id":3089553,"name":"Pajęczno","ascii":"Pajeczno","lat":51.14449,"lon":18.99612,"population":6731},{"id":3097339,"name":"Jaworze","ascii":"Jaworze","lat":49.79351,"lon":18.9479,"population":6723},{"id":3080652,"name":"Żarów","ascii":"Zarow","lat":50.94116,"lon":16.49466,"population":6719},{"id":3096079,"name":"Kłodawa","ascii":"Klodawa","lat":52.25447,"lon":18.91352,"population":6714},{"id":756634,"name":"Tuchów","ascii":"Tuchow","lat":49.89485,"lon":21.05407,"population":6680},{"id":3094852,"name":"Koźmin Wielkopolski","ascii":"Kozmin Wielkopolski","lat":51.82712,"lon":17.45391,"population":6678},{"id":3086134,"name":"Sianów","ascii":"Sianow","lat":54.22646,"lon":16.29127,"population":6606},{"id":12047625,"name":"Maślice Małe","ascii":"Maslice Male","lat":51.14937,"lon":16.94191,"population":6602},{"id":770706,"name":"Jabłonna","ascii":"Jablonna","lat":52.37885,"lon":20.91745,"population":6552},{"id":3080058,"name":"Żmigród","ascii":"Zmigrod","lat":51.46672,"lon":16.90564,"population":6542},{"id":3089152,"name":"Piechowice","ascii":"Piechowice","lat":50.84963,"lon":15.59887,"population":6496},{"id":3081942,"name":"Wilkowice","ascii":"Wilkowice","lat":49.76282,"lon":19.08973,"population":6496},{"id":3079969,"name":"Żukowo","ascii":"Zukowo","lat":54.3422,"lon":18.36476,"population":6494},{"id":3086435,"name":"Rzepin","ascii":"Rzepin","lat":52.3464,"lon":14.83227,"population":6488},{"id":3087954,"name":"Przemków","ascii":"Przemkow","lat":51.5253,"lon":15.79441,"population":6487},{"id":766073,"name":"Łochów","ascii":"Lochow","lat":52.53076,"lon":21.68158,"population":6486},{"id":3093027,"name":"Lubawka","ascii":"Lubawka","lat":50.70456,"lon":16.00026,"population":6404},{"id":8425973,"name":"Księże","ascii":"Ksieze","lat":51.07519,"lon":17.08623,"population":6379},{"id":3084194,"name":"Sułkowice","ascii":"Sulkowice","lat":49.84053,"lon":19.80097,"population":6362},{"id":3084230,"name":"Sulejów","ascii":"Sulejow","lat":51.35436,"lon":19.88538,"population":6332},{"id":3099095,"name":"Goczałkowice Zdrój","ascii":"Goczalkowice Zdroj","lat":49.94454,"lon":18.96927,"population":6321},{"id":3095330,"name":"Koniecpol","ascii":"Koniecpol","lat":50.77468,"lon":19.68896,"population":6318},{"id":3090951,"name":"Niemodlin","ascii":"Niemodlin","lat":50.642,"lon":17.61932,"population":6315},{"id":3096240,"name":"Kietrz","ascii":"Kietrz","lat":50.08042,"lon":18.00432,"population":6306},{"id":3094408,"name":"Krzyż Wielkopolski","ascii":"Krzyz Wielkopolski","lat":52.88097,"lon":16.01116,"population":6300},{"id":3094370,"name":"Ksawerów","ascii":"Ksawerow","lat":51.68288,"lon":19.4028,"population":6269},{"id":764269,"name":"Mszczonów","ascii":"Mszczonow","lat":51.97415,"lon":20.52083,"population":6267},{"id":763765,"name":"Nowa Sarzyna","ascii":"Nowa Sarzyna","lat":50.32086,"lon":22.34456,"population":6255},{"id":12047609,"name":"Rejon ulicy Klęczkowskiej","ascii":"Rejon ulicy Kleczkowskiej","lat":51.1297,"lon":17.03376,"population":6223},{"id":3099923,"name":"Działoszyn","ascii":"Dzialoszyn","lat":51.11699,"lon":18.86524,"population":6222},{"id":3081488,"name":"Wołczyn","ascii":"Wolczyn","lat":51.01845,"lon":18.04994,"population":6221},{"id":8425981,"name":"Polanowice-Poświętne-Ligota","ascii":"Polanowice-Poswietne-Ligota","lat":51.15951,"lon":17.03902,"population":6204},{"id":3080508,"name":"Zawoja","ascii":"Zawoja","lat":49.64396,"lon":19.54227,"population":6200},{"id":3084515,"name":"Stronie Śląskie","ascii":"Stronie Slaskie","lat":50.29554,"lon":16.87397,"population":6192},{"id":761008,"name":"Przysucha","ascii":"Przysucha","lat":51.35858,"lon":20.62889,"population":6188},{"id":773176,"name":"Dobczyce","ascii":"Dobczyce","lat":49.88109,"lon":20.08936,"population":6171},{"id":761258,"name":"Proszowice","ascii":"Proszowice","lat":50.19275,"lon":20.28909,"population":6146},{"id":3094016,"name":"Lądek-Zdrój","ascii":"Ladek-Zdroj","lat":50.34371,"lon":16.87946,"population":6140},{"id":3090660,"name":"Nowe","nameKo":"노베","ascii":"Nowe","lat":53.64906,"lon":18.72716,"population":6104},{"id":3102138,"name":"Buk","ascii":"Buk","lat":52.35532,"lon":16.51958,"population":6102},{"id":768136,"name":"Korczyna","ascii":"Korczyna","lat":49.71555,"lon":21.80941,"population":6100},{"id":3085974,"name":"Sieraków","ascii":"Sierakow","lat":52.65134,"lon":16.08047,"population":6090},{"id":3099048,"name":"Gogolin","ascii":"Gogolin","lat":50.49222,"lon":18.01994,"population":6077},{"id":3082319,"name":"Wieleń","ascii":"Wielen","lat":52.89461,"lon":16.17136,"population":6067},{"id":772772,"name":"Dynów","ascii":"Dynow","lat":49.81506,"lon":22.23388,"population":6065},{"id":3092186,"name":"Matarnia","ascii":"Matarnia","lat":54.38563,"lon":18.47282,"population":6052},{"id":773593,"name":"Dąbrowa Białostocka","ascii":"Dabrowa Bialostocka","lat":53.65364,"lon":23.34792,"population":6044},{"id":3101161,"name":"Czarne","ascii":"Czarne","lat":53.6842,"lon":16.93834,"population":6035},{"id":757461,"name":"Szczawnica","nameKo":"슈차브니차","ascii":"Szczawnica","lat":49.42437,"lon":20.48487,"population":6032},{"id":3093501,"name":"Lewin Brzeski","ascii":"Lewin Brzeski","lat":50.7487,"lon":17.61688,"population":6000},{"id":756938,"name":"Terespol","ascii":"Terespol","lat":52.0755,"lon":23.61614,"population":6000},{"id":763028,"name":"Orzysz","ascii":"Orzysz","lat":53.80967,"lon":21.94811,"population":5998},{"id":771313,"name":"Grybów","ascii":"Grybow","lat":49.62439,"lon":20.94797,"population":5994},{"id":3103588,"name":"Białe Błota","ascii":"Biale Blota","lat":53.09516,"lon":17.91621,"population":5989},{"id":3082364,"name":"Więcbork","ascii":"Wiecbork","lat":53.35384,"lon":17.49064,"population":5953},{"id":3084396,"name":"Strzelno","ascii":"Strzelno","lat":52.62789,"lon":18.17246,"population":5951},{"id":758393,"name":"Stąporków","ascii":"Staporkow","lat":51.13762,"lon":20.57173,"population":5946},{"id":3096002,"name":"Klucze","ascii":"Klucze","lat":50.33565,"lon":19.56236,"population":5926},{"id":759503,"name":"Sejny","ascii":"Sejny","lat":54.10802,"lon":23.34698,"population":5872},{"id":3086206,"name":"Ścinawa","ascii":"Scinawa","lat":51.41626,"lon":16.4251,"population":5863},{"id":3088846,"name":"Plewiska","ascii":"Plewiska","lat":52.36706,"lon":16.80985,"population":5861},{"id":3083752,"name":"Szczyrk","ascii":"Szczyrk","lat":49.71724,"lon":19.03183,"population":5860},{"id":3102652,"name":"Brenna","ascii":"Brenna","lat":49.72576,"lon":18.90249,"population":5859},{"id":3096630,"name":"Karlino","ascii":"Karlino","lat":54.03515,"lon":15.87739,"population":5832},{"id":775717,"name":"Boguchwała","ascii":"Boguchwala","lat":49.98473,"lon":21.94528,"population":5823},{"id":771348,"name":"Grudki","ascii":"Grudki","lat":53.09488,"lon":23.66848,"population":5822},{"id":3089098,"name":"Pieńsk","ascii":"Piensk","lat":51.249,"lon":15.04685,"population":5813},{"id":3091297,"name":"Murcki","ascii":"Murcki","lat":50.20036,"lon":19.04351,"population":5796},{"id":762106,"name":"Piwniczna-Zdrój","ascii":"Piwniczna-Zdroj","lat":49.44056,"lon":20.71423,"population":5793},{"id":3089547,"name":"Pakość","ascii":"Pakosc","lat":52.80178,"lon":18.0853,"population":5762},{"id":3087427,"name":"Radziejów","ascii":"Radziejow","lat":52.62481,"lon":18.52771,"population":5759},{"id":3099209,"name":"Głogówek","ascii":"Glogowek","lat":50.35355,"lon":17.86405,"population":5755},{"id":3092517,"name":"Maków Podhalański","ascii":"Makow Podhalanski","lat":49.73008,"lon":19.67711,"population":5746},{"id":766137,"name":"Lipsko","ascii":"Lipsko","lat":51.15954,"lon":21.64933,"population":5723},{"id":766452,"name":"Lesko","ascii":"Lesko","lat":49.4701,"lon":22.33042,"population":5700},{"id":769346,"name":"Kazimierza Wielka","ascii":"Kazimierza Wielka","lat":50.26564,"lon":20.49358,"population":5696},{"id":3101788,"name":"Chełm Śląski","ascii":"Chelm Slaski","lat":50.10825,"lon":19.19552,"population":5646},{"id":770169,"name":"Jedlicze","ascii":"Jedlicze","lat":49.71749,"lon":21.64886,"population":5629},{"id":3084647,"name":"Stęszew","ascii":"Steszew","lat":52.2837,"lon":16.70085,"population":5596},{"id":3084143,"name":"Susz","ascii":"Susz","lat":53.71743,"lon":19.33645,"population":5593},{"id":3083835,"name":"Szczawno-Zdrój","ascii":"Szczawno-Zdroj","lat":50.80352,"lon":16.25655,"population":5586},{"id":12047630,"name":"Pilczyce","ascii":"Pilczyce","lat":51.13704,"lon":16.95752,"population":5582},{"id":8425962,"name":"Kuźniki","ascii":"Kuzniki","lat":51.12487,"lon":16.95092,"population":5569},{"id":12047660,"name":"Księże Małe-Księże Wielkie","ascii":"Ksieze Male-Ksieze Wielkie","lat":51.07293,"lon":17.08881,"population":5541},{"id":3101220,"name":"Czaniec","ascii":"Czaniec","lat":49.85071,"lon":19.25354,"population":5536},{"id":3085391,"name":"Śmigiel","ascii":"Smigiel","lat":52.01339,"lon":16.52704,"population":5531},{"id":3099842,"name":"Dzierzgoń","ascii":"Dzierzgon","lat":53.92196,"lon":19.34705,"population":5518},{"id":3101691,"name":"Chocznia","ascii":"Chocznia","lat":49.87417,"lon":19.45438,"population":5510},{"id":3091961,"name":"Międzyzdroje","ascii":"Miedzyzdroje","lat":53.92921,"lon":14.45097,"population":5502},{"id":3094164,"name":"Kuźnia Raciborska","ascii":"Kuznia Raciborska","lat":50.20058,"lon":18.31146,"population":5472},{"id":760727,"name":"Radymno","ascii":"Radymno","lat":49.9472,"lon":22.82375,"population":5464},{"id":772086,"name":"Głogów Małopolski","ascii":"Glogow Malopolski","lat":50.15122,"lon":21.96287,"population":5451},{"id":774393,"name":"Choroszcz","ascii":"Choroszcz","lat":53.14332,"lon":22.98889,"population":5449},{"id":3100971,"name":"Czerwonak","ascii":"Czerwonak","lat":52.46459,"lon":16.98169,"population":5432},{"id":3096444,"name":"Kąty Wrocławskie","ascii":"Katy Wroclawskie","lat":51.03098,"lon":16.76767,"population":5418},{"id":3085925,"name":"Siewierz","ascii":"Siewierz","lat":50.46657,"lon":19.23028,"population":5417},{"id":12047653,"name":"Osiedle Henrykowskie","ascii":"Osiedle Henrykowskie","lat":51.08999,"lon":17.05289,"population":5384},{"id":766369,"name":"Lesznowola","ascii":"Lesznowola","lat":52.09095,"lon":20.93479,"population":5374},{"id":12047637,"name":"Złotniki","ascii":"Zlotniki","lat":51.13769,"lon":16.88923,"population":5373},{"id":770045,"name":"Jeżowe","ascii":"Jezowe","lat":50.37486,"lon":22.12749,"population":5358},{"id":3102969,"name":"Bolków","ascii":"Bolkow","lat":50.92203,"lon":16.10111,"population":5304},{"id":774730,"name":"Bychawa","ascii":"Bychawa","lat":51.01608,"lon":22.53296,"population":5297},{"id":3089987,"name":"Ornontowice","ascii":"Ornontowice","lat":50.19377,"lon":18.75435,"population":5291},{"id":3098686,"name":"Gościcino","ascii":"Goscicino","lat":54.60459,"lon":18.15491,"population":5278},{"id":3084460,"name":"Stryszawa","ascii":"Stryszawa","lat":49.71327,"lon":19.52185,"population":5266},{"id":12047656,"name":"Psie Pole Południe-Kiełczów","ascii":"Psie Pole Poludnie-Kielczow","lat":51.14783,"lon":17.12744,"population":5263},{"id":3081158,"name":"Wyrzysk","ascii":"Wyrzysk","lat":53.153,"lon":17.26802,"population":5263},{"id":757452,"name":"Szczebrzeszyn","ascii":"Szczebrzeszyn","lat":50.69499,"lon":22.97954,"population":5255},{"id":3100489,"name":"Debrzno","ascii":"Debrzno","lat":53.53817,"lon":17.23643,"population":5251},{"id":3097328,"name":"Jaworzyna Śląska","ascii":"Jaworzyna Slaska","lat":50.9134,"lon":16.43241,"population":5242},{"id":3083749,"name":"Szczytna","ascii":"Szczytna","lat":50.41343,"lon":16.44743,"population":5234},{"id":760488,"name":"Reszel","ascii":"Reszel","lat":54.05042,"lon":21.14585,"population":5226},{"id":765328,"name":"Małkinia Górna","ascii":"Malkinia Gorna","lat":52.6922,"lon":22.02836,"population":5199},{"id":3097107,"name":"Jordanów","ascii":"Jordanow","lat":49.64935,"lon":19.82981,"population":5194},{"id":763260,"name":"Oleszyce","ascii":"Oleszyce","lat":50.1675,"lon":23.03481,"population":5193},{"id":3089642,"name":"Otmuchów","ascii":"Otmuchow","lat":50.46627,"lon":17.17348,"population":5181},{"id":3092276,"name":"Markłowice","ascii":"Marklowice","lat":50.01695,"lon":18.52098,"population":5173},{"id":753130,"name":"Żołynia","ascii":"Zolynia","lat":50.162,"lon":22.30825,"population":5145},{"id":3095396,"name":"Komorniki","ascii":"Komorniki","lat":52.3387,"lon":16.81063,"population":5144},{"id":3084449,"name":"Strzałkowo","ascii":"Strzalkowo","lat":52.30701,"lon":17.81811,"population":5140},{"id":768315,"name":"Komorów","ascii":"Komorow","lat":52.1456,"lon":20.81566,"population":5136},{"id":754195,"name":"Zagórz","ascii":"Zagorz","lat":49.51457,"lon":22.26706,"population":5129},{"id":770792,"name":"Iłża","ascii":"Ilza","lat":51.16313,"lon":21.23979,"population":5121},{"id":3090553,"name":"Nowogród Bobrzański","ascii":"Nowogrod Bobrzanski","lat":51.79856,"lon":15.2352,"population":5114},{"id":3097594,"name":"Janowiec Wielkopolski","ascii":"Janowiec Wielkopolski","lat":52.75583,"lon":17.48981,"population":5110},{"id":3091263,"name":"Mysłakowice","ascii":"Myslakowice","lat":50.84123,"lon":15.77894,"population":5100},{"id":3101053,"name":"Czempiń","ascii":"Czempin","lat":52.14404,"lon":16.76408,"population":5093},{"id":8426044,"name":"Strzyża","ascii":"Strzyza","lat":54.38648,"lon":18.58647,"population":5086},{"id":3080494,"name":"Zbąszynek","ascii":"Zbaszynek","lat":52.24315,"lon":15.81654,"population":5073},{"id":3103364,"name":"Bierutów","ascii":"Bierutow","lat":51.12443,"lon":17.54607,"population":5065},{"id":3097301,"name":"Jedlina-Zdrój","ascii":"Jedlina-Zdroj","lat":50.72005,"lon":16.34645,"population":5062},{"id":3080369,"name":"Zebrzydowice","ascii":"Zebrzydowice","lat":49.87793,"lon":18.61127,"population":5046},{"id":765804,"name":"Ludwin","ascii":"Ludwin","lat":51.34605,"lon":22.90581,"population":5041},{"id":3088977,"name":"Piotrków Kujawski","ascii":"Piotrkow Kujawski","lat":52.55111,"lon":18.49905,"population":5030},{"id":764241,"name":"Muszyna","ascii":"Muszyna","lat":49.35661,"lon":20.89718,"population":5018},{"id":3082192,"name":"Wieprz","ascii":"Wieprz","lat":49.89093,"lon":19.35688,"population":5002},{"id":3094525,"name":"Krzemieniewo","ascii":"Krzemieniewo","lat":51.85905,"lon":16.83354,"population":5000},{"id":3096576,"name":"Karpacz","ascii":"Karpacz","lat":50.77669,"lon":15.75594,"population":4979},{"id":770661,"name":"Jadowniki","ascii":"Jadowniki","lat":49.95884,"lon":20.64434,"population":4975},{"id":3090597,"name":"Nowe Skalmierzyce","ascii":"Nowe Skalmierzyce","lat":51.71038,"lon":17.99337,"population":4961},{"id":3090315,"name":"Odolanów","ascii":"Odolanow","lat":51.57419,"lon":17.67434,"population":4960},{"id":774207,"name":"Ciechanowiec","ascii":"Ciechanowiec","lat":52.67828,"lon":22.49815,"population":4946},{"id":3102378,"name":"Brzeziny Śląskie","ascii":"Brzeziny Slaskie","lat":50.35439,"lon":18.98129,"population":4901},{"id":771779,"name":"Górowo Iławeckie","ascii":"Gorowo Ilaweckie","lat":54.28559,"lon":20.48886,"population":4900},{"id":3089310,"name":"Pcim","ascii":"Pcim","lat":49.75166,"lon":19.97108,"population":4900},{"id":3097865,"name":"Istebna","ascii":"Istebna","lat":49.56319,"lon":18.90567,"population":4895},{"id":766757,"name":"Łaskarzew","ascii":"Laskarzew","lat":51.78993,"lon":21.59122,"population":4893},{"id":3099992,"name":"Duszniki-Zdrój","ascii":"Duszniki-Zdroj","lat":50.40327,"lon":16.39091,"population":4888},{"id":12047638,"name":"Sołtysowice","ascii":"Soltysowice","lat":51.15282,"lon":17.07103,"population":4879},{"id":3097472,"name":"Jasienica","ascii":"Jasienica","lat":49.81312,"lon":18.92155,"population":4872},{"id":3102162,"name":"Budzyń","ascii":"Budzyn","lat":52.88954,"lon":16.98812,"population":4861},{"id":12047614,"name":"Strachocin-Wojnów","ascii":"Strachocin-Wojnow","lat":51.10486,"lon":17.15073,"population":4861},{"id":3084195,"name":"Sułkowice","ascii":"Sulkowice","lat":49.81932,"lon":19.35988,"population":4835},{"id":3080590,"name":"Zator","ascii":"Zator","lat":49.99604,"lon":19.43799,"population":4779},{"id":3101117,"name":"Czarny Bór","ascii":"Czarny Bor","lat":50.77083,"lon":16.1305,"population":4769},{"id":3097823,"name":"Jabłonka","ascii":"Jablonka","lat":49.47968,"lon":19.6937,"population":4767},{"id":3087256,"name":"Rędziny","ascii":"Redziny","lat":50.85922,"lon":19.2162,"population":4753},{"id":3090099,"name":"Olszyna","ascii":"Olszyna","lat":51.0671,"lon":15.37228,"population":4739},{"id":770730,"name":"Jabłoń Dąbrowa","ascii":"Jablon Dabrowa","lat":52.91037,"lon":22.69665,"population":4736},{"id":3102488,"name":"Brusy","ascii":"Brusy","lat":53.88446,"lon":17.71786,"population":4728},{"id":760166,"name":"Ruciane-Nida","ascii":"Ruciane-Nida","lat":53.64161,"lon":21.53964,"population":4722},{"id":3096385,"name":"Kcynia","ascii":"Kcynia","lat":52.99192,"lon":17.4883,"population":4716},{"id":3095958,"name":"Kobiór","ascii":"Kobior","lat":50.06089,"lon":18.93468,"population":4702},{"id":753056,"name":"Żurawica","ascii":"Zurawica","lat":49.82348,"lon":22.78925,"population":4702},{"id":3102058,"name":"Bulowice","ascii":"Bulowice","lat":49.8765,"lon":19.28873,"population":4700},{"id":762774,"name":"Ożarów","ascii":"Ozarow","lat":50.88798,"lon":21.66658,"population":4689},{"id":3081060,"name":"Zabierzów","ascii":"Zabierzow","lat":50.11425,"lon":19.79788,"population":4689},{"id":760844,"name":"Raciąż","ascii":"Raciaz","lat":52.78152,"lon":20.1177,"population":4676},{"id":3088931,"name":"Pisarzowice","ascii":"Pisarzowice","lat":49.88363,"lon":19.14565,"population":4673},{"id":3093589,"name":"Leśna","ascii":"Lesna","lat":51.02431,"lon":15.26413,"population":4648},{"id":3094638,"name":"Krośniewice","ascii":"Krosniewice","lat":52.25592,"lon":19.17037,"population":4610},{"id":758887,"name":"Słopnice","ascii":"Slopnice","lat":49.68496,"lon":20.34325,"population":4601},{"id":3085565,"name":"Śliwice","ascii":"Sliwice","lat":53.70875,"lon":18.1737,"population":4600},{"id":776053,"name":"Biecz","ascii":"Biecz","lat":49.73596,"lon":21.26301,"population":4564},{"id":3087431,"name":"Radziechowy","ascii":"Radziechowy","lat":49.64651,"lon":19.13115,"population":4541},{"id":762203,"name":"Pilzno","ascii":"Pilzno","lat":49.97883,"lon":21.29228,"population":4535},{"id":757758,"name":"Supraśl","ascii":"Suprasl","lat":53.20526,"lon":23.33934,"population":4526},{"id":3102447,"name":"Brześć Kujawski","ascii":"Brzesc Kujawski","lat":52.60532,"lon":18.90173,"population":4522},{"id":768116,"name":"Korsze","ascii":"Korsze","lat":54.17002,"lon":21.13915,"population":4521},{"id":3100283,"name":"Dobrzeń Wielki","ascii":"Dobrzen Wielki","lat":50.76844,"lon":17.84652,"population":4500},{"id":772270,"name":"Gdów","ascii":"Gdow","lat":49.90818,"lon":20.19879,"population":4500},{"id":3095926,"name":"Kobylnica","ascii":"Kobylnica","lat":54.43975,"lon":16.99782,"population":4500},{"id":3080411,"name":"Zduny","ascii":"Zduny","lat":51.6458,"lon":17.37694,"population":4498},{"id":3084055,"name":"Świeradów-Zdrój","ascii":"Swieradow-Zdroj","lat":50.9092,"lon":15.34309,"population":4492},{"id":3081403,"name":"Wożniki","ascii":"Wozniki","lat":50.58934,"lon":19.05991,"population":4488},{"id":770008,"name":"Józefosław","ascii":"Jozefoslaw","lat":52.1005,"lon":21.04629,"population":4484},{"id":3091901,"name":"Mieroszów","ascii":"Mieroszow","lat":50.66589,"lon":16.18883,"population":4480},{"id":3094513,"name":"Krzepice","ascii":"Krzepice","lat":50.97059,"lon":18.72886,"population":4479},{"id":760516,"name":"Rejowiec Fabryczny","ascii":"Rejowiec Fabryczny","lat":51.11414,"lon":23.24724,"population":4474},{"id":3095110,"name":"Koszęcin","ascii":"Koszecin","lat":50.63411,"lon":18.8413,"population":4471},{"id":3090285,"name":"Ogrodzieniec","ascii":"Ogrodzieniec","lat":50.45177,"lon":19.51987,"population":4467},{"id":3094052,"name":"Łabiszyn","ascii":"Labiszyn","lat":52.9521,"lon":17.91971,"population":4454},{"id":3093433,"name":"Ligota","ascii":"Ligota","lat":49.89856,"lon":18.9509,"population":4454},{"id":3091743,"name":"Milówka","ascii":"Milowka","lat":49.5554,"lon":19.09072,"population":4448},{"id":3096852,"name":"Kalwaria Zebrzydowska","ascii":"Kalwaria Zebrzydowska","lat":49.86759,"lon":19.6772,"population":4429},{"id":12047613,"name":"Rejon alei Kromera","ascii":"Rejon alei Kromera","lat":51.13375,"lon":17.07107,"population":4421},{"id":3088281,"name":"Poraj","ascii":"Poraj","lat":50.67797,"lon":19.21509,"population":4418},{"id":3103656,"name":"Bestwina","ascii":"Bestwina","lat":49.89712,"lon":19.05776,"population":4409},{"id":3101947,"name":"Bytom Odrzański","ascii":"Bytom Odrzanski","lat":51.73062,"lon":15.82362,"population":4408},{"id":3090470,"name":"Nowy Staw","ascii":"Nowy Staw","lat":54.13609,"lon":19.00909,"population":4403},{"id":3097480,"name":"Jasień","ascii":"Jasien","lat":51.75142,"lon":15.01419,"population":4398},{"id":3098949,"name":"Golina","ascii":"Golina","lat":52.24315,"lon":18.09268,"population":4387},{"id":3101415,"name":"Cięcina","ascii":"Ciecina","lat":49.6022,"lon":19.14102,"population":4373},{"id":3084258,"name":"Suchy Las","ascii":"Suchy Las","lat":52.47308,"lon":16.87745,"population":4367},{"id":3103179,"name":"Bobolice","ascii":"Bobolice","lat":53.95508,"lon":16.58893,"population":4365},{"id":3080533,"name":"Zawidów","ascii":"Zawidow","lat":51.02546,"lon":15.06213,"population":4364},{"id":3080674,"name":"Żarki","ascii":"Zarki","lat":50.62518,"lon":19.36357,"population":4363},{"id":3093263,"name":"Lipowa","ascii":"Lipowa","lat":49.67574,"lon":19.09398,"population":4357},{"id":3087195,"name":"Resko","ascii":"Resko","lat":53.77307,"lon":15.40607,"population":4354},{"id":3084213,"name":"Borne Sulinowo","ascii":"Borne Sulinowo","lat":53.57661,"lon":16.53395,"population":4349},{"id":3091351,"name":"Mrocza","ascii":"Mrocza","lat":53.24313,"lon":17.60405,"population":4347},{"id":758905,"name":"Słomniki","ascii":"Slomniki","lat":50.24012,"lon":20.08224,"population":4340},{"id":3089048,"name":"Pietrzykowice","ascii":"Pietrzykowice","lat":49.69634,"lon":19.1599,"population":4339},{"id":770918,"name":"Humniska","ascii":"Humniska","lat":49.67507,"lon":22.05368,"population":4300},{"id":3083015,"name":"Tułowice","ascii":"Tulowice","lat":50.59577,"lon":17.65323,"population":4290},{"id":3096400,"name":"Kazimierz Biskupi","ascii":"Kazimierz Biskupi","lat":52.311,"lon":18.16581,"population":4280},{"id":762223,"name":"Pilawa","ascii":"Pilawa","lat":51.95945,"lon":21.53089,"population":4278},{"id":3086106,"name":"Siechnice","ascii":"Siechnice","lat":51.03384,"lon":17.14743,"population":4264},{"id":3099352,"name":"Gilowice","ascii":"Gilowice","lat":49.71277,"lon":19.31045,"population":4259},{"id":3083880,"name":"Szamocin","ascii":"Szamocin","lat":53.02795,"lon":17.12653,"population":4258},{"id":774572,"name":"Chęciny","ascii":"Checiny","lat":50.80021,"lon":20.46229,"population":4252},{"id":754329,"name":"Żabno","ascii":"Zabno","lat":50.13334,"lon":20.88615,"population":4250},{"id":3085980,"name":"Siepraw","ascii":"Siepraw","lat":49.91437,"lon":19.95864,"population":4237},{"id":3083442,"name":"Tarnowo Podgórne","ascii":"Tarnowo Podgorne","lat":52.46642,"lon":16.66326,"population":4235},{"id":3082510,"name":"Węgierska Górka","ascii":"Wegierska Gorka","lat":49.60776,"lon":19.11638,"population":4233},{"id":8426030,"name":"Aniołki","ascii":"Aniolki","lat":54.35929,"lon":18.63337,"population":4223},{"id":3096160,"name":"Kleczew","ascii":"Kleczew","lat":52.37057,"lon":18.17714,"population":4217},{"id":769835,"name":"Kadzidło","ascii":"Kadzidlo","lat":53.23435,"lon":21.46454,"population":4210},{"id":776080,"name":"Biały Dunajec","ascii":"Bialy Dunajec","lat":49.3738,"lon":20.00898,"population":4200},{"id":3096795,"name":"Kamieniec Ząbkowicki","ascii":"Kamieniec Zabkowicki","lat":50.52541,"lon":16.87921,"population":4200},{"id":764145,"name":"Nałęczów","ascii":"Naleczow","lat":51.28581,"lon":22.21539,"population":4200},{"id":3084178,"name":"Sułoszowa","ascii":"Suloszowa","lat":50.26789,"lon":19.73282,"population":4200},{"id":3100976,"name":"Czerwieńsk","ascii":"Czerwiensk","lat":52.01289,"lon":15.42317,"population":4197},{"id":3084142,"name":"Suszec","ascii":"Suszec","lat":50.02958,"lon":18.7916,"population":4183},{"id":3104002,"name":"Babimost","ascii":"Babimost","lat":52.16488,"lon":15.82769,"population":4182},{"id":3093367,"name":"Lipa Piotrowska","ascii":"Lipa Piotrowska","lat":51.17423,"lon":16.99402,"population":4170},{"id":757388,"name":"Szczucin","ascii":"Szczucin","lat":50.30957,"lon":21.07444,"population":4166},{"id":3093350,"name":"Lipiany","ascii":"Lipiany","lat":53.00336,"lon":14.96919,"population":4159},{"id":3091686,"name":"Mirsk","ascii":"Mirsk","lat":50.97054,"lon":15.38567,"population":4150},{"id":3098030,"name":"Hel","ascii":"Hel","lat":54.60384,"lon":18.80351,"population":4136},{"id":759151,"name":"Skaryszew","ascii":"Skaryszew","lat":51.31075,"lon":21.25233,"population":4135},{"id":3087613,"name":"Raba Wyżna","ascii":"Raba Wyzna","lat":49.56681,"lon":19.87967,"population":4116},{"id":3096873,"name":"Kalisz Pomorski","ascii":"Kalisz Pomorski","lat":53.29908,"lon":15.90631,"population":4110},{"id":3102252,"name":"Buczkowice","ascii":"Buczkowice","lat":49.72858,"lon":19.06908,"population":4102},{"id":770036,"name":"Jodłowa","ascii":"Jodlowa","lat":49.87229,"lon":21.27897,"population":4100},{"id":3093282,"name":"Lipnica Wielka","ascii":"Lipnica Wielka","lat":49.47404,"lon":19.63883,"population":4100},{"id":765188,"name":"Markowa","ascii":"Markowa","lat":50.02633,"lon":22.3316,"population":4100},{"id":759915,"name":"Rybie","ascii":"Rybie","lat":52.15229,"lon":20.93655,"population":4100},{"id":3097241,"name":"Jeleśnia","ascii":"Jelesnia","lat":49.64246,"lon":19.32701,"population":4098},{"id":772248,"name":"Giedlarowa","ascii":"Giedlarowa","lat":50.22689,"lon":22.40593,"population":4096},{"id":3088788,"name":"Płoty","ascii":"Ploty","lat":53.80182,"lon":15.2667,"population":4093},{"id":753394,"name":"Żelechów","ascii":"Zelechow","lat":51.81051,"lon":21.89721,"population":4087},{"id":3094953,"name":"Kowalewo Pomorskie","ascii":"Kowalewo Pomorskie","lat":53.15432,"lon":18.89868,"population":4081},{"id":3094690,"name":"Krobia","ascii":"Krobia","lat":51.77405,"lon":16.98237,"population":4060},{"id":8425991,"name":"Zacisze-Zalesie-Szczytniki","ascii":"Zacisze-Zalesie-Szczytniki","lat":51.11439,"lon":17.07409,"population":4059},{"id":3099619,"name":"Gąbin","ascii":"Gabin","lat":52.39849,"lon":19.73509,"population":4056},{"id":3087708,"name":"Pszczółki","ascii":"Pszczolki","lat":54.17304,"lon":18.69787,"population":4053},{"id":3098959,"name":"Goleszów","ascii":"Goleszow","lat":49.7358,"lon":18.73675,"population":4045},{"id":3085637,"name":"Sława","ascii":"Slawa","lat":51.87623,"lon":16.07205,"population":4038},{"id":3090551,"name":"Nowogrodziec","ascii":"Nowogrodziec","lat":51.19543,"lon":15.39854,"population":4031},{"id":776178,"name":"Biała Piska","ascii":"Biala Piska","lat":53.61191,"lon":22.06321,"population":4027},{"id":759470,"name":"Serock","ascii":"Serock","lat":52.51036,"lon":21.0691,"population":4023},{"id":3100342,"name":"Dobrodzień","ascii":"Dobrodzien","lat":50.72874,"lon":18.44501,"population":4014},{"id":774641,"name":"Celestynów","ascii":"Celestynow","lat":52.06093,"lon":21.39107,"population":4007},{"id":776440,"name":"Baniocha","ascii":"Baniocha","lat":52.01653,"lon":21.13984,"population":4000},{"id":774058,"name":"Cmolas","ascii":"Cmolas","lat":50.29526,"lon":21.74417,"population":4000},{"id":3089891,"name":"Osiek nad Notecią","ascii":"Osiek nad Notecia","lat":53.1203,"lon":17.29102,"population":4000},{"id":3088866,"name":"Płaza","ascii":"Plaza","lat":50.09988,"lon":19.46451,"population":4000},{"id":3088011,"name":"Przeciszów","ascii":"Przeciszow","lat":50.00647,"lon":19.37576,"population":3996},{"id":12047611,"name":"Widawa-Lipa Piotrowska-Polanowice","ascii":"Widawa-Lipa Piotrowska-Polanowice","lat":51.17093,"lon":17.02164,"population":3982},{"id":755855,"name":"Wielopole Skrzyńskie","ascii":"Wielopole Skrzynskie","lat":49.94564,"lon":21.61491,"population":3982},{"id":758633,"name":"Sokołów Małopolski","ascii":"Sokolow Malopolski","lat":50.22909,"lon":22.11968,"population":3975},{"id":3085781,"name":"Skoki","ascii":"Skoki","lat":52.67222,"lon":17.16107,"population":3972},{"id":3081839,"name":"Witaszyce","ascii":"Witaszyce","lat":51.94151,"lon":17.56182,"population":3967},{"id":3080270,"name":"Żerniki","ascii":"Zerniki","lat":51.12342,"lon":16.92016,"population":3961},{"id":760347,"name":"Ropa","ascii":"Ropa","lat":49.59146,"lon":21.04431,"population":3959},{"id":772915,"name":"Drzewica","ascii":"Drzewica","lat":51.45085,"lon":20.47701,"population":3958},{"id":755810,"name":"Wierzbica","ascii":"Wierzbica","lat":51.2494,"lon":21.08259,"population":3956},{"id":761028,"name":"Przysietnica","ascii":"Przysietnica","lat":49.73019,"lon":22.05257,"population":3953},{"id":3084444,"name":"Strzebiń","ascii":"Strzebin","lat":50.61647,"lon":18.89794,"population":3951},{"id":3081653,"name":"Wojcieszów","ascii":"Wojcieszow","lat":50.95194,"lon":15.92185,"population":3933},{"id":3089881,"name":"Osielsko","ascii":"Osielsko","lat":53.18505,"lon":18.08418,"population":3930},{"id":774504,"name":"Chmielnik","ascii":"Chmielnik","lat":50.6144,"lon":20.75206,"population":3926},{"id":3097421,"name":"Jastarnia","ascii":"Jastarnia","lat":54.6983,"lon":18.6773,"population":3925},{"id":3084029,"name":"Świerklany Górne","ascii":"Swierklany Gorne","lat":50.02765,"lon":18.5905,"population":3912},{"id":757071,"name":"Tarczyn","ascii":"Tarczyn","lat":51.98197,"lon":20.83394,"population":3904},{"id":770833,"name":"Hyżne","ascii":"Hyzne","lat":49.91769,"lon":22.18131,"population":3900},{"id":3095140,"name":"Kościelisko","ascii":"Koscielisko","lat":49.29073,"lon":19.88929,"population":3900},{"id":764000,"name":"Niedrzwica Duża","ascii":"Niedrzwica Duza","lat":51.11462,"lon":22.38911,"population":3900},{"id":3085069,"name":"Spytkowice","ascii":"Spytkowice","lat":49.99671,"lon":19.51103,"population":3898},{"id":3097651,"name":"Jankowice Rybnickie","ascii":"Jankowice Rybnickie","lat":50.04479,"lon":18.54707,"population":3895},{"id":3097896,"name":"Iłowa","ascii":"Ilowa","lat":51.5006,"lon":15.1998,"population":3892},{"id":765313,"name":"Małogoszcz","ascii":"Malogoszcz","lat":50.81214,"lon":20.26407,"population":3890},{"id":3101987,"name":"Bystra","ascii":"Bystra","lat":49.76042,"lon":19.05973,"population":3887},{"id":3089298,"name":"Pęczniew","ascii":"Peczniew","lat":51.80384,"lon":18.72311,"population":3871},{"id":3082838,"name":"Ujście","ascii":"Ujscie","lat":53.05339,"lon":16.73201,"population":3869},{"id":775423,"name":"Borzęcin","ascii":"Borzecin","lat":50.0654,"lon":20.71103,"population":3865},{"id":3083492,"name":"Targanice","ascii":"Targanice","lat":49.80575,"lon":19.32444,"population":3860},{"id":763659,"name":"Nowe Miasto nad Pilicą","ascii":"Nowe Miasto nad Pilica","lat":51.61812,"lon":20.57619,"population":3856},{"id":3088290,"name":"Porąbka","ascii":"Porabka","lat":49.81716,"lon":19.21835,"population":3852},{"id":764777,"name":"Mikołajki","ascii":"Mikolajki","lat":53.80288,"lon":21.57011,"population":3851},{"id":761878,"name":"Podkowa Leśna","ascii":"Podkowa Lesna","lat":52.12237,"lon":20.72665,"population":3844},{"id":3083814,"name":"Szczekociny","nameKo":"슈체코치니","ascii":"Szczekociny","lat":50.62669,"lon":19.825,"population":3841},{"id":3090245,"name":"Okonek","ascii":"Okonek","lat":53.53618,"lon":16.85158,"population":3833},{"id":3091154,"name":"Nakło","ascii":"Naklo","lat":50.4369,"lon":18.91056,"population":3824},{"id":775359,"name":"Brańsk","ascii":"Bransk","lat":52.7444,"lon":22.83774,"population":3822},{"id":8426047,"name":"VII Dwór","ascii":"VII Dwor","lat":54.39299,"lon":18.57428,"population":3808},{"id":3090066,"name":"Opatówek","ascii":"Opatowek","lat":51.73989,"lon":18.21653,"population":3800},{"id":3088493,"name":"Polanka Wielka","ascii":"Polanka Wielka","lat":49.98501,"lon":19.32615,"population":3800},{"id":3083441,"name":"Tarnów Opolski","ascii":"Tarnow Opolski","lat":50.57631,"lon":18.08367,"population":3800},{"id":755090,"name":"Wola Żarczycka","ascii":"Wola Zarczycka","lat":50.2912,"lon":22.25023,"population":3793},{"id":3080675,"name":"Żarki","ascii":"Zarki","lat":50.08259,"lon":19.35199,"population":3793},{"id":3084033,"name":"Świerklaniec","ascii":"Swierklaniec","lat":50.44237,"lon":18.93734,"population":3786},{"id":3092867,"name":"Lubomia","ascii":"Lubomia","lat":50.03972,"lon":18.3082,"population":3779},{"id":3101467,"name":"Chybie","ascii":"Chybie","lat":49.90249,"lon":18.82756,"population":3775},{"id":3104116,"name":"Andrespol","ascii":"Andrespol","lat":51.72783,"lon":19.64175,"population":3773},{"id":3087994,"name":"Przedbórz","ascii":"Przedborz","lat":51.08789,"lon":19.87384,"population":3765},{"id":3103780,"name":"Barwice","ascii":"Barwice","lat":53.7449,"lon":16.3553,"population":3756},{"id":3096353,"name":"Kępice","ascii":"Kepice","lat":54.24111,"lon":16.88968,"population":3756},{"id":3097272,"name":"Jejkowice","ascii":"Jejkowice","lat":50.10814,"lon":18.46767,"population":3753},{"id":3099371,"name":"Gierałtowice","ascii":"Gieraltowice","lat":50.22486,"lon":18.73384,"population":3752},{"id":3093749,"name":"Łeba","ascii":"Leba","lat":54.76099,"lon":17.55547,"population":3744},{"id":3088096,"name":"Prochowice","ascii":"Prochowice","lat":51.27307,"lon":16.36532,"population":3743},{"id":3089832,"name":"Ośno Lubuskie","ascii":"Osno Lubuskie","lat":52.4536,"lon":14.87549,"population":3730},{"id":3087144,"name":"Roczyny","ascii":"Roczyny","lat":49.8537,"lon":19.31568,"population":3728},{"id":776214,"name":"Besko","ascii":"Besko","lat":49.58757,"lon":21.95292,"population":3700},{"id":773808,"name":"Czemierniki","ascii":"Czemierniki","lat":51.67298,"lon":22.63887,"population":3700},{"id":3097043,"name":"Jugów","ascii":"Jugow","lat":50.62758,"lon":16.51812,"population":3700},{"id":3096292,"name":"Kiełczów","ascii":"Kielczow","lat":51.13999,"lon":17.17798,"population":3700},{"id":767479,"name":"Krościenko Wyżne","ascii":"Kroscienko Wyzne","lat":49.67946,"lon":21.82898,"population":3700},{"id":760804,"name":"Radgoszcz","ascii":"Radgoszcz","lat":50.2058,"lon":21.11315,"population":3700},{"id":759815,"name":"Rytro","ascii":"Rytro","lat":49.48904,"lon":20.66631,"population":3700},{"id":761255,"name":"Pruchnik","ascii":"Pruchnik","lat":49.9062,"lon":22.51554,"population":3694},{"id":770162,"name":"Jedlnia-Letnisko","ascii":"Jedlnia-Letnisko","lat":51.43074,"lon":21.33536,"population":3692},{"id":3102019,"name":"Byczyna","ascii":"Byczyna","lat":51.11387,"lon":18.21413,"population":3665},{"id":3097808,"name":"Jabłonowo Pomorskie","ascii":"Jablonowo Pomorskie","lat":53.39137,"lon":19.15509,"population":3658},