[{"id":7303419,"name":"East Jerusalem","nameKo":"동예루살렘","ascii":"East Jerusalem","lat":31.78336,"lon":35.23388,"population":428304},{"id":281133,"name":"Gaza","nameKo":"가자","ascii":"Gaza","lat":31.50161,"lon":34.46672,"population":410000},{"id":281124,"name":"Khān Yūnis","ascii":"Khan Yunis","lat":31.34018,"lon":34.30627,"population":173183},{"id":281129,"name":"Jabālyā","ascii":"Jabalya","lat":31.5272,"lon":34.48347,"population":168568},{"id":285066,"name":"Hebron","nameKo":"헤브론","ascii":"Hebron","lat":31.52935,"lon":35.0938,"population":160470},{"id":282615,"name":"Nablus","nameKo":"나블루스","ascii":"Nablus","lat":32.22111,"lon":35.25444,"population":130326},{"id":281102,"name":"Rafaḩ","ascii":"Rafah","lat":31.29722,"lon":34.24357,"population":126305},{"id":281141,"name":"Dayr al Balaḩ","ascii":"Dayr al Balah","lat":31.41834,"lon":34.34933,"population":59504},{"id":281145,"name":"Bayt Lāhyā","ascii":"Bayt Lahya","lat":31.5464,"lon":34.49514,"population":56919},{"id":284375,"name":"Battir","ascii":"Battir","lat":31.7,"lon":35.11667,"population":56746},{"id":281577,"name":"Ţūlkarm","nameKo":"툴카름","ascii":"Tulkarm","lat":32.31156,"lon":35.0269,"population":44169},{"id":282239,"name":"Ramallah","nameKo":"라말라","ascii":"Ramallah","lat":31.89964,"lon":35.20422,"population":43880},{"id":282457,"name":"Qalqīlyah","ascii":"Qalqilyah","lat":32.18966,"lon":34.97063,"population":43212},{"id":281292,"name":"Yaţţā","ascii":"Yatta","lat":31.4459,"lon":35.09443,"population":41425},{"id":282993,"name":"Ma‘ale Adummim","ascii":"Ma'ale Adummim","lat":31.7774,"lon":35.29875,"population":38193},{"id":285108,"name":"Al Bīrah","ascii":"Al Birah","lat":31.91001,"lon":35.21645,"population":38192},{"id":281146,"name":"Bayt Ḩānūn","ascii":"Bayt Hanun","lat":31.5353,"lon":34.53579,"population":37392},{"id":281109,"name":"An Nuşayrāt","ascii":"An Nusayrat","lat":31.44861,"lon":34.3925,"population":36123},{"id":6945291,"name":"Old City","ascii":"Old City","lat":31.77667,"lon":35.23417,"population":36000},{"id":281161,"name":"Al Burayj","ascii":"Al Burayj","lat":31.43944,"lon":34.40306,"population":34951},{"id":283506,"name":"Janīn","ascii":"Janin","lat":32.45943,"lon":35.30086,"population":34730},{"id":281148,"name":"Banī Suhaylā","ascii":"Bani Suhayla","lat":31.34337,"lon":34.32337,"population":31272},{"id":284315,"name":"Bethlehem","nameKo":"베들레헴","ascii":"Bethlehem","lat":31.70487,"lon":35.20376,"population":29019},{"id":284486,"name":"Az̧ Z̧āhirīyah","ascii":"Az Zahiriyah","lat":31.40967,"lon":34.97329,"population":27616},{"id":284335,"name":"Bayt Ḩanīnā","ascii":"Bayt Hanina","lat":31.82999,"lon":35.22539,"population":27000},{"id":284572,"name":"‘Aţārūt","ascii":"'Atarut","lat":31.86667,"lon":35.21667,"population":25595},{"id":281715,"name":"Surif City","ascii":"Surif City","lat":31.65078,"lon":35.06439,"population":25242},{"id":284890,"name":"Ar Rām wa Ḑāḩiyat al Barīd","ascii":"Ar Ram wa Dahiyat al Barid","lat":31.84945,"lon":35.2342,"population":24838},{"id":283806,"name":"Ḩalḩūl","ascii":"Halhul","lat":31.58029,"lon":35.10178,"population":21076},{"id":284011,"name":"Dūrā","ascii":"Dura","lat":31.50777,"lon":35.02929,"population":20835},{"id":284431,"name":"Banī Na‘īm","ascii":"Bani Na'im","lat":31.51591,"lon":35.16416,"population":19783},{"id":284899,"name":"Jericho","nameKo":"예리코","ascii":"Jericho","lat":31.86667,"lon":35.45,"population":19783},{"id":6967865,"name":"Al Qarārah","ascii":"Al Qararah","lat":31.37389,"lon":34.34085,"population":19500},{"id":284583,"name":"As Samū‘","ascii":"As Samu'","lat":31.39671,"lon":35.06611,"population":19355},{"id":282476,"name":"Qabāţīyah","ascii":"Qabatiyah","lat":32.41035,"lon":35.28087,"population":19127},{"id":283621,"name":"Idhnā","ascii":"Idhna","lat":31.55874,"lon":34.97436,"population":18727},{"id":281165,"name":"‘Abasān al Kabīrah","ascii":"'Abasan al Kabirah","lat":31.31913,"lon":34.34005,"population":18163},{"id":281793,"name":"Sa‘īr","ascii":"Sa'ir","lat":31.57855,"lon":35.14017,"population":17775},{"id":285111,"name":"Al ‘Ayzarīyah","ascii":"Al 'Ayzariyah","lat":31.77078,"lon":35.26917,"population":17455},{"id":284446,"name":"Balāţah","ascii":"Balatah","lat":32.21207,"lon":35.28561,"population":17146},{"id":6967990,"name":"Az Zuwāydah","ascii":"Az Zuwaydah","lat":31.43954,"lon":34.38053,"population":16688},{"id":284324,"name":"Bayt Jālā","ascii":"Bayt Jala","lat":31.71545,"lon":35.18788,"population":16183},{"id":284999,"name":"Al Yāmūn","ascii":"Al Yamun","lat":32.48563,"lon":35.23011,"population":16164},{"id":281581,"name":"Ţūbās","ascii":"Tubas","lat":32.32091,"lon":35.36989,"population":15591},{"id":7870523,"name":"Shokat as-Sufi","ascii":"Shokat as-Sufi","lat":31.25864,"lon":34.28244,"population":15000},{"id":284304,"name":"Bayt Sāḩūr","ascii":"Bayt Sahur","lat":31.70095,"lon":35.22631,"population":14921},{"id":281637,"name":"Tarqūmyā","ascii":"Tarqumya","lat":31.57551,"lon":35.01223,"population":14202},{"id":281318,"name":"Ya‘bad","ascii":"Ya'bad","lat":32.44566,"lon":35.16822,"population":13477},{"id":7890300,"name":"Wādī al Jawz","ascii":"Wadi al Jawz","lat":31.78991,"lon":35.23664,"population":13000},{"id":284294,"name":"Baytūnyā","ascii":"Baytunya","lat":31.8966,"lon":35.17048,"population":12822},{"id":284329,"name":"Bayt Ūmmar","ascii":"Bayt Ummar","lat":31.62329,"lon":35.10446,"population":12238},{"id":284973,"name":"‘Anātā","ascii":"'Anata","lat":31.80924,"lon":35.25902,"population":11946},{"id":8199386,"name":"Givat Zeev","ascii":"Givat Zeev","lat":31.86145,"lon":35.16861,"population":11764},{"id":285279,"name":"Abū Dīs","ascii":"Abu Dis","lat":31.76215,"lon":35.26166,"population":11753},{"id":282039,"name":"Salfīt","ascii":"Salfit","lat":32.08371,"lon":35.18079,"population":11000},{"id":7890350,"name":"Al ‘Ubaydīyah","ascii":"Al 'Ubaydiyah","lat":31.71697,"lon":35.29007,"population":10618},{"id":284341,"name":"Bayt Fajjār","ascii":"Bayt Fajjar","lat":31.62443,"lon":35.15457,"population":10579},{"id":281093,"name":"Shūkat aş Şūfī","ascii":"Shukat as Sufi","lat":31.25997,"lon":34.2826,"population":10566},{"id":281657,"name":"Ţammūn","ascii":"Tammun","lat":32.28347,"lon":35.38367,"population":10119},{"id":284339,"name":"Bayt Fūrīk","ascii":"Bayt Furik","lat":32.17689,"lon":35.33541,"population":10108},{"id":284557,"name":"‘Attīl","ascii":"'Attil","lat":32.36935,"lon":35.07189,"population":10100},{"id":283991,"name":"Efrata","ascii":"Efrata","lat":31.65305,"lon":35.15013,"population":10088},{"id":284893,"name":"‘Arrābah","ascii":"'Arrabah","lat":32.40517,"lon":35.20189,"population":9703},{"id":7890368,"name":"Ad Dawḩah","ascii":"Ad Dawhah","lat":31.69948,"lon":35.18047,"population":9631},{"id":281791,"name":"Sīlat al Ḩārithīyah","ascii":"Silat al Harithiyah","lat":32.50847,"lon":35.22752,"population":9557},{"id":281690,"name":"Taffūḩ","ascii":"Taffuh","lat":31.53855,"lon":35.04966,"population":9480},{"id":284100,"name":"Dayr al Ghuşūn","ascii":"Dayr al Ghusun","lat":32.35244,"lon":35.07689,"population":9187},{"id":284347,"name":"Bayt Ūlā","ascii":"Bayt Ula","lat":31.59618,"lon":35.0296,"population":9159},{"id":281119,"name":"Khuzā‘ah","ascii":"Khuza'ah","lat":31.30675,"lon":34.3611,"population":9023},{"id":285061,"name":"Al Khaḑir","ascii":"Al Khadir","lat":31.69405,"lon":35.16685,"population":9003},{"id":8199420,"name":"Oranit","ascii":"Oranit","lat":32.13165,"lon":34.99094,"population":8955},{"id":284362,"name":"Baytā al Fawqā","ascii":"Bayta al Fawqa","lat":32.1426,"lon":35.28774,"population":8535},{"id":282463,"name":"Qaffīn","ascii":"Qaffin","lat":32.43274,"lon":35.08266,"population":8489},{"id":283570,"name":"Jaba‘","ascii":"Jaba'","lat":32.32409,"lon":35.22133,"population":8391},{"id":283046,"name":"Kokhav Ya‘aqov","ascii":"Kokhav Ya'aqov","lat":31.88102,"lon":35.24384,"population":8194},{"id":284046,"name":"Dhannābah","ascii":"Dhannabah","lat":32.31341,"lon":35.04144,"population":8193},{"id":284597,"name":"Ash Shuyūkh","ascii":"Ash Shuyukh","lat":31.57004,"lon":35.15606,"population":8151},{"id":284271,"name":"Bidyā","ascii":"Bidya","lat":32.1146,"lon":35.08028,"population":8065},{"id":285101,"name":"Alfei Menasheh","ascii":"Alfei Menasheh","lat":32.17265,"lon":35.01179,"population":8000},{"id":283129,"name":"Bayt ‘Awwā","ascii":"Bayt 'Awwa","lat":31.50911,"lon":34.94938,"population":7943},{"id":284312,"name":"Bayt Liqyā","ascii":"Bayt Liqya","lat":31.86958,"lon":35.0654,"population":7795},{"id":284480,"name":"‘Azzūn","ascii":"'Azzun","lat":32.17496,"lon":35.05752,"population":7727},{"id":282431,"name":"Qarne Shomeron","ascii":"Qarne Shomeron","lat":32.16667,"lon":35.08333,"population":7713},{"id":284922,"name":"‘Aqrabā","ascii":"'Aqraba","lat":32.12495,"lon":35.34547,"population":7707},{"id":284593,"name":"‘Aşīrah ash Shamālīyah","ascii":"'Asirah ash Shamaliyah","lat":32.25124,"lon":35.26716,"population":7475},{"id":283361,"name":"Kafr Rā‘ī","ascii":"Kafr Ra'i","lat":32.37398,"lon":35.15451,"population":7276},{"id":282376,"name":"Qaţanah","ascii":"Qatanah","lat":31.83366,"lon":35.11894,"population":7274},{"id":284976,"name":"‘Anabtā","ascii":"'Anabta","lat":32.30792,"lon":35.11693,"population":7106},{"id":282477,"name":"Qabalān","ascii":"Qabalan","lat":32.10182,"lon":35.28938,"population":7043},{"id":281789,"name":"Silwād","ascii":"Silwad","lat":31.97625,"lon":35.2613,"population":7006},{"id":283246,"name":"Khārās","ascii":"Kharas","lat":31.6148,"lon":35.04174,"population":6885},{"id":282793,"name":"Maythalūn","ascii":"Maythalun","lat":32.34798,"lon":35.27446,"population":6804},{"id":284078,"name":"Dayr Dibwān","ascii":"Dayr Dibwan","lat":31.91112,"lon":35.26661,"population":6692},{"id":283612,"name":"‘Illār","ascii":"'Illar","lat":32.37024,"lon":35.10708,"population":6681},{"id":284461,"name":"Bal‘ā","ascii":"Bal'a","lat":32.33392,"lon":35.1116,"population":6545},{"id":6968063,"name":"Al Mughrāqah","ascii":"Al Mughraqah","lat":31.46587,"lon":34.41208,"population":6448},{"id":284237,"name":"Bīr Zayt","ascii":"Bir Zayt","lat":31.96959,"lon":35.19408,"population":6398},{"id":282593,"name":"Naḩḩālīn","ascii":"Nahhalin","lat":31.68559,"lon":35.12081,"population":6215},{"id":6967857,"name":"An Naşr","ascii":"An Nasr","lat":31.28137,"lon":34.30253,"population":6211},{"id":281240,"name":"Za‘tarah","ascii":"Za'tarah","lat":31.67361,"lon":35.25662,"population":6210},{"id":284270,"name":"Biddū","ascii":"Biddu","lat":31.83478,"lon":35.14947,"population":6180},{"id":283521,"name":"Jammā‘īn","ascii":"Jamma'in","lat":32.13164,"lon":35.20403,"population":6158},{"id":7890847,"name":"Dayr Sāmit","ascii":"Dayr Samit","lat":31.52057,"lon":34.97442,"population":6144},{"id":285034,"name":"Az Zaytūnīyah","ascii":"Az Zaytuniyah","lat":31.95403,"lon":35.1624,"population":6107},{"id":281790,"name":"Sīlat az̧ Z̧ahr","ascii":"Silat az Zahr","lat":32.31934,"lon":35.18418,"population":6079},{"id":12156437,"name":"Beit El","ascii":"Beit El","lat":31.94153,"lon":35.22241,"population":6042},{"id":6967863,"name":"‘Abasān al Jadīdah","ascii":"'Abasan al Jadidah","lat":31.34158,"lon":34.34592,"population":5984},{"id":283843,"name":"Ḩablah","ascii":"Hablah","lat":32.16523,"lon":34.97748,"population":5945},{"id":283676,"name":"Ḩizmā","ascii":"Hizma","lat":31.83337,"lon":35.26315,"population":5916},{"id":284313,"name":"Bayt Līd","ascii":"Bayt Lid","lat":32.26089,"lon":35.13169,"population":5740},{"id":284194,"name":"Birqīn","ascii":"Birqin","lat":32.45461,"lon":35.26076,"population":5730},{"id":284320,"name":"Bayt Kāḩil","ascii":"Bayt Kahil","lat":31.57011,"lon":35.06502,"population":5663},{"id":283636,"name":"Ḩuwwārah","ascii":"Huwwarah","lat":32.15224,"lon":35.25673,"population":5633},{"id":7870319,"name":"Huwara","ascii":"Huwara","lat":32.15242,"lon":35.25659,"population":5570},{"id":284547,"name":"‘Awartā","ascii":"'Awarta","lat":32.16108,"lon":35.28388,"population":5563},{"id":283643,"name":"Ḩūsān","ascii":"Husan","lat":31.70931,"lon":35.13475,"population":5535},{"id":11979646,"name":"Geva Binyamin","ascii":"Geva Binyamin","lat":31.85031,"lon":35.27405,"population":5525},{"id":284105,"name":"Dayr Abū Ḑa‘īf","ascii":"Dayr Abu Da'if","lat":32.45601,"lon":35.36164,"population":5506},{"id":281160,"name":"Al Fukhkhārī","ascii":"Al Fukhkhari","lat":31.29278,"lon":34.33061,"population":5464},{"id":7889665,"name":"Banī Zayd","ascii":"Bani Zayd","lat":32.03924,"lon":35.10316,"population":5441},{"id":281778,"name":"Sinjil","ascii":"Sinjil","lat":32.03334,"lon":35.26545,"population":5371},{"id":283133,"name":"Jannātah","ascii":"Jannatah","lat":31.66959,"lon":35.21961,"population":5348},{"id":283157,"name":"Kharbathā al Mişbāḩ","ascii":"Kharbatha al Misbah","lat":31.88546,"lon":35.07185,"population":5141},{"id":284279,"name":"Bet Arye","ascii":"Bet Arye","lat":32.03333,"lon":35.05,"population":5139},{"id":282783,"name":"Banī Zayd ash Shārqīyah","ascii":"Bani Zayd ash Sharqiyah","lat":32.04935,"lon":35.16593,"population":5015},{"id":285127,"name":"‘Ajjah","ascii":"'Ajjah","lat":32.36074,"lon":35.1959,"population":4995},{"id":283385,"name":"Kafr ad Dīk","ascii":"Kafr ad Dik","lat":32.0671,"lon":35.08287,"population":4986},{"id":283378,"name":"Kafr Dān","ascii":"Kafr Dan","lat":32.47852,"lon":35.25425,"population":4967},{"id":282034,"name":"Sālim","ascii":"Salim","lat":32.20962,"lon":35.33034,"population":4940},{"id":284485,"name":"Az Zāwiyah","ascii":"Az Zawiyah","lat":32.09627,"lon":35.03982,"population":4917},{"id":281764,"name":"Sīrīs","ascii":"Siris","lat":32.32828,"lon":35.29134,"population":4898},{"id":284238,"name":"Bīr Nabālā","ascii":"Bir Nabala","lat":31.8508,"lon":35.2036,"population":4776},{"id":282348,"name":"Qibyah","ascii":"Qibyah","lat":31.97734,"lon":35.00984,"population":4761},{"id":283444,"name":"Al Judayyidah","ascii":"Al Judayyidah","lat":32.33541,"lon":35.30107,"population":4681},{"id":281674,"name":"Till","ascii":"Till","lat":32.20068,"lon":35.21293,"population":4605},{"id":282353,"name":"Qedumim","ascii":"Qedumim","lat":32.21207,"lon":35.1575,"population":4596},{"id":6968055,"name":"Wādī as Salqā","ascii":"Wadi as Salqa","lat":31.40048,"lon":34.33754,"population":4552},{"id":283314,"name":"Kefar Adummim","ascii":"Kefar Adummim","lat":31.82614,"lon":35.33558,"population":4513},{"id":282529,"name":"Ni‘līn","ascii":"Ni'lin","lat":31.94746,"lon":35.02031,"population":4512},{"id":285070,"name":"Al Jīb","ascii":"Al Jib","lat":31.85203,"lon":35.18451,"population":4505},{"id":285033,"name":"Al Mazra‘ah ash Sharqīyah","ascii":"Al Mazra'ah ash Sharqiyah","lat":32.00018,"lon":35.28152,"population":4435},{"id":282510,"name":"Nūbā","ascii":"Nuba","lat":31.609,"lon":35.03455,"population":4328},{"id":282283,"name":"Quşrah","ascii":"Qusrah","lat":32.08543,"lon":35.33005,"population":4316},{"id":284292,"name":"Bayt ‘Ūr at Taḩtā","ascii":"Bayt 'Ur at Tahta","lat":31.89609,"lon":35.08178,"population":4313},{"id":281285,"name":"Alei Zahav","ascii":"Alei Zahav","lat":32.07213,"lon":35.06327,"population":4280},{"id":283351,"name":"Kafr Thulth","ascii":"Kafr Thulth","lat":32.1533,"lon":35.04698,"population":4218},{"id":281808,"name":"Shuqbā","ascii":"Shuqba","lat":31.98695,"lon":35.04012,"population":4188},{"id":284426,"name":"Bāqah ash Sharqīyah","ascii":"Baqah ash Sharqiyah","lat":32.41032,"lon":35.07054,"population":4165},{"id":284069,"name":"Dayr Jarīr","ascii":"Dayr Jarir","lat":31.96636,"lon":35.29261,"population":4156},{"id":281997,"name":"Şānūr","ascii":"Sanur","lat":32.35608,"lon":35.24537,"population":4141},{"id":284405,"name":"Barţa‘ah ash Sharqīyah","ascii":"Barta'ah ash Sharqiyah","lat":32.47304,"lon":35.0936,"population":4126},{"id":284376,"name":"Battīr","ascii":"Battir","lat":31.71945,"lon":35.14103,"population":4092},{"id":285112,"name":"Al ‘Awjā","ascii":"Al 'Awja","lat":31.95069,"lon":35.46756,"population":4067},{"id":283189,"name":"Khirbat Abū Falāḩ","ascii":"Khirbat Abu Falah","lat":32.01678,"lon":35.30135,"population":3961},{"id":284326,"name":"Bayt ‘Anān","ascii":"Bayt 'Anan","lat":31.85069,"lon":35.11248,"population":3946},{"id":283384,"name":"Kafr al Labad","ascii":"Kafr al Labad","lat":32.29967,"lon":35.10955,"population":3915},{"id":282069,"name":"Şaffā","ascii":"Saffa","lat":31.90563,"lon":35.06094,"population":3904},{"id":283986,"name":"Elqana","ascii":"Elqana","lat":32.11012,"lon":35.03233,"population":3812},{"id":282140,"name":"Rūjayb","ascii":"Rujayb","lat":32.19061,"lon":35.29332,"population":3805},{"id":282439,"name":"Qarāwat Banī Ḩasan","ascii":"Qarawat Bani Hasan","lat":32.12568,"lon":35.10061,"population":3761},{"id":284487,"name":"Az Zabābidah","ascii":"Az Zababidah","lat":32.38665,"lon":35.32411,"population":3751},{"id":284071,"name":"Dayr Istiyā","ascii":"Dayr Istiya","lat":32.13096,"lon":35.13963,"population":3730},{"id":284297,"name":"Bayt Sūrīk","ascii":"Bayt Surik","lat":31.82424,"lon":35.14936,"population":3705},{"id":283610,"name":"‘Immanu‘el","ascii":"'Immanu'el","lat":32.16075,"lon":35.13611,"population":3693},{"id":281560,"name":"Turmus‘ayyā","ascii":"Turmus'ayya","lat":32.03538,"lon":35.28564,"population":3686},{"id":7891511,"name":"Al Karmil","ascii":"Al Karmil","lat":31.42301,"lon":35.13278,"population":3685},{"id":7898046,"name":"Al Jiftlik","ascii":"Al Jiftlik","lat":32.1407,"lon":35.48738,"population":3666},{"id":284972,"name":"‘Anīn","ascii":"'Anin","lat":32.50259,"lon":35.16668,"population":3647},{"id":284196,"name":"Burqah","ascii":"Burqah","lat":32.30177,"lon":35.19263,"population":3631},{"id":284081,"name":"Dayr Ballūţ","ascii":"Dayr Ballut","lat":32.06551,"lon":35.02451,"population":3566},{"id":284868,"name":"Arţās","ascii":"Artas","lat":31.68939,"lon":35.18681,"population":3552},{"id":283316,"name":"Kūbar","ascii":"Kubar","lat":31.98722,"lon":35.15788,"population":3546},{"id":284187,"name":"Brūqīn","ascii":"Bruqin","lat":32.07216,"lon":35.09943,"population":3538},{"id":284343,"name":"Bayt Dajan","ascii":"Bayt Dajan","lat":32.19303,"lon":35.37127,"population":3487},{"id":284104,"name":"Dayr Abū Mash‘al","ascii":"Dayr Abu Mash'al","lat":31.99881,"lon":35.06844,"population":3475},{"id":283971,"name":"Faqqū‘ah","ascii":"Faqqu'ah","lat":32.48998,"lon":35.40163,"population":3426},{"id":7915400,"name":"Khursā","ascii":"Khursa","lat":31.48232,"lon":35.01742,"population":3388},{"id":283366,"name":"Kafr Qaddūm","ascii":"Kafr Qaddum","lat":32.22162,"lon":35.14471,"population":3376},{"id":7890119,"name":"Az Za‘ayyim","ascii":"Az Za'ayyim","lat":31.78852,"lon":35.26511,"population":3373},{"id":284881,"name":"Ar Rīḩīyah","ascii":"Ar Rihiyah","lat":31.4695,"lon":35.07781,"population":3369},{"id":282119,"name":"Rummanah","ascii":"Rummanah","lat":32.52451,"lon":35.2048,"population":3275},{"id":285103,"name":"Al Fandaqūmīyah","ascii":"Al Fandaqumiyah","lat":32.3206,"lon":35.20329,"population":3266},{"id":283077,"name":"Ar Ramāḑīn","ascii":"Ar Ramadin","lat":31.37952,"lon":34.91246,"population":3232},{"id":283571,"name":"Jaba‘","ascii":"Jaba'","lat":31.85727,"lon":35.25868,"population":3214},{"id":283469,"name":"Jayyūs","ascii":"Jayyus","lat":32.20125,"lon":35.03416,"population":3196},{"id":284334,"name":"Bayt Ībā","ascii":"Bayt Iba","lat":32.23719,"lon":35.20977,"population":3175},{"id":11979628,"name":"Alon shvut","ascii":"Alon shvut","lat":31.65483,"lon":35.12587,"population":3151},{"id":283055,"name":"Kifil Ḩāris","ascii":"Kifil Haris","lat":32.11827,"lon":35.15719,"population":3132},{"id":282234,"name":"Rammūn","ascii":"Rammun","lat":31.93342,"lon":35.29821,"population":3101},{"id":285161,"name":"‘Ibwayn","ascii":"'Ibwayn","lat":32.03144,"lon":35.19992,"population":3077},{"id":283918,"name":"Far‘ūn","ascii":"Far'un","lat":32.28613,"lon":35.02326,"population":3072},{"id":281226,"name":"Zaytā","ascii":"Zayta","lat":32.3856,"lon":35.05122,"population":3052},{"id":282489,"name":"Ofra","ascii":"Ofra","lat":31.95633,"lon":35.26008,"population":3039},{"id":281965,"name":"Şaydā","ascii":"Sayda","lat":32.38489,"lon":35.11856,"population":2988},{"id":284330,"name":"Al Ittiḩād","ascii":"Al Ittihad","lat":31.97552,"lon":35.11595,"population":2978},{"id":283735,"name":"Ḩāris","ascii":"Haris","lat":32.11424,"lon":35.14192,"population":2967},{"id":284495,"name":"‘Ayn Yabrūd","ascii":"'Ayn Yabrud","lat":31.94918,"lon":35.25122,"population":2959},{"id":282278,"name":"Rābā","ascii":"Raba","lat":32.38679,"lon":35.38298,"population":2951},{"id":284328,"name":"Baytīn","ascii":"Baytin","lat":31.92674,"lon":35.24098,"population":2948},{"id":281675,"name":"Talfīt","ascii":"Talfit","lat":32.08664,"lon":35.29094,"population":2906},{"id":283370,"name":"Kafr Mālik","ascii":"Kafr Malik","lat":31.9884,"lon":35.30932,"population":2903},{"id":281293,"name":"Yatmā","ascii":"Yatma","lat":32.10889,"lon":35.26909,"population":2897},{"id":281408,"name":"‘Ūrīf","ascii":"'Urif","lat":32.15949,"lon":35.22228,"population":2890},{"id":281998,"name":"Sannīryā","ascii":"Sannirya","lat":32.12877,"lon":35.04652,"population":2887},{"id":6967895,"name":"Juḩr ad Dīk","ascii":"Juhr ad Dik","lat":31.45571,"lon":34.43719,"population":2880},{"id":284010,"name":"Dūrā al Qar‘","ascii":"Dura al Qar'","lat":31.95863,"lon":35.22714,"population":2858},{"id":282108,"name":"Sabasţīyah","ascii":"Sabastiyah","lat":32.27562,"lon":35.19873,"population":2823},{"id":281982,"name":"Şarrah","ascii":"Sarrah","lat":32.2097,"lon":35.19147,"population":2810},{"id":283245,"name":"Kharbathā Banī Ḩārith","ascii":"Kharbatha Bani Harith","lat":31.94508,"lon":35.07194,"population":2808},{"id":282230,"name":"Rantīs","ascii":"Rantis","lat":32.02797,"lon":35.01879,"population":2795},{"id":284295,"name":"Bayt Imrīn","ascii":"Bayt Imrin","lat":32.29301,"lon":35.2161,"population":2794},{"id":6967877,"name":"Umm an Naşr","ascii":"Umm an Nasr","lat":31.56085,"lon":34.51863,"population":2763},{"id":284298,"name":"Bayt Sīrā","ascii":"Bayt Sira","lat":31.8878,"lon":35.04623,"population":2744},{"id":284054,"name":"Dayr Sharaf","ascii":"Dayr Sharaf","lat":32.25326,"lon":35.18893,"population":2681},{"id":282438,"name":"Qarāwat Banī Zayd","ascii":"Qarawat Bani Zayd","lat":32.0547,"lon":35.12908,"population":2673},{"id":282772,"name":"Mevo H̱oron","ascii":"Mevo Horon","lat":31.84923,"lon":35.0359,"population":2669},{"id":284489,"name":"‘Azmūţ","ascii":"'Azmut","lat":32.22297,"lon":35.30989,"population":2622},{"id":281662,"name":"Ţallūzah","ascii":"Talluzah","lat":32.27056,"lon":35.29496,"population":2604},{"id":7870669,"name":"al-Kum","ascii":"al-Kum","lat":31.53123,"lon":34.96064,"population":2568},{"id":7890843,"name":"Bayt Maqdum","ascii":"Bayt Maqdum","lat":31.53537,"lon":34.97192,"population":2568},{"id":281979,"name":"Şarţah","ascii":"Sartah","lat":32.10447,"lon":35.09198,"population":2528},{"id":284214,"name":"Būrīn","ascii":"Burin","lat":32.18452,"lon":35.25015,"population":2500},{"id":12156577,"name":"Ganei Modi'in","ascii":"Ganei Modi'in","lat":31.92892,"lon":35.01656,"population":2488},{"id":283373,"name":"Kafr Jammāl","ascii":"Kafr Jammal","lat":32.22551,"lon":35.04337,"population":2481},{"id":7895641,"name":"Al Bādhān","ascii":"Al Badhan","lat":32.25857,"lon":35.33247,"population":2458},{"id":283812,"name":"Ḩajjah","ascii":"Hajjah","lat":32.20427,"lon":35.13077,"population":2444},{"id":282997,"name":"Al Lubban ash Sharqīyah","ascii":"Al Lubban ash Sharqiyah","lat":32.07011,"lon":35.2403,"population":2439},{"id":283540,"name":"Jalbūn","ascii":"Jalbun","lat":32.45957,"lon":35.41516,"population":2421},{"id":283365,"name":"Kafr Qallīl","ascii":"Kafr Qallil","lat":32.19351,"lon":35.28284,"population":2421},{"id":282423,"name":"Qaryūt","ascii":"Qaryut","lat":32.07004,"lon":35.29432,"population":2399},{"id":283176,"name":"Al Burj","ascii":"Al Burj","lat":31.43609,"lon":34.91697,"population":2381},{"id":283040,"name":"Kufayrit","ascii":"Kufayrit","lat":32.4438,"lon":35.20184,"population":2376},{"id":283976,"name":"Faḩmah","ascii":"Fahmah","lat":32.38291,"lon":35.17912,"population":2369},{"id":283609,"name":"Immātīn","ascii":"Immatin","lat":32.19164,"lon":35.15836,"population":2368},{"id":284594,"name":"‘Aşīrah al Qiblīyah","ascii":"'Asirah al Qibliyah","lat":32.17842,"lon":35.21569,"population":2341},{"id":285024,"name":"Al Mughayyir","ascii":"Al Mughayyir","lat":32.0192,"lon":35.34783,"population":2328},{"id":281623,"name":"Tayāsīr","ascii":"Tayasir","lat":32.34042,"lon":35.39604,"population":2323},{"id":284524,"name":"‘Aynabūs","ascii":"'Aynabus","lat":32.14706,"lon":35.24513,"population":2315},{"id":282536,"name":"Neve Daniel","ascii":"Neve Daniel","lat":31.67676,"lon":35.14375,"population":2315},{"id":282540,"name":"Nazlat ‘Īsá","ascii":"Nazlat 'Isa","lat":32.41562,"lon":35.05888,"population":2313},{"id":283978,"name":"‘Ez Efrayim","ascii":"'Ez Efrayim","lat":32.11985,"lon":35.04705,"population":2292},{"id":281152,"name":"An Nazlah","ascii":"An Nazlah","lat":31.53333,"lon":34.48333,"population":2284},{"id":283449,"name":"Jīt","ascii":"Jit","lat":32.21431,"lon":35.17081,"population":2243},{"id":284563,"name":"‘Aţārah","ascii":"'Atarah","lat":32.00058,"lon":35.20466,"population":2240},{"id":284197,"name":"Burqah","ascii":"Burqah","lat":31.89682,"lon":35.2543,"population":2238},{"id":284581,"name":"As Sāwiyah","ascii":"As Sawiyah","lat":32.08537,"lon":35.25782,"population":2236},{"id":7891506,"name":"Rābūd","ascii":"Rabud","lat":31.43909,"lon":35.0162,"population":2228},{"id":281297,"name":"Yāşīd","ascii":"Yasid","lat":32.29688,"lon":35.27757,"population":2226},{"id":9204036,"name":"Nayot","ascii":"Nayot","lat":31.79589,"lon":35.24517,"population":2223},{"id":284099,"name":"Dayr al Ḩaţab","ascii":"Dayr al Hatab","lat":32.21734,"lon":35.32127,"population":2194},{"id":282740,"name":"Mislīyah","ascii":"Misliyah","lat":32.38613,"lon":35.2878,"population":2187},{"id":281303,"name":"Yaqqir","ascii":"Yaqqir","lat":32.14969,"lon":35.11528,"population":2183},{"id":285023,"name":"Al Mughayyir","ascii":"Al Mughayyir","lat":32.42228,"lon":35.38476,"population":2175},{"id":281819,"name":"Shūfah","ascii":"Shufah","lat":32.27551,"lon":35.08135,"population":2174},{"id":284013,"name":"Dūmā","ascii":"Duma","lat":32.05632,"lon":35.36705,"population":2157},{"id":7890846,"name":"Khallat ad Dār","ascii":"Khallat ad Dar","lat":31.49737,"lon":35.11362,"population":2153},{"id":282872,"name":"Mardā","ascii":"Marda","lat":32.11381,"lon":35.19536,"population":2142},{"id":284904,"name":"Al ‘Araqa","ascii":"Al 'Araqa","lat":32.47057,"lon":35.20027,"population":2135},{"id":7891283,"name":"Bayt ‘Amrah","ascii":"Bayt 'Amrah","lat":31.4502,"lon":35.04952,"population":2133},{"id":284558,"name":"Aţ Ţaybah","ascii":"At Taybah","lat":32.51494,"lon":35.18574,"population":2129},{"id":283092,"name":"Rās ‘Aţīyah","ascii":"Ras 'Atiyah","lat":32.15847,"lon":34.99086,"population":2129},{"id":282941,"name":"Majdal Banī Fāḑil","ascii":"Majdal Bani Fadil","lat":32.08357,"lon":35.36378,"population":2122},{"id":284085,"name":"Dayr as Sūdān","ascii":"Dayr as Sudan","lat":32.03213,"lon":35.14845,"population":2104},{"id":281227,"name":"Zaytā Jammā‘īn","ascii":"Zayta Jamma'in","lat":32.13698,"lon":35.18595,"population":2092},{"id":284284,"name":"Bazzāryah","ascii":"Bazzaryah","lat":32.30798,"lon":35.16593,"population":2091},{"id":7889501,"name":"Jinşāfūţ","ascii":"Jinsafut","lat":32.17916,"lon":35.13038,"population":2089},{"id":281207,"name":"Zubūbah","ascii":"Zububah","lat":32.54346,"lon":35.22274,"population":2063},{"id":282265,"name":"Rāfāt","ascii":"Rafat","lat":31.87096,"lon":35.19182,"population":2061},{"id":7870676,"name":"Al Rashaydeh","ascii":"Al Rashaydeh","lat":31.75292,"lon":35.34736,"population":2060},{"id":285069,"name":"Al Judayrah","ascii":"Al Judayrah","lat":31.85587,"lon":35.19706,"population":2059},{"id":285285,"name":"‘Ābūd","ascii":"'Abud","lat":32.01637,"lon":35.06833,"population":2056},{"id":284072,"name":"Dayr Ibzī‘","ascii":"Dayr Ibzi'","lat":31.91727,"lon":35.12105,"population":2041},{"id":282237,"name":"Rāmīn","ascii":"Ramin","lat":32.2852,"lon":35.14951,"population":2040},{"id":283547,"name":"Al Jalamah","ascii":"Al Jalamah","lat":32.50821,"lon":35.31317,"population":2035},{"id":285009,"name":"Al Qubaybah","ascii":"Al Qubaybah","lat":31.83886,"lon":35.13678,"population":2008},{"id":282837,"name":"Masḩah","ascii":"Mashah","lat":32.10828,"lon":35.05096,"population":1982},{"id":284888,"name":"‘Arrānah","ascii":"'Arranah","lat":32.4972,"lon":35.32271,"population":1972},{"id":283536,"name":"Jalqamūs","ascii":"Jalqamus","lat":32.42464,"lon":35.36421,"population":1968},{"id":282264,"name":"Rāfāt","ascii":"Rafat","lat":32.07806,"lon":35.04417,"population":1952},{"id":283142,"name":"Ash Shaykh Sa‘d","ascii":"Ash Shaykh Sa'd","lat":31.73721,"lon":35.25742,"population":1932},{"id":283614,"name":"Iktābah","ascii":"Iktabah","lat":32.3266,"lon":35.05262,"population":1919},{"id":284065,"name":"Dayr Qiddīs","ascii":"Dayr Qiddis","lat":31.94862,"lon":35.04437,"population":1916},{"id":282485,"name":"Pedu’el","ascii":"Pedu'el","lat":32.06241,"lon":35.05321,"population":1910},{"id":282482,"name":"Pesagot","ascii":"Pesagot","lat":31.89904,"lon":35.22417,"population":1903},{"id":283159,"name":"Al Majd","ascii":"Al Majd","lat":31.48095,"lon":34.95063,"population":1896},{"id":7891144,"name":"Aş Şūrrah","ascii":"As Surrah","lat":31.47097,"lon":34.99897,"population":1896},{"id":283120,"name":"Dayr al ‘Asal al Fawqā","ascii":"Dayr al 'Asal al Fawqa","lat":31.46832,"lon":34.93832,"population":1859},{"id":281236,"name":"Zawātā","ascii":"Zawata","lat":32.24611,"lon":35.2265,"population":1855},{"id":284933,"name":"‘Anzah","ascii":"'Anzah","lat":32.35916,"lon":35.22011,"population":1851},{"id":6968050,"name":"Al Muşaddar","ascii":"Al Musaddar","lat":31.41052,"lon":34.37802,"population":1845},{"id":284408,"name":"Barqan","ascii":"Barqan","lat":32.10914,"lon":35.112,"population":1833},{"id":7890813,"name":"Bayt ‘Īnūn","ascii":"Bayt 'Inun","lat":31.5587,"lon":35.1244,"population":1782},{"id":7871005,"name":"Azun Atme","ascii":"Azun Atme","lat":32.12167,"lon":35.02036,"population":1746},{"id":282980,"name":"Mādamā","ascii":"Madama","lat":32.18588,"lon":35.23114,"population":1735},{"id":284331,"name":"Bayt Iksā","ascii":"Bayt Iksa","lat":31.81732,"lon":35.17934,"population":1734},{"id":284598,"name":"Ash Shuhadā’","ascii":"Ash Shuhada'","lat":32.42949,"lon":35.27112,"population":1727},{"id":283379,"name":"Kafr ‘Ayn","ascii":"Kafr 'Ayn","lat":32.04758,"lon":35.12038,"population":1720},{"id":283464,"name":"Jifnā","ascii":"Jifna","lat":31.96192,"lon":35.21338,"population":1693},{"id":282284,"name":"Qūşīn","ascii":"Qusin","lat":32.23829,"lon":35.18297,"population":1691},{"id":284269,"name":"Bil‘īn","ascii":"Bil'in","lat":31.92835,"lon":35.07204,"population":1678},{"id":283520,"name":"Jammālah","ascii":"Jammalah","lat":31.97212,"lon":35.09294,"population":1664},{"id":282185,"name":"Rās Karkar","ascii":"Ras Karkar","lat":31.9424,"lon":35.10773,"population":1641},{"id":283099,"name":"Imrīsh","ascii":"Imrish","lat":31.46895,"lon":35.00819,"population":1640},{"id":284342,"name":"Bayt Duqqū","ascii":"Bayt Duqqu","lat":31.85911,"lon":35.13124,"population":1637},{"id":281286,"name":"Yiẕhar","ascii":"Yizhar","lat":32.16744,"lon":35.23875,"population":1635},{"id":284427,"name":"Bāqat al Ḩaţab","ascii":"Baqat al Hatab","lat":32.20434,"lon":35.11433,"population":1624},{"id":284415,"name":"Bardalah","ascii":"Bardalah","lat":32.38632,"lon":35.48084,"population":1612},{"id":281295,"name":"Yāsūf","ascii":"Yasuf","lat":32.10841,"lon":35.23784,"population":1604},{"id":284540,"name":"Ūşarīn","ascii":"Usarin","lat":32.12499,"lon":35.30999,"population":1595},{"id":282746,"name":"Mirkah","ascii":"Mirkah","lat":32.39583,"lon":35.23807,"population":1592},{"id":283743,"name":"Har Gillo","ascii":"Har Gillo","lat":31.72119,"lon":35.1724,"population":1590},{"id":283155,"name":"An Naşşārīyah","ascii":"An Nassariyah","lat":32.23647,"lon":35.38711,"population":1568},{"id":282354,"name":"Qedar","ascii":"Qedar","lat":31.75406,"lon":35.31058,"population":1565},{"id":284515,"name":"‘Ayn ‘Arīk","ascii":"'Ayn 'Arik","lat":31.90613,"lon":35.14254,"population":1546},{"id":282595,"name":"Bat A'in","ascii":"Bat A'in","lat":31.65756,"lon":35.10345,"population":1545},{"id":284939,"name":"An Nāqūrah","ascii":"An Naqurah","lat":32.26506,"lon":35.20135,"population":1528},{"id":283180,"name":"Shuyūkh al ‘Arrūb","ascii":"Shuyukh al 'Arrub","lat":31.61735,"lon":35.14366,"population":1527},{"id":284936,"name":"An Nazlah ash Sharqīyah","ascii":"An Nazlah ash Sharqiyah","lat":32.41072,"lon":35.10916,"population":1500},{"id":283805,"name":"H̱allamish","ascii":"Hallamish","lat":32.004,"lon":35.12372,"population":1478},{"id":283419,"name":"Jūrat ash Sham‘ah","ascii":"Jurat ash Sham'ah","lat":31.65051,"lon":35.17001,"population":1472},{"id":282988,"name":"Ma‘ale Mikhmas","ascii":"Ma'ale Mikhmas","lat":31.87972,"lon":35.3054,"population":1463},{"id":282687,"name":"Mikhmās","ascii":"Mikhmas","lat":31.8721,"lon":35.27596,"population":1461},{"id":285049,"name":"Al Lubban al Gharbī","ascii":"Al Lubban al Gharbi","lat":32.03504,"lon":35.03928,"population":1456},{"id":283386,"name":"Kafr ‘Abbūsh","ascii":"Kafr 'Abbush","lat":32.22353,"lon":35.08504,"population":1444},{"id":7890393,"name":"‘Arab ar Rashāydah","ascii":"'Arab ar Rashaydah","lat":31.57112,"lon":35.23227,"population":1435},{"id":284559,"name":"Aţ Ţaybah","ascii":"At Taybah","lat":31.95388,"lon":35.2998,"population":1433},{"id":284308,"name":"Bayt Qād","ascii":"Bayt Qad","lat":32.46968,"lon":35.35626,"population":1430},{"id":7897890,"name":"Az Zubaydāt","ascii":"Az Zubaydat","lat":32.1733,"lon":35.53005,"population":1403},{"id":7890385,"name":"Wādī Raḩḩāl","ascii":"Wadi Rahhal","lat":31.66516,"lon":35.16727,"population":1401},{"id":7890353,"name":"Khallat an Nu‘mān","ascii":"Khallat an Nu'man","lat":31.71749,"lon":35.24227,"population":1397},{"id":7890366,"name":"Khallat Ḩamāmah","ascii":"Khallat Hamamah","lat":31.7216,"lon":35.19243,"population":1397},{"id":283286,"name":"Khallat al Mayyah","ascii":"Khallat al Mayyah","lat":31.44222,"lon":35.14286,"population":1391},{"id":285220,"name":"Abū Qashsh","ascii":"Abu Qashsh","lat":31.94883,"lon":35.18426,"population":1385},{"id":283408,"name":"Jūrīsh","ascii":"Jurish","lat":32.10188,"lon":35.32188,"population":1385},{"id":284228,"name":"Budrus","ascii":"Budrus","lat":31.96687,"lon":34.99425,"population":1380},{"id":285026,"name":"‘Almon","ascii":"'Almon","lat":31.83193,"lon":35.29687,"population":1378},{"id":283165,"name":"Karmah","ascii":"Karmah","lat":31.45185,"lon":35.02714,"population":1365},{"id":283955,"name":"Farkhah","ascii":"Farkhah","lat":32.06878,"lon":35.15286,"population":1351},{"id":284556,"name":"Aţ Ţīrah","ascii":"At Tirah","lat":31.87022,"lon":35.12682,"population":1340},{"id":283681,"name":"H̱innanit","ascii":"Hinnanit","lat":32.47999,"lon":35.17357,"population":1323},{"id":283101,"name":"Marāḩ Rabbāḩ","ascii":"Marah Rabbah","lat":31.63406,"lon":35.18688,"population":1303},{"id":281711,"name":"Suseya","ascii":"Suseya","lat":31.39116,"lon":35.11368,"population":1301},{"id":7895292,"name":"Bīr al Bāshā","ascii":"Bir al Basha","lat":32.42022,"lon":35.23013,"population":1291},{"id":285032,"name":"Al Midyah","ascii":"Al Midyah","lat":31.93592,"lon":35.005,"population":1284},{"id":7891142,"name":"Al Ḩīlah","ascii":"Al Hilah","lat":31.47454,"lon":35.10742,"population":1258},{"id":282991,"name":"Ma‘ale Efrayim","ascii":"Ma'ale Efrayim","lat":32.07142,"lon":35.39868,"population":1241},{"id":11778032,"name":"Itamar","ascii":"Itamar","lat":32.17474,"lon":35.30941,"population":1238},{"id":284935,"name":"An Nuway‘imah","ascii":"An Nuway'imah","lat":31.89212,"lon":35.43549,"population":1229},{"id":285126,"name":"‘Ajjūl","ascii":"'Ajjul","lat":32.02232,"lon":35.17969,"population":1220},{"id":283123,"name":"Bayt Ta‘mar","ascii":"Bayt Ta'mar","lat":31.67927,"lon":35.23986,"population":1214},{"id":7890844,"name":"Al Buq‘ah","ascii":"Al Buq'ah","lat":31.54199,"lon":35.14279,"population":1200},{"id":282027,"name":"Sal‘it","ascii":"Sal'it","lat":32.24295,"lon":35.05272,"population":1190},{"id":282461,"name":"Qalandiyā","ascii":"Qalandiya","lat":31.86289,"lon":35.20815,"population":1169},{"id":284962,"name":"An Nabī Ilyās","ascii":"An Nabi Ilyas","lat":32.18482,"lon":35.0176,"population":1157},{"id":281356,"name":"Wādī Fūkīn","ascii":"Wadi Fukin","lat":31.70701,"lon":35.10366,"population":1153},{"id":283313,"name":"Kefar ‘Eẕyon","ascii":"Kefar 'Ezyon","lat":31.65,"lon":35.11667,"population":1152},{"id":285071,"name":"Al Jāniyah","ascii":"Al Janiyah","lat":31.93848,"lon":35.12142,"population":1147},{"id":7896869,"name":"‘Ayn al Bayḑā","ascii":"'Ayn al Bayda","lat":32.38051,"lon":35.50838,"population":1145},{"id":285113,"name":"Al ‘Aţţārah","ascii":"Al 'Attarah","lat":32.32571,"lon":35.16373,"population":1145},{"id":283096,"name":"Qalqas","ascii":"Qalqas","lat":31.49212,"lon":35.09535,"population":1132},{"id":282342,"name":"Qīrah","ascii":"Qirah","lat":32.12214,"lon":35.17173,"population":1131},{"id":283362,"name":"Kafr Qūd","ascii":"Kafr Qud","lat":32.45661,"lon":35.22649,"population":1129},{"id":281548,"name":"Ūdalah","ascii":"Udalah","lat":32.15363,"lon":35.27646,"population":1123},{"id":282154,"name":"Rosh Ẕurim","ascii":"Rosh Zurim","lat":31.66796,"lon":35.12634,"population":1115},{"id":283128,"name":"Bayt Ḩasan","ascii":"Bayt Hasan","lat":32.2376,"lon":35.40407,"population":1109},{"id":283353,"name":"Kafr Şūr","ascii":"Kafr Sur","lat":32.24366,"lon":35.06394,"population":1107},{"id":11979645,"name":"Bruchin","ascii":"Bruchin","lat":32.08191,"lon":35.08994,"population":1093},{"id":7891512,"name":"Khallat Şāliḩ","ascii":"Khallat Salih","lat":31.42013,"lon":35.11516,"population":1077},{"id":283348,"name":"Kafr Zībād","ascii":"Kafr Zibad","lat":32.22583,"lon":35.07179,"population":1068},{"id":285102,"name":"Al Faşāyil","ascii":"Al Fasayil","lat":32.02509,"lon":35.44351,"population":1064},{"id":284291,"name":"Bayt Wazan","ascii":"Bayt Wazan","lat":32.23105,"lon":35.21576,"population":1046},{"id":285091,"name":"Al Hāshimīyah","ascii":"Al Hashimiyah","lat":32.46392,"lon":35.21938,"population":1038},{"id":11979770,"name":"Otniel","ascii":"Otniel","lat":31.43932,"lon":35.02859,"population":1037},{"id":283324,"name":"Karme Ẕur","ascii":"Karme Zur","lat":31.6098,"lon":35.10167,"population":1021},{"id":281716,"name":"Surdā","ascii":"Surda","lat":31.93709,"lon":35.20321,"population":1017},{"id":7535657,"name":"Karney Shomron","ascii":"Karney Shomron","lat":32.1714,"lon":35.09767,"population":0}]