[{"id":290030,"name":"Doha","nameKo":"도하","ascii":"Doha","lat":25.28545,"lon":51.53096,"population":344939},{"id":289888,"name":"Ar Rayyān","ascii":"Ar Rayyan","lat":25.29194,"lon":51.42444,"population":272465},{"id":12242643,"name":"Al Maţār al ‘Atīq","ascii":"Al Matar al 'Atiq","lat":25.25138,"lon":51.55569,"population":76774},{"id":411759,"name":"Al Manşūrah","ascii":"Al Mansurah","lat":25.26807,"lon":51.53219,"population":65493},{"id":289847,"name":"Az̧ Z̧a‘āyin","ascii":"Az Za'ayin","lat":25.57744,"lon":51.48306,"population":54339},{"id":289738,"name":"Madīnat Khalīfah","ascii":"Madinat Khalifah","lat":25.32047,"lon":51.47787,"population":44459},{"id":411760,"name":"An Najmah","ascii":"An Najmah","lat":25.26704,"lon":51.54322,"population":43695},{"id":289511,"name":"Al ‘Unayzah","ascii":"Al 'Unayzah","lat":25.33759,"lon":51.50953,"population":39761},{"id":289545,"name":"Umm Ghuwaylīnah","ascii":"Umm Ghuwaylinah","lat":25.58716,"lon":51.14986,"population":39457},{"id":411820,"name":"As Sadd","ascii":"As Sadd","lat":25.28617,"lon":51.50074,"population":36077},{"id":12242742,"name":"Farīj al Amīr","ascii":"Farij al Amir","lat":25.28733,"lon":51.47136,"population":33263},{"id":12219798,"name":"Farīj Kulayb","ascii":"Farij Kulayb","lat":25.31313,"lon":51.4929,"population":33263},{"id":289523,"name":"Umm Şalāl Muḩammad","ascii":"Umm Salal Muhammad","lat":25.41524,"lon":51.40647,"population":29391},{"id":289716,"name":"Mu‘aydhir Rawḑat Rāshid","ascii":"Mu'aydhir Rawdat Rashid","lat":25.2617,"lon":51.39684,"population":27569},{"id":411752,"name":"As Sulţah al Jadīdah","ascii":"As Sultah al Jadidah","lat":25.2604,"lon":51.51403,"population":27432},{"id":289915,"name":"Al Wakrah","ascii":"Al Wakrah","lat":25.17151,"lon":51.60337,"population":26436},{"id":12242646,"name":"Ath Thumāmah Khamsūn","ascii":"Ath Thumamah Khamsun","lat":25.21958,"lon":51.55323,"population":22284},{"id":12242644,"name":"Ath Thumāmah Sab‘ah wa Arba‘ūn","ascii":"Ath Thumamah Sab'ah wa Arba'un","lat":25.23903,"lon":51.56333,"population":22284},{"id":12242645,"name":"Ath Thumāmah Sittah wa Arba‘ūn","ascii":"Ath Thumamah Sittah wa Arba'un","lat":25.23404,"lon":51.54053,"population":22284},{"id":289698,"name":"Nu‘ayjah","ascii":"Nu'ayjah","lat":25.24617,"lon":51.53227,"population":19975},{"id":411803,"name":"Al Ghānim","ascii":"Al Ghanim","lat":25.27987,"lon":51.54037,"population":19010},{"id":289962,"name":"Al Khawr","nameKo":"알코르","ascii":"Al Khawr","lat":25.68389,"lon":51.50583,"population":18923},{"id":11207824,"name":"Umm Lakhbā","ascii":"Umm Lakhba","lat":25.34157,"lon":51.4706,"population":16993},{"id":411763,"name":"Al Hilāl al Gharbīyah","ascii":"Al Hilal al Gharbiyah","lat":25.2586,"lon":51.53098,"population":15461},{"id":411768,"name":"Al Hilāl ash Sharqīyah","ascii":"Al Hilal ash Sharqiyah","lat":25.26042,"lon":51.54632,"population":15461},{"id":411758,"name":"Ad Dawḩah al Jadīdah","ascii":"Ad Dawhah al Jadidah","lat":25.27707,"lon":51.53286,"population":15000},{"id":411751,"name":"Al Markhīyah","ascii":"Al Markhiyah","lat":25.32488,"lon":51.49836,"population":11272},{"id":12219797,"name":"Aţ Ţarfah","ascii":"At Tarfah","lat":25.37335,"lon":51.48992,"population":8882},{"id":411785,"name":"Al Hitmī","ascii":"Al Hitmi","lat":25.28488,"lon":51.54612,"population":8386},{"id":11207882,"name":"Farīq al Hitmī","ascii":"Fariq al Hitmi","lat":25.28631,"lon":51.53261,"population":8386},{"id":289877,"name":"Ash Shīḩānīyah","ascii":"Ash Shihaniyah","lat":25.37088,"lon":51.22264,"population":8380},{"id":289813,"name":"Dukhān","ascii":"Dukhan","lat":25.42485,"lon":50.78227,"population":7250},{"id":289525,"name":"Musay‘īd","ascii":"Musay`id","lat":24.99226,"lon":51.55067,"population":5769},{"id":289739,"name":"Madīnat ash Shamāl","ascii":"Madinat ash Shamal","lat":26.12933,"lon":51.2009,"population":5267},{"id":289913,"name":"Al Wukayr","ascii":"Al Wukayr","lat":25.15107,"lon":51.53718,"population":5146},{"id":289884,"name":"Ar Ruways","ascii":"Ar Ruways","lat":26.13978,"lon":51.21493,"population":3334},{"id":289548,"name":"Umm Bāb","ascii":"Umm Bab","lat":25.21417,"lon":50.80722,"population":2500},{"id":289993,"name":"Al Ghuwayrīyah","ascii":"Al Ghuwayriyah","lat":25.82882,"lon":51.24567,"population":2332},{"id":289975,"name":"Al Jumaylīyah","ascii":"Al Jumayliyah","lat":25.61068,"lon":51.09108,"population":1788},{"id":406787,"name":"Fuwayriţ","ascii":"Fuwayrit","lat":26.02565,"lon":51.36971,"population":1333},{"id":289524,"name":"Umm Şalāl ‘Alī","ascii":"Umm Salal `Ali","lat":25.46972,"lon":51.3975,"population":0}]