[{"id":2253354,"name":"Dakar","nameKo":"다카르","ascii":"Dakar","lat":14.6937,"lon":-17.44406,"population":2646503},{"id":2244322,"name":"Touba","nameKo":"투바","ascii":"Touba","lat":14.86229,"lon":-15.87532,"population":1120824},{"id":2246678,"name":"Pikine","ascii":"Pikine","lat":14.76457,"lon":-17.39071,"population":874062},{"id":2595778,"name":"Guédiawaye","ascii":"Guediawaye","lat":14.77446,"lon":-17.40212,"population":329659},{"id":2244802,"name":"Thiès","ascii":"Thies","lat":14.78944,"lon":-16.92602,"population":317763},{"id":2250805,"name":"Kaolack","ascii":"Kaolack","lat":14.15197,"lon":-16.07259,"population":298904},{"id":2246512,"name":"Rufisque","nameKo":"뤼피스크","ascii":"Rufisque","lat":14.71542,"lon":-17.27334,"population":295459},{"id":2248477,"name":"Mbour","ascii":"Mbour","lat":14.42196,"lon":-16.96375,"population":284189},{"id":2246452,"name":"Saint-Louis","nameKo":"생루이","ascii":"Saint-Louis","lat":16.01793,"lon":-16.48962,"population":254171},{"id":2244799,"name":"Thiès Nones","ascii":"Thies Nones","lat":14.78333,"lon":-16.96667,"population":252320},{"id":11101625,"name":"Rufisque est","ascii":"Rufisque est","lat":14.7162,"lon":-17.27283,"population":221066},{"id":2243940,"name":"Ziguinchor","nameKo":"지긴쇼르","ascii":"Ziguinchor","lat":12.56801,"lon":-16.27326,"population":214874},{"id":2252309,"name":"Diourbel","nameKo":"디우르벨","ascii":"Diourbel","lat":14.64792,"lon":-16.24363,"population":157554},{"id":2244991,"name":"Tambacounda","nameKo":"탐바쿤다","ascii":"Tambacounda","lat":13.77073,"lon":-13.66734,"population":149071},{"id":2249222,"name":"Louga","ascii":"Louga","lat":15.61867,"lon":-16.22436,"population":113365},{"id":2249782,"name":"Kolda","ascii":"Kolda","lat":12.8939,"lon":-14.94125,"population":103574},{"id":2244386,"name":"Tivaouane","ascii":"Tivaouane","lat":14.95186,"lon":-16.8152,"population":102658},{"id":2248698,"name":"Mbaké","ascii":"Mbake","lat":14.79032,"lon":-15.90803,"population":101451},{"id":2244616,"name":"Tiébo","ascii":"Tiebo","lat":14.63333,"lon":-16.23333,"population":100289},{"id":2248385,"name":"Keur Médoune","ascii":"KeurMedoune","lat":14.75835,"lon":-15.90434,"population":77255},{"id":2246544,"name":"Richard-Toll","ascii":"Richard-Toll","lat":16.4625,"lon":-15.70083,"population":73147},{"id":2252132,"name":"Dougnane","ascii":"Dougnane","lat":14.95856,"lon":-16.86999,"population":69556},{"id":2254154,"name":"Bargny","ascii":"Bargny","lat":14.69707,"lon":-17.23015,"population":69242},{"id":2251007,"name":"Kaffrine","ascii":"Kaffrine","lat":14.10594,"lon":-15.5508,"population":57307},{"id":2254153,"name":"Bargny Guèdj","ascii":"Bargny Guedj","lat":14.68698,"lon":-17.22808,"population":51188},{"id":2595382,"name":"Bargny Ngoude","ascii":"Bargny Ngoude","lat":14.69407,"lon":-17.2353,"population":51188},{"id":2247381,"name":"Nguékhokh","ascii":"Nguekhokh","lat":14.51255,"lon":-17.00447,"population":47964},{"id":2595640,"name":"Diamniadio","ascii":"Diamniadio","lat":14.72051,"lon":-17.1816,"population":47759},{"id":2251084,"name":"Joal","ascii":"Joal","lat":14.17309,"lon":-16.84929,"population":45903},{"id":2253277,"name":"Dara","ascii":"Dara","lat":15.34844,"lon":-15.47993,"population":45530},{"id":2244177,"name":"Vélingara","ascii":"Velingara","lat":13.15,"lon":-14.11667,"population":45431},{"id":2245709,"name":"Sébikhotane","ascii":"Sebikhotane","lat":14.74521,"lon":-17.13783,"population":42839},{"id":2595222,"name":"Sali","ascii":"Sali","lat":14.44111,"lon":-17.01944,"population":41811},{"id":13117829,"name":"Jaxaay Parcelle Niakoul Rap","ascii":"Jaxaay Parcelle Niakoul Rap","lat":14.77474,"lon":-17.28024,"population":41570},{"id":2247298,"name":"Niakoul Rab","ascii":"Niakoul Rab","lat":14.78421,"lon":-17.27361,"population":41570},{"id":2248515,"name":"Mboro","ascii":"Mboro","lat":15.14051,"lon":-16.88682,"population":40811},{"id":2251911,"name":"Fatick","ascii":"Fatick","lat":14.33236,"lon":-16.40513,"population":39361},{"id":7670740,"name":"Bambey","ascii":"Bambey","lat":14.70074,"lon":-16.45911,"population":37374},{"id":2248433,"name":"Médina Gounas","ascii":"Medina Gounas","lat":13.13607,"lon":-13.75566,"population":36588},{"id":11101616,"name":"N’diareme limamoulaye","ascii":"N'diareme limamoulaye","lat":14.78148,"lon":-17.3841,"population":35171},{"id":2595758,"name":"Le Plateau","ascii":"Le Plateau","lat":14.66222,"lon":-17.43972,"population":34713},{"id":2247813,"name":"Ndibène Dahra","ascii":"Ndibene Dahra","lat":15.3338,"lon":-15.4766,"population":32941},{"id":2245704,"name":"Sédhiou","ascii":"Sedhiou","lat":12.70806,"lon":-15.55694,"population":31511},{"id":2249554,"name":"Koungheul","ascii":"Koungheul","lat":13.98333,"lon":-14.8,"population":31149},{"id":2250645,"name":"Kédougou","ascii":"Kedougou","lat":12.55561,"lon":-12.18076,"population":30051},{"id":2253901,"name":"Bignona","ascii":"Bignona","lat":12.81028,"lon":-16.22639,"population":28642},{"id":2248752,"name":"Matam","ascii":"Matam","lat":15.65587,"lon":-13.25544,"population":27695},{"id":2248409,"name":"Mékhé","ascii":"Mekhe","lat":15.1097,"lon":-16.6218,"population":27566},{"id":2246922,"name":"Ouro Sogui","ascii":"Ouro Sogui","lat":15.60588,"lon":-13.3223,"population":27222},{"id":2250982,"name":"Kahone","ascii":"Kahone","lat":14.15838,"lon":-16.03572,"population":26376},{"id":2252685,"name":"Diaoubé","ascii":"Diaoube","lat":12.91667,"lon":-14.16667,"population":26165},{"id":2246608,"name":"Poukham Un","ascii":"PoukhamUn","lat":14.35751,"lon":-16.41235,"population":24146},{"id":2246606,"name":"Pout","ascii":"Pout","lat":14.77099,"lon":-17.06107,"population":23728},{"id":2250677,"name":"Kayar","ascii":"Kayar","lat":14.91893,"lon":-17.11978,"population":23585},{"id":2253375,"name":"Dagana","ascii":"Dagana","lat":16.47667,"lon":-15.6,"population":21750},{"id":2249550,"name":"Koungneul Sossé","ascii":"Koungneul Sosse","lat":13.96667,"lon":-14.81667,"population":20942},{"id":2247157,"name":"Nioro du Rip","ascii":"Nioro du Rip","lat":13.75,"lon":-15.8,"population":20784},{"id":2251230,"name":"Guinguinéo","ascii":"Guinguineo","lat":14.2695,"lon":-15.94508,"population":20340},{"id":2249901,"name":"Khombole","ascii":"Khombole","lat":14.76361,"lon":-16.6916,"population":20321},{"id":2247684,"name":"Ndioum","ascii":"Ndioum","lat":16.51293,"lon":-14.64706,"population":20270},{"id":2244786,"name":"Thiadiaye","ascii":"Thiadiaye","lat":14.42038,"lon":-16.70258,"population":20168},{"id":2250659,"name":"Kébémer","ascii":"Kebemer","lat":15.365,"lon":-16.4339,"population":19902},{"id":2249281,"name":"Linguère","ascii":"Linguere","lat":15.3953,"lon":-15.1193,"population":19191},{"id":2251688,"name":"Gandiaye","ascii":"Gandiaye","lat":14.24362,"lon":-16.27231,"population":18239},{"id":2251470,"name":"Goudomp","ascii":"Goudomp","lat":12.57778,"lon":-15.87222,"population":18239},{"id":2249576,"name":"Koumpentoum","ascii":"Koumpentoum","lat":13.98333,"lon":-14.56667,"population":15723},{"id":2251490,"name":"Gossas Village","ascii":"Gossas Village","lat":14.48409,"lon":-16.11377,"population":15630},{"id":2250668,"name":"Kbombole","ascii":"Kbombole","lat":14.76667,"lon":-16.7,"population":15587},{"id":2250849,"name":"Kanel","ascii":"Kanel","lat":15.4916,"lon":-13.17627,"population":15244},{"id":2244797,"name":"Thilogne","ascii":"Thilogne","lat":15.92389,"lon":-13.65778,"population":15044},{"id":8030383,"name":"Mermoz Boabab","ascii":"Mermoz Boabab","lat":14.70649,"lon":-17.47581,"population":15000},{"id":2245241,"name":"Sokone","ascii":"Sokone","lat":13.88333,"lon":-16.36667,"population":14745},{"id":2250773,"name":"Karang","ascii":"Karang","lat":13.60778,"lon":-16.42694,"population":14624},{"id":2247520,"name":"Nganda","ascii":"Nganda","lat":13.83333,"lon":-15.41667,"population":14369},{"id":2245427,"name":"Sintiou Bamambé","ascii":"Sintiou Bamambe","lat":15.36736,"lon":-13.13471,"population":13823},{"id":2249892,"name":"Kidira","ascii":"Kidira","lat":14.45668,"lon":-12.21659,"population":13551},{"id":2254441,"name":"Bakel","ascii":"Bakel","lat":14.90238,"lon":-12.45935,"population":13329},{"id":2247660,"name":"Ndofane","ascii":"Ndofane","lat":13.91667,"lon":-15.93333,"population":12898},{"id":2246780,"name":"Passi","ascii":"Passi","lat":13.98333,"lon":-16.26667,"population":12571},{"id":12640235,"name":"Madina Wandifa","ascii":"Madina Wandifa","lat":13.05794,"lon":-15.64319,"population":12205},{"id":2246274,"name":"Sangalkam","ascii":"Sangalkam","lat":14.78023,"lon":-17.22761,"population":11915},{"id":6650652,"name":"Podor","ascii":"Podor","lat":16.64892,"lon":-14.96073,"population":11608},{"id":2246523,"name":"Ross-Bétio","ascii":"Ross-Betio","lat":16.27333,"lon":-16.13778,"population":11588},{"id":2252473,"name":"Diofior","ascii":"Diofior","lat":14.1899,"lon":-16.66089,"population":11312},{"id":2249545,"name":"Kounkané","ascii":"Kounkane","lat":12.93333,"lon":-14.08333,"population":10798},{"id":2250306,"name":"Keur Madiabel","ascii":"Keur Madiabel","lat":13.85,"lon":-16.06667,"population":10542},{"id":2247341,"name":"Nguidjlone","ascii":"Nguidjlone","lat":15.94052,"lon":-13.35138,"population":10444},{"id":2244497,"name":"Tilogne Tokossel","ascii":"Tilogne Tokossel","lat":15.96667,"lon":-13.6,"population":10441},{"id":2254689,"name":"Amady Ounaré","ascii":"Amady Ounare","lat":15.34714,"lon":-13.01647,"population":10175},{"id":2246522,"name":"Rosso","ascii":"Rosso","lat":16.42028,"lon":-15.79834,"population":9923},{"id":2248777,"name":"Marsassoum","ascii":"Marsassoum","lat":12.8275,"lon":-15.98056,"population":9815},{"id":2247507,"name":"Ngaparou","ascii":"Ngaparou","lat":14.46419,"lon":-17.05619,"population":9525},{"id":2251178,"name":"Haïré Lao","ascii":"Haire Lao","lat":16.39697,"lon":-14.32196,"population":9472},{"id":2246637,"name":"Poponguine","ascii":"Poponguine","lat":14.55735,"lon":-17.11396,"population":8651},{"id":2244436,"name":"Tionk Essil","ascii":"Tionk Essil","lat":12.78556,"lon":-16.52167,"population":8389},{"id":2245608,"name":"Sibassor","ascii":"Sibassor","lat":14.18645,"lon":-16.15947,"population":8141},{"id":2246861,"name":"Pal","ascii":"Pal","lat":15.9139,"lon":-16.2599,"population":8133},{"id":2251292,"name":"Guéoul","ascii":"Gueoul","lat":15.48333,"lon":-16.35,"population":8003},{"id":2248788,"name":"Malèm Hodar","ascii":"MalemHodar","lat":14.08873,"lon":-15.29197,"population":7879},{"id":2247044,"name":"Waoundé","ascii":"Waounde","lat":15.26367,"lon":-12.86821,"population":7816},{"id":2252606,"name":"Diawara","ascii":"Diawara","lat":15.02196,"lon":-12.54374,"population":7541},{"id":2247994,"name":"Ndiagne","ascii":"Ndiagne","lat":15.4094,"lon":-16.0707,"population":7496},{"id":2252804,"name":"Ndiamakouta","ascii":"Ndiamakouta","lat":13.31667,"lon":-15.63333,"population":7179},{"id":2251750,"name":"Gaé","ascii":"Gae","lat":16.56667,"lon":-15.45,"population":7148},{"id":2253844,"name":"Birkelane","ascii":"Birkelane","lat":14.12933,"lon":-15.74409,"population":7011},{"id":2245666,"name":"Sémé","ascii":"Seme","lat":15.19422,"lon":-12.94482,"population":6891},{"id":2251473,"name":"Goudiry","ascii":"Goudiry","lat":14.18146,"lon":-12.71803,"population":6867},{"id":2251791,"name":"Foundiougne","ascii":"Foundiougne","lat":14.12272,"lon":-16.46916,"population":6824},{"id":2253522,"name":"Bounkiling","ascii":"Bounkiling","lat":13.05,"lon":-15.7,"population":6416},{"id":2251544,"name":"Goléré","ascii":"Golere","lat":16.25575,"lon":-14.10165,"population":6373},{"id":2253408,"name":"Dabo","ascii":"Dabo","lat":12.88333,"lon":-14.48333,"population":6069},{"id":2247108,"name":"Odobéré","ascii":"Odobere","lat":15.56142,"lon":-13.09862,"population":6029},{"id":2252336,"name":"Diouloulou","ascii":"Diouloulou","lat":13.05,"lon":-16.6,"population":5920},{"id":2251327,"name":"Guédé","ascii":"Guede","lat":16.53839,"lon":-14.80412,"population":5600},{"id":2245222,"name":"Somone","ascii":"Somone","lat":14.48649,"lon":-17.07524,"population":5448},{"id":2253037,"name":"Dembankané","ascii":"Dembankane","lat":15.08893,"lon":-12.6998,"population":5293},{"id":2251713,"name":"Galoya Toucouleur","ascii":"Galoya Toucouleur","lat":16.07397,"lon":-13.85894,"population":5288},{"id":2245151,"name":"Soum","ascii":"Soum","lat":14.08179,"lon":-16.48127,"population":5044},{"id":2248507,"name":"Mbouba","ascii":"Mbouba","lat":16.19002,"lon":-14.01562,"population":4896},{"id":2245186,"name":"Soubalo Mbouba","ascii":"Soubalo Mbouba","lat":16.20055,"lon":-14.01081,"population":4896},{"id":2246322,"name":"Samine Escale","ascii":"Samine Escale","lat":12.49417,"lon":-15.63139,"population":4848},{"id":11072095,"name":"Ndiandane","ascii":"Ndiandane","lat":16.5924,"lon":-14.99152,"population":4839},{"id":2244979,"name":"Tanaf","ascii":"Tanaf","lat":12.64972,"lon":-15.42611,"population":4831},{"id":2246901,"name":"Oussouye","ascii":"Oussouye","lat":12.485,"lon":-16.54694,"population":4828},{"id":2246431,"name":"Salémata","ascii":"Salemata","lat":12.6285,"lon":-12.8166,"population":4752},{"id":2252899,"name":"Diakhao","ascii":"Diakhao","lat":14.46317,"lon":-16.28943,"population":4398},{"id":2252615,"name":"Diattakounda","ascii":"Diattakounda","lat":12.56972,"lon":-15.68417,"population":4356},{"id":2248512,"name":"Mbos","ascii":"Mbos","lat":14.36484,"lon":-15.74584,"population":4347},{"id":2248508,"name":"Mbos Ndiamb","ascii":"MbosNdiamb","lat":14.46829,"lon":-16.06702,"population":4347},{"id":2249677,"name":"Kotiari","ascii":"Kotiari","lat":13.9,"lon":-13.45,"population":4243},{"id":2246717,"name":"Pété","ascii":"Pete","lat":16.10798,"lon":-13.94973,"population":4211},{"id":2251936,"name":"Fas","ascii":"Fas","lat":14.35379,"lon":-16.03434,"population":3904},{"id":2245673,"name":"Sélikénié","ascii":"Selikenie","lat":12.7,"lon":-14.73333,"population":3677},{"id":2245762,"name":"Saré Yoba Diéga","ascii":"Sare Yoba Diega","lat":12.76583,"lon":-15.1075,"population":3551},{"id":6620952,"name":"Warang","ascii":"Warang","lat":14.37349,"lon":-16.94366,"population":3500},{"id":2247062,"name":"Oualaldé","ascii":"Oualalde","lat":16.50625,"lon":-14.20368,"population":3224},{"id":2245591,"name":"Séndou","ascii":"Sendou","lat":14.67193,"lon":-17.2048,"population":3125},{"id":2246772,"name":"Pata","ascii":"Pata","lat":13.43333,"lon":-14.95,"population":3118},{"id":2252737,"name":"Diana Malari","ascii":"Diana Malari","lat":12.84833,"lon":-15.24972,"population":3066},{"id":2252564,"name":"Démèt","ascii":"Demet","lat":16.56442,"lon":-14.28065,"population":3042},{"id":11497858,"name":"Demette","ascii":"Demette","lat":16.56759,"lon":-14.2796,"population":3042},{"id":2246585,"name":"Ranérou","ascii":"Ranerou","lat":15.3,"lon":-13.96667,"population":3027},{"id":2248412,"name":"Médina-Yorofoula","ascii":"Medina-Yorofoula","lat":13.3,"lon":-14.71667,"population":3000},{"id":2246641,"name":"Polel Diaoubé","ascii":"Polel Diaoube","lat":15.26667,"lon":-13,"population":3000},{"id":2246188,"name":"Saraya","ascii":"Saraya","lat":12.83167,"lon":-11.75381,"population":2726},{"id":2253805,"name":"Bodé","ascii":"Bode","lat":16.44434,"lon":-14.35229,"population":2466},{"id":2254762,"name":"Adéane","ascii":"Adeane","lat":12.63,"lon":-16.01694,"population":2115},{"id":2248910,"name":"Malèm Niani","ascii":"Malem Niani","lat":13.93333,"lon":-14.3,"population":2080},{"id":7302183,"name":"Cap Skirring","ascii":"Cap Skirring","lat":12.35011,"lon":-16.71707,"population":1822},{"id":2248563,"name":"Mbeuleukhé","ascii":"Mbeuleukhe","lat":15.6487,"lon":-15.3492,"population":1510}]