[{"id":2410763,"name":"São Tomé","nameKo":"상투메","ascii":"Sao Tome","lat":0.33756,"lon":6.7299,"population":53300},{"id":2410972,"name":"Neves","ascii":"Neves","lat":0.35671,"lon":6.54897,"population":8391},{"id":2411305,"name":"Água Izé","ascii":"Agua Ize","lat":0.21953,"lon":6.72782,"population":7445},{"id":11204006,"name":"Folha Fede","ascii":"Folha Fede","lat":0.284,"lon":6.684,"population":6685},{"id":11204197,"name":"Riboque","ascii":"Riboque","lat":0.33525,"lon":6.72318,"population":4640},{"id":12718718,"name":"Almas","ascii":"Almas","lat":0.29907,"lon":6.74467,"population":4601},{"id":12718734,"name":"Pantufo","ascii":"Pantufo","lat":0.31503,"lon":6.74348,"population":3977},{"id":2411155,"name":"Dona Eugénia","ascii":"Dona Eugenia","lat":0.13982,"lon":6.61121,"population":3605},{"id":11204105,"name":"São Marçal","ascii":"Sao Marcal","lat":0.31917,"lon":6.72608,"population":2866},{"id":2410849,"name":"Rosema","ascii":"Rosema","lat":0.3509,"lon":6.56948,"population":2587},{"id":11204142,"name":"Agua Porca","ascii":"Agua Porca","lat":0.33086,"lon":6.71058,"population":2048},{"id":2411244,"name":"Bombom","ascii":"Bombom","lat":0.31075,"lon":6.72816,"population":1754},{"id":11204020,"name":"Almeirim","ascii":"Almeirim","lat":0.31666,"lon":6.71666,"population":1591},{"id":13151892,"name":"Piedade","ascii":"Piedade","lat":0.29581,"lon":6.66424,"population":1408},{"id":11204288,"name":"Micolo","ascii":"Micolo","lat":0.40314,"lon":6.68857,"population":1404},{"id":2410860,"name":"Ribeira Afonso","ascii":"Ribeira Afonso","lat":0.196,"lon":6.701,"population":1300},{"id":12718722,"name":"Changra","ascii":"Changra","lat":0.34985,"lon":6.68657,"population":1224},{"id":2410805,"name":"Santo António","nameKo":"산투안토니우","ascii":"Santo Antonio","lat":1.63943,"lon":7.41951,"population":1156},{"id":2411049,"name":"Lemos","ascii":"Lemos","lat":0.29922,"lon":6.69847,"population":1136},{"id":2410809,"name":"Santo Amaro","ascii":"Santo Amaro","lat":0.36574,"lon":6.68855,"population":1063},{"id":12718723,"name":"Cova Barro","ascii":"Cova Barro","lat":0.31499,"lon":6.7383,"population":1026},{"id":12718729,"name":"Micondo","ascii":"Micondo","lat":0.17121,"lon":6.67729,"population":1022},{"id":11204596,"name":"Riboque Santana","ascii":"Riboque Santana","lat":0.24745,"lon":6.7369,"population":1001},{"id":2411102,"name":"Guadalupe","ascii":"Guadalupe","lat":0.37917,"lon":6.6375,"population":0},{"id":2410788,"name":"São João dos Angolares","ascii":"Sao Joao dos Angolares","lat":0.13417,"lon":6.64944,"population":0},{"id":2410737,"name":"Trindade","ascii":"Trindade","lat":0.29667,"lon":6.68139,"population":0}]