[{"id":2427123,"name":"N'Djamena","nameKo":"은자메나","ascii":"N'Djamena","lat":12.10672,"lon":15.0444,"population":1359526},{"id":2427455,"name":"Moundou","nameKo":"문두","ascii":"Moundou","lat":8.57437,"lon":16.07722,"population":196124},{"id":245785,"name":"Abéché","nameKo":"아베셰","ascii":"Abeche","lat":13.82916,"lon":20.8324,"population":139983},{"id":2425791,"name":"Sarh","ascii":"Sarh","lat":9.14555,"lon":18.38331,"population":138928},{"id":2430506,"name":"Kelo","ascii":"Kelo","lat":9.30859,"lon":15.80658,"population":82677},{"id":245338,"name":"Am Timan","ascii":"Am Timan","lat":11.0433,"lon":20.28342,"population":74691},{"id":2433437,"name":"Doba","ascii":"Doba","lat":8.66389,"lon":16.85324,"population":70942},{"id":2426240,"name":"Pala","ascii":"Pala","lat":9.3646,"lon":14.90725,"population":70677},{"id":2434910,"name":"Bongor","ascii":"Bongor","lat":10.28088,"lon":15.37425,"population":63699},{"id":243787,"name":"Goz Beida","ascii":"Goz Beida","lat":12.22643,"lon":21.40983,"population":58941},{"id":2429605,"name":"Koumra","ascii":"Koumra","lat":8.91587,"lon":17.55046,"population":54109},{"id":2427637,"name":"Mongo","ascii":"Mongo","lat":12.18514,"lon":18.6884,"population":53768},{"id":2434979,"name":"Bol","ascii":"Bol","lat":13.46729,"lon":14.71352,"population":51389},{"id":2428394,"name":"Mao","ascii":"Mao","lat":14.12286,"lon":15.31189,"population":50681},{"id":2434011,"name":"Déressia","ascii":"Deressia","lat":9.7602,"lon":16.2698,"population":50113},{"id":243590,"name":"Iriba","ascii":"Iriba","lat":15.11667,"lon":22.25,"population":47972},{"id":2432678,"name":"Faya-Largeau","ascii":"Faya-Largeau","lat":17.9257,"lon":19.10428,"population":44011},{"id":2435124,"name":"Bitkine","ascii":"Bitkine","lat":11.9801,"lon":18.2138,"population":41871},{"id":2435854,"name":"Bébédja","ascii":"Bebedja","lat":8.6761,"lon":16.566,"population":40289},{"id":2428228,"name":"Massakory","ascii":"Massakory","lat":12.99809,"lon":15.73195,"population":39944},{"id":2426370,"name":"Umm Hājar","ascii":"Umm Hajar","lat":13.2954,"lon":19.6966,"population":37941},{"id":2427336,"name":"Moussoro","ascii":"Moussoro","lat":13.64436,"lon":16.48954,"population":35100},{"id":244878,"name":"Biltine","ascii":"Biltine","lat":14.52727,"lon":20.92603,"population":33540},{"id":2429158,"name":"Léré","ascii":"Lere","lat":9.6447,"lon":14.2151,"population":32721},{"id":2432639,"name":"Fianga","ascii":"Fianga","lat":9.9146,"lon":15.1399,"population":31668},{"id":2431907,"name":"Goré","ascii":"Gore","lat":8.65,"lon":16.51667,"population":30936},{"id":2436400,"name":"Ati","ascii":"Ati","lat":13.2138,"lon":18.3393,"population":29867},{"id":9534257,"name":"Amdjarass","ascii":"Amdjarass","lat":16.06666,"lon":22.83536,"population":29793},{"id":2431724,"name":"Gounou Gaya","ascii":"Gounou Gaya","lat":9.6294,"lon":15.5132,"population":29742},{"id":2428231,"name":"Massaguet","ascii":"Massaguet","lat":12.47554,"lon":15.43647,"population":28401},{"id":2429296,"name":"Laï","ascii":"Lai","lat":9.3972,"lon":16.30066,"population":27071},{"id":2434985,"name":"Bokoro","ascii":"Bokoro","lat":12.37813,"lon":17.05876,"population":26095},{"id":2431573,"name":"Guelendeng","ascii":"Guelendeng","lat":10.91762,"lon":15.55011,"population":23320},{"id":2429344,"name":"Kyabé","ascii":"Kyabe","lat":9.45149,"lon":18.94493,"population":22806},{"id":245669,"name":"Adré","ascii":"Adre","lat":13.46648,"lon":22.19875,"population":21950},{"id":2428281,"name":"Maro","ascii":"Maro","lat":9.22349,"lon":17.71018,"population":21274},{"id":2428480,"name":"Mandelia","ascii":"Mandelia","lat":11.73017,"lon":15.24468,"population":19373},{"id":2433055,"name":"Dourbali","ascii":"Dourbali","lat":11.80617,"lon":15.8669,"population":18604},{"id":2435508,"name":"Benoy","ascii":"Benoy","lat":8.98327,"lon":16.31991,"population":17285},{"id":2427697,"name":"Moïssala","nameKo":"모이살사","ascii":"Moissala","lat":8.3404,"lon":17.7663,"population":17281},{"id":244128,"name":"Fada","ascii":"Fada","lat":17.19186,"lon":21.58081,"population":17240},{"id":2428042,"name":"Mboursou Léré","ascii":"Mboursou Lere","lat":9.7639,"lon":14.1539,"population":17132},{"id":2434584,"name":"Bousso","ascii":"Bousso","lat":10.48473,"lon":16.71076,"population":16732},{"id":2428450,"name":"Mangalmé","ascii":"Mangalme","lat":12.3546,"lon":19.6139,"population":15939},{"id":2435779,"name":"Bédiondo","ascii":"Bediondo","lat":8.62891,"lon":17.18643,"population":15841},{"id":2435474,"name":"Béré","ascii":"Bere","lat":9.3202,"lon":16.1552,"population":15431},{"id":2436212,"name":"Baïbokoum","ascii":"Baibokoum","lat":7.74231,"lon":15.68999,"population":13217},{"id":2427034,"name":"Ngama","ascii":"Ngama","lat":11.78729,"lon":17.15925,"population":13087},{"id":2427949,"name":"Melfi","ascii":"Melfi","lat":11.0598,"lon":17.9355,"population":12924},{"id":2435708,"name":"Beïnamar","ascii":"Beinamar","lat":8.6698,"lon":15.3813,"population":12901},{"id":2427036,"name":"Ngama","ascii":"Ngama","lat":11.78333,"lon":17.16667,"population":12438},{"id":2429359,"name":"Krim Krim","ascii":"Krim Krim","lat":8.97225,"lon":15.80359,"population":11294},{"id":2437601,"name":"Abou Déïa","ascii":"Abou Deia","lat":11.448,"lon":19.2789,"population":10749},{"id":2431736,"name":"Goundi","ascii":"Goundi","lat":9.36267,"lon":17.36597,"population":10577},{"id":2426904,"name":"Ngouri","ascii":"Ngouri","lat":8.5135,"lon":16.00682,"population":10487},{"id":242179,"name":"Ounianga Kébir","ascii":"Ounianga Kebir","lat":19.05263,"lon":20.48887,"population":10000},{"id":2435060,"name":"Bodo","ascii":"Bodo","lat":11.78701,"lon":15.71496,"population":9598},{"id":12640347,"name":"Kirdimi","ascii":"Kirdimi","lat":18.15223,"lon":18.5385,"population":9345},{"id":2435837,"name":"Béboto","ascii":"Beboto","lat":8.26681,"lon":16.93898,"population":9321},{"id":245791,"name":"Abdi","ascii":"Abdi","lat":12.8,"lon":21.3,"population":9190},{"id":8299879,"name":"Haraze","ascii":"Haraze","lat":9.93969,"lon":20.90524,"population":8799},{"id":2426784,"name":"Nokou","ascii":"Nokou","lat":14.57901,"lon":14.7793,"population":8792},{"id":245501,"name":"Am Dam","ascii":"Am Dam","lat":12.76667,"lon":20.48333,"population":7729},{"id":2424324,"name":"Yao","ascii":"Yao","lat":12.8488,"lon":17.55656,"population":7639},{"id":2425906,"name":"Salal","ascii":"Salal","lat":14.8439,"lon":17.2254,"population":7139},{"id":243760,"name":"Guéréda","ascii":"Guereda","lat":14.51667,"lon":22.08333,"population":6598},{"id":2428216,"name":"Massenya","ascii":"Massenya","lat":11.40345,"lon":16.17037,"population":4611},{"id":2435976,"name":"Bardaï","ascii":"Bardai","lat":21.35468,"lon":17.00158,"population":4078},{"id":2436628,"name":"Aozou","ascii":"Aozou","lat":21.8375,"lon":17.4275,"population":1880},{"id":2427640,"name":"Mondo","ascii":"Mondo","lat":13.78224,"lon":15.5352,"population":1608},{"id":243783,"name":"Goz Béïda","ascii":"Goz Beida","lat":13.94563,"lon":20.5468,"population":1500},{"id":2424015,"name":"Zouar","ascii":"Zouar","lat":20.45833,"lon":16.52778,"population":1237}]