[{"id":2365267,"name":"Lomé","nameKo":"로메","ascii":"Lome","lat":6.12874,"lon":1.22154,"population":2188376},{"id":2364104,"name":"Sokodé","nameKo":"소코데","ascii":"Sokode","lat":8.98333,"lon":1.13333,"population":117811},{"id":2366152,"name":"Kara","ascii":"Kara","lat":9.55111,"lon":1.18611,"population":104207},{"id":2367886,"name":"Atakpamé","nameKo":"아타크파메","ascii":"Atakpame","lat":7.53333,"lon":1.13333,"population":80683},{"id":2365560,"name":"Kpalimé","ascii":"Kpalime","lat":6.9,"lon":0.63333,"population":75084},{"id":2367568,"name":"Bassar","ascii":"Bassar","lat":9.25025,"lon":0.78213,"population":61845},{"id":2367164,"name":"Dapaong","nameKo":"다파옹","ascii":"Dapaong","lat":10.86225,"lon":0.20762,"population":58071},{"id":2363534,"name":"Tsévié","nameKo":"체비에","ascii":"Tsevie","lat":6.42611,"lon":1.21333,"population":55775},{"id":2367990,"name":"Aného","nameKo":"아네호","ascii":"Aneho","lat":6.22798,"lon":1.5919,"population":47579},{"id":2365190,"name":"Mango","ascii":"Mango","lat":10.35917,"lon":0.47083,"population":37748},{"id":2367981,"name":"Anié","ascii":"Anie","lat":7.75,"lon":1.2,"population":37398},{"id":2364752,"name":"Notsé","ascii":"Notse","lat":6.95,"lon":1.16667,"population":35039},{"id":2367226,"name":"Sinkassé","ascii":"Sinkasse","lat":11.10389,"lon":0.00944,"population":26926},{"id":2363908,"name":"Tchamba","ascii":"Tchamba","lat":9.03333,"lon":1.41667,"population":25668},{"id":2364079,"name":"Sotouboua","ascii":"Sotouboua","lat":8.5634,"lon":0.98399,"population":24332},{"id":2367660,"name":"Badou","ascii":"Badou","lat":7.58333,"lon":0.6,"population":24000},{"id":2364812,"name":"Niamtougou","nameKo":"니암투구","ascii":"Niamtougou","lat":9.76806,"lon":1.10528,"population":23261},{"id":2367656,"name":"Bafilo","ascii":"Bafilo","lat":9.35,"lon":1.26667,"population":22543},{"id":2364041,"name":"Tabligbo","ascii":"Tabligbo","lat":6.58333,"lon":1.5,"population":22304},{"id":2363490,"name":"Vogan","ascii":"Vogan","lat":6.33333,"lon":1.53333,"population":20569},{"id":2366168,"name":"Kandé","ascii":"Kande","lat":9.95778,"lon":1.04472,"population":12970},{"id":2368035,"name":"Amlamé","ascii":"Amlame","lat":7.46667,"lon":0.9,"population":9870},{"id":2367423,"name":"Blitta","ascii":"Blitta","lat":8.32335,"lon":0.98595,"population":9735},{"id":2366445,"name":"Guérin-Kouka","ascii":"Guerin-Kouka","lat":9.69056,"lon":0.61139,"population":9570},{"id":2368490,"name":"Afanyangan","ascii":"Afanyangan","lat":6.48333,"lon":1.65,"population":8912},{"id":2368574,"name":"Adéta","ascii":"Adeta","lat":7.13333,"lon":0.73333,"population":8499},{"id":2365571,"name":"Pagouda","ascii":"Pagouda","lat":9.7525,"lon":1.32778,"population":7686},{"id":2363669,"name":"Tohoun","ascii":"Tohoun","lat":7.03333,"lon":1.61667,"population":6767},{"id":2366775,"name":"Elavagnon","ascii":"Elavagnon","lat":7.28333,"lon":0.71667,"population":6680},{"id":2365673,"name":"Kouniohou","ascii":"Kouniohou","lat":7.66667,"lon":0.8,"population":5979},{"id":13132463,"name":"Danyi-Apéyémé","ascii":"Danyi-Apeyeme","lat":7.20365,"lon":0.69563,"population":5850},{"id":2365195,"name":"Mandouri","ascii":"Mandouri","lat":10.85,"lon":0.81667,"population":5203},{"id":2368301,"name":"Agou Gadzépé","ascii":"Agou Gadzepe","lat":6.88333,"lon":0.73333,"population":4485},{"id":2366041,"name":"Kévé","ascii":"Keve","lat":6.43333,"lon":0.93333,"population":4441},{"id":2363975,"name":"Tandjouaré","ascii":"Tandjouare","lat":10.65583,"lon":0.195,"population":1671}]