[{"id":1221874,"name":"Dushanbe","nameKo":"두샨베","ascii":"Dushanbe","lat":38.53575,"lon":68.77905,"population":679400},{"id":1514896,"name":"Isfara","nameKo":"이스파라","ascii":"Isfara","lat":40.12649,"lon":70.62526,"population":274000},{"id":1220253,"name":"Istaravshan","nameKo":"이스트라브샨","ascii":"Istaravshan","lat":39.9142,"lon":69.00328,"population":273500},{"id":1221194,"name":"Kŭlob","ascii":"Kulob","lat":37.91459,"lon":69.78454,"population":214700},{"id":1514891,"name":"Konibodom","nameKo":"코니보돔","ascii":"Konibodom","lat":40.29414,"lon":70.43122,"population":211100},{"id":1514879,"name":"Khujand","ascii":"Khujand","lat":40.28256,"lon":69.62216,"population":191000},{"id":1220747,"name":"Bokhtar","ascii":"Bokhtar","lat":37.83654,"lon":68.77762,"population":110800},{"id":1514883,"name":"Qayroqqum","ascii":"Qayroqqum","lat":40.26598,"lon":69.79585,"population":49200},{"id":1220855,"name":"Vahdat","ascii":"Vahdat","lat":38.55632,"lon":69.01354,"population":45693},{"id":1282601,"name":"Tursunzoda","nameKo":"투르순조다","ascii":"Tursunzoda","lat":38.51271,"lon":68.23163,"population":37000},{"id":1538311,"name":"Buston","ascii":"Buston","lat":40.23417,"lon":69.69481,"population":36900},{"id":1220798,"name":"Panjakent","nameKo":"판자켄트","ascii":"Panjakent","lat":39.49524,"lon":67.60931,"population":35085},{"id":1222175,"name":"Zarhalol","ascii":"Zarhalol","lat":37.46471,"lon":68.16947,"population":30689},{"id":1221328,"name":"Khorugh","ascii":"Khorugh","lat":37.49039,"lon":71.55337,"population":30500},{"id":1220981,"name":"Muchun","ascii":"Muchun","lat":39.88148,"lon":69.18219,"population":27835},{"id":1221614,"name":"Ishqoshim","ascii":"Ishqoshim","lat":36.72484,"lon":71.61331,"population":26000},{"id":1221714,"name":"Hisor","ascii":"Hisor","lat":38.52504,"lon":68.55124,"population":23978},{"id":1222107,"name":"Boshkengash","ascii":"Boshkengash","lat":38.46613,"lon":68.80533,"population":23696},{"id":1221970,"name":"Dalyoni Bolo","ascii":"Dalyoni Bolo","lat":39.74897,"lon":68.99566,"population":23670},{"id":1221965,"name":"Danghara","ascii":"Danghara","lat":38.09578,"lon":69.33998,"population":22824},{"id":8416817,"name":"Moskovskiy","ascii":"Moskovskiy","lat":37.60931,"lon":68.58094,"population":22100},{"id":1220826,"name":"Farkhor","ascii":"Farkhor","lat":37.49219,"lon":69.40356,"population":21736},{"id":1220163,"name":"Hulbuk","ascii":"Hulbuk","lat":37.80542,"lon":69.64516,"population":21736},{"id":1221997,"name":"Chubek","ascii":"Chubek","lat":37.61453,"lon":69.70525,"population":19563},{"id":1221259,"name":"Kolkhozobod","ascii":"Kolkhozobod","lat":37.58823,"lon":68.65886,"population":18476},{"id":1220905,"name":"Norak","ascii":"Norak","lat":38.38917,"lon":69.32272,"population":18122},{"id":1514829,"name":"Istiqlol","ascii":"Istiqlol","lat":40.57017,"lon":69.64175,"population":17600},{"id":1220112,"name":"Yovon","ascii":"Yovon","lat":38.31408,"lon":69.03784,"population":17471},{"id":1514839,"name":"Proletar","ascii":"Proletar","lat":40.16713,"lon":69.50163,"population":16441},{"id":1220219,"name":"Vakhsh","ascii":"Vakhsh","lat":37.71485,"lon":68.83456,"population":15215},{"id":1514856,"name":"Nov","ascii":"Nov","lat":40.1522,"lon":69.37076,"population":13833},{"id":1222286,"name":"Amondara","ascii":"Amondara","lat":39.51435,"lon":67.8108,"population":13380},{"id":1514929,"name":"Adrasmon","ascii":"Adrasmon","lat":40.64928,"lon":69.98472,"population":13372},{"id":1514913,"name":"Bŭston","ascii":"Buston","lat":40.52286,"lon":69.33307,"population":13043},{"id":1220576,"name":"Shahritus","ascii":"Shahritus","lat":37.26206,"lon":68.13849,"population":13042},{"id":1221091,"name":"Mŭ’minobod","ascii":"Mu'minobod","lat":38.10714,"lon":70.03213,"population":11955},{"id":1514921,"name":"Shaydon","ascii":"Shaydon","lat":40.66992,"lon":70.3502,"population":11705},{"id":1220962,"name":"Murghob","ascii":"Murghob","lat":38.17023,"lon":73.96674,"population":10815},{"id":1221740,"name":"Rasht","ascii":"Rasht","lat":39.02871,"lon":70.37446,"population":10771},{"id":1475852,"name":"Avzikent","ascii":"Avzikent","lat":37.80333,"lon":69.27722,"population":10373},{"id":1220920,"name":"Nijoní","ascii":"Nijoni","lat":39.95943,"lon":68.92421,"population":10350},{"id":1221136,"name":"Abdurahmoni Jomí","ascii":"Abdurahmoni Jomi","lat":37.94636,"lon":68.80878,"population":9943},{"id":1221344,"name":"Khodzha-Maston","ascii":"Khodzha-Maston","lat":38.74457,"lon":68.62702,"population":9781},{"id":1221871,"name":"Dŭstí","ascii":"Dusti","lat":37.34812,"lon":68.66398,"population":8700},{"id":1220446,"name":"Sovet","ascii":"Sovet","lat":38.0467,"lon":69.58822,"population":8695},{"id":1221748,"name":"Gharavŭtí","ascii":"Gharavuti","lat":37.56703,"lon":68.44668,"population":8474},{"id":1514844,"name":"Pakhtakoron","ascii":"Pakhtakoron","lat":40.15709,"lon":68.74659,"population":8220},{"id":1220750,"name":"Panj","ascii":"Panj","lat":37.23634,"lon":69.09911,"population":8019},{"id":13580001,"name":"20-solagii Istiḳlolijati Toçikiston","ascii":"20-solagii Istiklolijati Tocikiston","lat":37.54749,"lon":68.46055,"population":8000},{"id":1221135,"name":"Bokhtariyon","ascii":"Bokhtariyon","lat":37.88176,"lon":68.7297,"population":7900},{"id":1220701,"name":"Roghun","ascii":"Roghun","lat":38.78257,"lon":69.87081,"population":7731},{"id":1221297,"name":"Kirov","ascii":"Kirov","lat":37.81908,"lon":68.85905,"population":7696},{"id":1220888,"name":"Obigarm","ascii":"Obigarm","lat":38.71731,"lon":69.70885,"population":7400},{"id":1222007,"name":"Chorbogh","ascii":"Chorbogh","lat":39.42621,"lon":67.76025,"population":6357},{"id":1220324,"name":"Tavildara","ascii":"Tavildara","lat":38.69529,"lon":70.48422,"population":6071},{"id":1514889,"name":"Konsoy","ascii":"Konsoy","lat":40.49155,"lon":69.70245,"population":6000},{"id":1220853,"name":"Orzu","ascii":"Orzu","lat":37.5582,"lon":68.81952,"population":5988},{"id":1220628,"name":"Sarikhosor","ascii":"Sarikhosor","lat":38.53852,"lon":69.83077,"population":5894},{"id":1221808,"name":"Jilikŭl","ascii":"Jilikul","lat":37.49167,"lon":68.53106,"population":5434},{"id":1220566,"name":"Shahrinav","ascii":"Shahrinav","lat":38.57085,"lon":68.33498,"population":5385},{"id":1220936,"name":"Novobod","ascii":"Novobod","lat":39.01084,"lon":70.15082,"population":5352},{"id":1220910,"name":"Panji Poyon","ascii":"Panji Poyon","lat":37.19443,"lon":68.57721,"population":5303},{"id":1222085,"name":"Bŭstonqal’a","ascii":"Bustonqal'a","lat":37.84783,"lon":68.83125,"population":4900},{"id":1514925,"name":"Oltintopkan","ascii":"Oltintopkan","lat":40.65425,"lon":69.59811,"population":4823},{"id":1514852,"name":"Neftobod","ascii":"Neftobod","lat":40.21524,"lon":70.57193,"population":4603},{"id":1222009,"name":"Boshchorbogh","ascii":"Boshchorbogh","lat":37.52027,"lon":68.12825,"population":4237},{"id":1220685,"name":"Rŭshon","ascii":"Rushon","lat":37.94487,"lon":71.55745,"population":4031},{"id":13513025,"name":"Shhriston","ascii":"Shhriston","lat":38.55571,"lon":68.98987,"population":4029},{"id":1220164,"name":"Vorukh","ascii":"Vorukh","lat":39.85125,"lon":70.58012,"population":3836},{"id":1514870,"name":"Quruqsoy","ascii":"Quruqsoy","lat":40.57648,"lon":69.37962,"population":3400},{"id":1514843,"name":"Palos","ascii":"Palos","lat":40.31628,"lon":69.73743,"population":3288},{"id":1514831,"name":"Shŭrob","ascii":"Shurob","lat":40.04605,"lon":70.54117,"population":2900},{"id":1221494,"name":"Karakenja","ascii":"Karakenja","lat":39.23585,"lon":71.52412,"population":2899},{"id":1220210,"name":"Vanj","ascii":"Vanj","lat":38.37078,"lon":71.45474,"population":2636},{"id":1220401,"name":"Tagob","ascii":"Tagob","lat":38.83827,"lon":68.89847,"population":2565},{"id":1220380,"name":"Tartiki","ascii":"Tartiki","lat":37.58221,"lon":68.13347,"population":2342},{"id":1514814,"name":"Zarxoq","ascii":"Zarxoq","lat":40.26665,"lon":70.56596,"population":2216},{"id":1220197,"name":"Varzob","ascii":"Varzob","lat":38.77369,"lon":68.81776,"population":2154},{"id":1222222,"name":"Ayní","ascii":"Ayni","lat":39.39406,"lon":68.53766,"population":2128},{"id":1221559,"name":"Qalaikhumb","ascii":"Qalaikhumb","lat":38.45373,"lon":70.78902,"population":1611},{"id":1514877,"name":"Kim","ascii":"Kim","lat":40.20798,"lon":70.46882,"population":1600},{"id":1221250,"name":"Darband","ascii":"Darband","lat":38.86776,"lon":69.96642,"population":1115},{"id":1475483,"name":"Bahorí","ascii":"Bahori","lat":37.40195,"lon":67.99446,"population":0},{"id":1222192,"name":"Baljuvon","ascii":"Baljuvon","lat":38.30838,"lon":69.67672,"population":0},{"id":1221774,"name":"Fayzobod","ascii":"Fayzobod","lat":38.54731,"lon":69.3198,"population":0},{"id":1514900,"name":"Ghafurov","ascii":"Ghafurov","lat":40.21571,"lon":69.72867,"population":0},{"id":1221758,"name":"Ghonchí","ascii":"Ghonchi","lat":39.96238,"lon":69.12966,"population":0},{"id":1220862,"name":"Ismoili Somoní","ascii":"Ismoili Somoni","lat":37.76627,"lon":68.80126,"population":0},{"id":1221802,"name":"Jirghatol","ascii":"Jirghatol","lat":39.21966,"lon":71.19155,"population":0},{"id":1221321,"name":"Khovaling","ascii":"Khovaling","lat":38.34194,"lon":69.97531,"population":0},{"id":1221549,"name":"Levakant","ascii":"Levakant","lat":37.87136,"lon":68.92233,"population":0},{"id":8217253,"name":"Mehron","ascii":"Mehron","lat":39.41691,"lon":69.28677,"population":0},{"id":1220988,"name":"Moskva","ascii":"Moskva","lat":37.66101,"lon":69.62849,"population":0},{"id":1220883,"name":"Obikiik","ascii":"Obikiik","lat":38.16033,"lon":68.66605,"population":0},{"id":1221583,"name":"Qubodiyon","ascii":"Qubodiyon","lat":37.40973,"lon":68.18644,"population":0},{"id":1346374,"name":"Roghun","ascii":"Roghun","lat":38.69331,"lon":69.73692,"population":0},{"id":1220694,"name":"Roshtqal’a","ascii":"Roshtqal'a","lat":37.25827,"lon":71.82591,"population":0},{"id":1220571,"name":"Shahriston","ascii":"Shahriston","lat":39.77447,"lon":68.80929,"population":0},{"id":1220479,"name":"Shŭrobod","ascii":"Shurobod","lat":37.84137,"lon":70.04865,"population":0},{"id":1221089,"name":"Somoniyon","ascii":"Somoniyon","lat":38.44173,"lon":68.77458,"population":0},{"id":1220416,"name":"Tajikobod","ascii":"Tajikobod","lat":39.12405,"lon":70.84009,"population":0},{"id":1514815,"name":"Zafarobod","ascii":"Zafarobod","lat":40.17603,"lon":68.84679,"population":0}]