[{"id":1645457,"name":"Dili","nameKo":"딜리","ascii":"Dili","lat":-8.55861,"lon":125.57361,"population":150000},{"id":1636670,"name":"Maliana","nameKo":"말리아나","ascii":"Maliana","lat":-8.99167,"lon":125.21972,"population":22000},{"id":1626459,"name":"Suai","ascii":"Suai","lat":-9.31286,"lon":125.25648,"population":21539},{"id":1637730,"name":"Likisá","ascii":"Likisa","lat":-8.5875,"lon":125.34194,"population":19000},{"id":1651816,"name":"Aileu","ascii":"Aileu","lat":-8.72806,"lon":125.56639,"population":17356},{"id":1937274,"name":"Lospalos","nameKo":"로스팔로스","ascii":"Lospalos","lat":-8.52167,"lon":126.99833,"population":17186},{"id":1635826,"name":"Maubara","ascii":"Maubara","lat":-8.61194,"lon":125.20611,"population":16300},{"id":1649539,"name":"Baukau","nameKo":"바우카우","ascii":"Baukau","lat":-8.47572,"lon":126.45633,"population":16000},{"id":1943235,"name":"Venilale","ascii":"Venilale","lat":-8.64306,"lon":126.37833,"population":16000},{"id":1651810,"name":"Ainaro","ascii":"Ainaro","lat":-8.99241,"lon":125.50816,"population":12000},{"id":1635814,"name":"Atauro","ascii":"Atauro","lat":-8.26667,"lon":125.60139,"population":9274},{"id":1942811,"name":"Gleno","nameKo":"글레누","ascii":"Gleno","lat":-8.72389,"lon":125.43611,"population":8133},{"id":1623886,"name":"Tilomar","ascii":"Tilomar","lat":-9.34001,"lon":125.11278,"population":7885},{"id":1628926,"name":"Same","ascii":"Same","lat":-9.00417,"lon":125.64861,"population":7500},{"id":1622471,"name":"Viqueque","nameKo":"비케케","ascii":"Viqueque","lat":-8.8575,"lon":126.36472,"population":6078},{"id":1649996,"name":"Barique","ascii":"Barique","lat":-8.83333,"lon":126.06667,"population":5438},{"id":1632533,"name":"Pante Makasar","ascii":"Pante Makasar","lat":-9.2,"lon":124.38333,"population":4730},{"id":1944181,"name":"Fohorem","ascii":"Fohorem","lat":-9.28361,"lon":125.08944,"population":4086},{"id":1943194,"name":"Dare","ascii":"Dare","lat":-8.59273,"lon":125.571,"population":4052},{"id":1635288,"name":"Metinaro","ascii":"Metinaro","lat":-8.53007,"lon":125.74163,"population":4000},{"id":1942993,"name":"Tutuala","ascii":"Tutuala","lat":-8.3938,"lon":127.25544,"population":3707},{"id":1638295,"name":"Lautem","ascii":"Lautem","lat":-8.36423,"lon":126.90438,"population":3157},{"id":1945361,"name":"Luro","ascii":"Luro","lat":-8.54333,"lon":126.83306,"population":2839},{"id":8643023,"name":"Irabin de Baixo","ascii":"Irabin de Baixo","lat":-8.74861,"lon":126.69694,"population":2454},{"id":1943145,"name":"Aissirimou","ascii":"Aissirimou","lat":-8.72607,"lon":125.57146,"population":2192},{"id":1637754,"name":"Lifau","ascii":"Lifau","lat":-9.20279,"lon":124.30879,"population":1938},{"id":8629790,"name":"Lifau","ascii":"Lifau","lat":-9.20418,"lon":124.31447,"population":1938},{"id":1636526,"name":"Manatutu","ascii":"Manatutu","lat":-8.51139,"lon":126.01306,"population":1924}]