[{"id":160263,"name":"Dar es Salaam","nameKo":"다르에스살람","ascii":"Dar es Salaam","lat":-6.82349,"lon":39.26951,"population":5383728},{"id":152224,"name":"Mwanza","nameKo":"므완자","ascii":"Mwanza","lat":-2.51667,"lon":32.9,"population":1104521},{"id":160196,"name":"Dodoma","nameKo":"도도마","ascii":"Dodoma","lat":-6.17221,"lon":35.73947,"population":765179},{"id":148730,"name":"Zanzibar","nameKo":"잔지바르시티","ascii":"Zanzibar","lat":-6.16394,"lon":39.19793,"population":709809},{"id":161325,"name":"Arusha","ascii":"Arusha","lat":-3.36667,"lon":36.68333,"population":617631},{"id":154380,"name":"Mbeya","nameKo":"므베야","ascii":"Mbeya","lat":-8.9,"lon":33.45,"population":541603},{"id":153220,"name":"Morogoro","nameKo":"모로고로","ascii":"Morogoro","lat":-6.82102,"lon":37.66122,"population":471409},{"id":158597,"name":"Kahama","ascii":"Kahama","lat":-3.83333,"lon":32.6,"population":453654},{"id":149606,"name":"Tanga","nameKo":"탕가","ascii":"Tanga","lat":-5.06893,"lon":39.09875,"population":393429},{"id":159908,"name":"Geita","ascii":"Geita","lat":-2.8725,"lon":32.2325,"population":318006},{"id":149658,"name":"Tabora","nameKo":"타보라","ascii":"Tabora","lat":-5.01622,"lon":32.82663,"population":308741},{"id":149703,"name":"Sumbawanga","nameKo":"숨바왕가","ascii":"Sumbawanga","lat":-7.96667,"lon":31.61667,"population":303986},{"id":877401,"name":"Songea","nameKo":"송게아","ascii":"Songea","lat":-10.68333,"lon":35.65,"population":286285},{"id":158027,"name":"Kibaha","ascii":"Kibaha","lat":-6.76667,"lon":38.91667,"population":265360},{"id":161218,"name":"Bariadi","ascii":"Bariadi","lat":-2.8,"lon":33.98333,"population":260927},{"id":158214,"name":"Kasulu","ascii":"Kasulu","lat":-4.57667,"lon":30.1025,"population":238321},{"id":149879,"name":"Singida","ascii":"Singida","lat":-4.81629,"lon":34.74358,"population":232459},{"id":157738,"name":"Kigoma","nameKo":"키고마","ascii":"Kigoma","lat":-4.87694,"lon":29.62667,"population":232388},{"id":153209,"name":"Moshi","nameKo":"모시","ascii":"Moshi","lat":-3.35,"lon":37.33333,"population":221733},{"id":149402,"name":"Tunduma","ascii":"Tunduma","lat":-9.3,"lon":32.76667,"population":219309},{"id":159492,"name":"Ifakara","ascii":"Ifakara","lat":-8.13333,"lon":36.68333,"population":205843},{"id":153176,"name":"Mpanda","ascii":"Mpanda","lat":-6.34379,"lon":31.06951,"population":204338},{"id":159071,"name":"Iringa","nameKo":"이링가","ascii":"Iringa","lat":-7.76667,"lon":35.7,"population":202490},{"id":160892,"name":"Bunda","ascii":"Bunda","lat":-2.02153,"lon":33.87109,"population":182970},{"id":152451,"name":"Musoma","nameKo":"무소마","ascii":"Musoma","lat":-1.5,"lon":33.8,"population":164172},{"id":160961,"name":"Bukoba","nameKo":"부코바","ascii":"Bukoba","lat":-1.33167,"lon":31.81222,"population":144938},{"id":877747,"name":"Mtwara","nameKo":"므트와라","ascii":"Mtwara","lat":-10.26667,"lon":40.18333,"population":140793},{"id":150006,"name":"Shinyanga","nameKo":"시니앙가","ascii":"Shinyanga","lat":-3.66393,"lon":33.42118,"population":139727},{"id":149581,"name":"Tarime","ascii":"Tarime","lat":-1.35,"lon":34.36667,"population":133043},{"id":150930,"name":"Nzega","ascii":"Nzega","lat":-4.21667,"lon":33.18333,"population":125193},{"id":155101,"name":"Makumbako","ascii":"Makumbako","lat":-8.85,"lon":34.83333,"population":116232},{"id":150103,"name":"Sengerema","ascii":"Sengerema","lat":-2.66667,"lon":32.65,"population":110000},{"id":159675,"name":"Handeni","ascii":"Handeni","lat":-5.43333,"lon":38.01667,"population":108968},{"id":158151,"name":"Katumba","ascii":"Katumba","lat":-9.23333,"lon":33.61667,"population":108558},{"id":13132458,"name":"Mafinga","ascii":"Mafinga","lat":-8.30019,"lon":35.29366,"population":99305},{"id":878281,"name":"Lindi","nameKo":"린디","ascii":"Lindi","lat":-9.99709,"lon":39.71649,"population":95096},{"id":149129,"name":"Ushirombo","ascii":"Ushirombo","lat":-3.49194,"lon":31.96389,"population":95052},{"id":151479,"name":"Njombe","ascii":"Njombe","lat":-9.34917,"lon":34.77167,"population":92537},{"id":157403,"name":"Kilosa","ascii":"Kilosa","lat":-6.83333,"lon":36.98333,"population":91889},{"id":878058,"name":"Masasi","ascii":"Masasi","lat":-10.71667,"lon":38.8,"population":89700},{"id":148942,"name":"Vwawa","ascii":"Vwawa","lat":-9.10806,"lon":32.93472,"population":85000},{"id":161290,"name":"Bagamoyo","nameKo":"바가모요","ascii":"Bagamoyo","lat":-6.44222,"lon":38.90422,"population":82426},{"id":156510,"name":"Kondoa","ascii":"Kondoa","lat":-4.9,"lon":35.78333,"population":80443},{"id":158160,"name":"Katoro","ascii":"Katoro","lat":-2.99983,"lon":31.93261,"population":75000},{"id":148987,"name":"Vikindu","ascii":"Vikindu","lat":-7.00667,"lon":39.29849,"population":70000},{"id":161312,"name":"Babati","nameKo":"바바티","ascii":"Babati","lat":-4.21667,"lon":35.75,"population":67445},{"id":156479,"name":"Korogwe","ascii":"Korogwe","lat":-5.15,"lon":38.48333,"population":62032},{"id":877998,"name":"Mbinga","ascii":"Mbinga","lat":-10.93333,"lon":35.01667,"population":60868},{"id":149027,"name":"Uyovu","ascii":"Uyovu","lat":-3.28333,"lon":31.52583,"population":60849},{"id":160833,"name":"Buseresere","ascii":"Buseresere","lat":-3.04877,"lon":31.88542,"population":52870},{"id":160677,"name":"Chake Chake","ascii":"Chake Chake","lat":-5.24586,"lon":39.76659,"population":52047},{"id":13132456,"name":"Kibaigwa","ascii":"Kibaigwa","lat":-6.08125,"lon":36.64657,"population":50054},{"id":154654,"name":"Masumbwe","ascii":"Masumbwe","lat":-3.63333,"lon":32.18333,"population":50000},{"id":6640202,"name":"Merelani","ascii":"Merelani","lat":-3.56182,"lon":36.97895,"population":50000},{"id":149437,"name":"Tukuyu","ascii":"Tukuyu","lat":-9.25,"lon":33.65,"population":50000},{"id":149072,"name":"Utengule","ascii":"Utengule","lat":-8.9,"lon":33.33333,"population":50000},{"id":154321,"name":"Mbuguni","ascii":"Mbuguni","lat":-3.56667,"lon":36.95,"population":49801},{"id":877378,"name":"Tunduru","ascii":"Tunduru","lat":-11.06667,"lon":37.35,"population":48000},{"id":156111,"name":"Kyela","ascii":"Kyela","lat":-9.58333,"lon":33.85,"population":47000},{"id":154313,"name":"Mbulu","ascii":"Mbulu","lat":-3.85,"lon":35.53333,"population":45384},{"id":13132454,"name":"Diobahika","ascii":"Diobahika","lat":-3.33907,"lon":31.52344,"population":45000},{"id":159386,"name":"Igunga","ascii":"Igunga","lat":-4.28333,"lon":33.88333,"population":45000},{"id":159242,"name":"Ikwiriri","ascii":"Ikwiriri","lat":-7.95618,"lon":38.97164,"population":45000},{"id":13132460,"name":"Mwandege","ascii":"Mwandege","lat":-6.97558,"lon":39.2893,"population":45000},{"id":151920,"name":"Nansio","ascii":"Nansio","lat":-2.13333,"lon":33.05,"population":44000},{"id":150453,"name":"Rujewa","ascii":"Rujewa","lat":-8.7,"lon":34.38333,"population":42013},{"id":13132455,"name":"Dumila","ascii":"Dumila","lat":-6.38395,"lon":37.34331,"population":40000},{"id":159909,"name":"Geiro","ascii":"Geiro","lat":-6.15,"lon":36.86667,"population":40000},{"id":154805,"name":"Mapinga","ascii":"Mapinga","lat":-6.6,"lon":39.06667,"population":40000},{"id":153352,"name":"Mlowo","ascii":"Mlowo","lat":-9,"lon":32.98333,"population":40000},{"id":151986,"name":"Namanyere","ascii":"Namanyere","lat":-7.51667,"lon":31.05,"population":40000},{"id":151567,"name":"Nguruka","ascii":"Nguruka","lat":-5.10917,"lon":31.04194,"population":39135},{"id":877532,"name":"Newala Kisimani","ascii":"Newala Kisimani","lat":-10.95,"lon":39.28333,"population":38099},{"id":157863,"name":"Kidatu","ascii":"Kidatu","lat":-7.69916,"lon":36.95722,"population":37542},{"id":161100,"name":"Boma la Ngombe","ascii":"Boma la Ngombe","lat":-3.33333,"lon":37.15,"population":37538},{"id":157826,"name":"Kidodi","ascii":"Kidodi","lat":-7.60361,"lon":37.00438,"population":35953},{"id":148842,"name":"Wete","ascii":"Wete","lat":-5.05589,"lon":39.72938,"population":35951},{"id":153759,"name":"Misungwi","ascii":"Misungwi","lat":-2.85,"lon":33.08333,"population":35530},{"id":8549456,"name":"Magu","ascii":"Magu","lat":-2.59075,"lon":33.44619,"population":35000},{"id":153384,"name":"Mlimba","ascii":"Mlimba","lat":-8.8,"lon":35.81667,"population":34970},{"id":155405,"name":"Mafinga","ascii":"Mafinga","lat":-7.25,"lon":35.06667,"population":34958},{"id":877534,"name":"Newala","ascii":"Newala","lat":-10.93333,"lon":39.3,"population":34862},{"id":160660,"name":"Chalinze","ascii":"Chalinze","lat":-6.63784,"lon":38.35396,"population":34335},{"id":150276,"name":"Same","ascii":"Same","lat":-4.06667,"lon":37.73333,"population":34322},{"id":161154,"name":"Biharamulo","ascii":"Biharamulo","lat":-2.63194,"lon":31.30889,"population":34038},{"id":155569,"name":"Lushoto","ascii":"Lushoto","lat":-4.78333,"lon":38.28333,"population":34000},{"id":149792,"name":"Somanda","ascii":"Somanda","lat":-3.36667,"lon":33.95,"population":33932},{"id":157107,"name":"Kirando","ascii":"Kirando","lat":-7.41667,"lon":30.6,"population":33111},{"id":149418,"name":"Tumbi","ascii":"Tumbi","lat":-5.06667,"lon":32.73333,"population":32900},{"id":161023,"name":"Bugarama","ascii":"Bugarama","lat":-2.87056,"lon":30.52806,"population":32494},{"id":151599,"name":"Ngudu","ascii":"Ngudu","lat":-2.96667,"lon":33.33333,"population":32446},{"id":149172,"name":"Urambo","ascii":"Urambo","lat":-5.06667,"lon":32.05,"population":31752},{"id":152403,"name":"Mvomero","ascii":"Mvomero","lat":-6.25,"lon":38.66667,"population":31324},{"id":160592,"name":"Chanika","ascii":"Chanika","lat":-5.41667,"lon":38.01667,"population":30905},{"id":7284275,"name":"Nungwi","ascii":"Nungwi","lat":-5.72651,"lon":39.2987,"population":30762},{"id":157977,"name":"Kibiti","ascii":"Kibiti","lat":-7.72178,"lon":38.93749,"population":30163},{"id":160552,"name":"Chato","ascii":"Chato","lat":-2.63778,"lon":31.76694,"population":30000},{"id":156973,"name":"Kisesa","ascii":"Kisesa","lat":-2.55,"lon":33.03333,"population":30000},{"id":153094,"name":"Mpwapwa","ascii":"Mpwapwa","lat":-6.35,"lon":36.48333,"population":30000},{"id":156974,"name":"Kisesa","ascii":"Kisesa","lat":-3.08333,"lon":34.15,"population":29804},{"id":878195,"name":"Lukuledi","ascii":"Lukuledi","lat":-10.56667,"lon":38.8,"population":29699},{"id":153412,"name":"Mlandizi","ascii":"Mlandizi","lat":-6.7,"lon":38.73333,"population":29394},{"id":159179,"name":"Ilula","ascii":"Ilula","lat":-7.6766,"lon":36.03658,"population":29193},{"id":152663,"name":"Mugumu","ascii":"Mugumu","lat":-1.85,"lon":34.7,"population":29000},{"id":157960,"name":"Kibondo","ascii":"Kibondo","lat":-3.58639,"lon":30.72028,"population":28666},{"id":153482,"name":"Mkuranga","ascii":"Mkuranga","lat":-7.11799,"lon":39.20782,"population":28037},{"id":150044,"name":"Shanwa","ascii":"Shanwa","lat":-3.16667,"lon":33.76667,"population":28000},{"id":160877,"name":"Bungu","ascii":"Bungu","lat":-7.63369,"lon":39.05818,"population":27873},{"id":158289,"name":"Kasamwa","ascii":"Kasamwa","lat":-2.85,"lon":32.43333,"population":27681},{"id":149929,"name":"Sikonge","ascii":"Sikonge","lat":-5.63333,"lon":32.76667,"population":27113},{"id":155016,"name":"Malinyi","ascii":"Malinyi","lat":-8.93333,"lon":36.13333,"population":27041},{"id":152781,"name":"Mtinko","ascii":"Mtinko","lat":-4.55,"lon":34.85,"population":26725},{"id":154780,"name":"Maramba","ascii":"Maramba","lat":-5.05,"lon":38.61667,"population":26531},{"id":155310,"name":"Magugu","ascii":"Magugu","lat":-4.01667,"lon":35.76667,"population":26131},{"id":154551,"name":"Matundasi","ascii":"Matundasi","lat":-8.45,"lon":33.28333,"population":26073},{"id":149812,"name":"Sokoni","ascii":"Sokoni","lat":-6.43333,"lon":39.55,"population":25821},{"id":150099,"name":"Sepuka","ascii":"Sepuka","lat":-4.75,"lon":34.53333,"population":25657},{"id":878223,"name":"Luchingu","ascii":"Luchingu","lat":-10.9,"lon":39.33333,"population":25145},{"id":159380,"name":"Igurusi","ascii":"Igurusi","lat":-8.85,"lon":33.85,"population":25000},{"id":155921,"name":"Liwale","ascii":"Liwale","lat":-9.76667,"lon":37.93333,"population":25000},{"id":154837,"name":"Manyoni","ascii":"Manyoni","lat":-5.75,"lon":34.83333,"population":25000},{"id":8549608,"name":"Mhalamba","ascii":"Mhalamba","lat":-2.5812,"lon":32.00991,"population":25000},{"id":149854,"name":"Sirari","ascii":"Sirari","lat":-1.25367,"lon":34.47596,"population":25000},{"id":160464,"name":"Chimala","ascii":"Chimala","lat":-8.85637,"lon":34.02393,"population":24817},{"id":150037,"name":"Shelui","ascii":"Shelui","lat":-4.36667,"lon":34.2,"population":24817},{"id":158563,"name":"Kakonko","ascii":"Kakonko","lat":-3.28278,"lon":30.96417,"population":24688},{"id":149050,"name":"Uvinza","ascii":"Uvinza","lat":-5.10361,"lon":30.39111,"population":24650},{"id":151211,"name":"Nyalikungu","ascii":"Nyalikungu","lat":-3.18333,"lon":33.78333,"population":24648},{"id":154638,"name":"Matai","ascii":"Matai","lat":-8.3,"lon":31.51667,"population":24070},{"id":158904,"name":"Itigi","ascii":"Itigi","lat":-5.7,"lon":34.48333,"population":24000},{"id":13132462,"name":"Ruaha","ascii":"Ruaha","lat":-7.65685,"lon":36.98299,"population":24000},{"id":155125,"name":"Makongolosi","ascii":"Makongolosi","lat":-8.4,"lon":33.15,"population":23787},{"id":150885,"name":"Old Shinyanga","ascii":"Old Shinyanga","lat":-3.55,"lon":33.4,"population":23747},{"id":153600,"name":"Mkoani","ascii":"Mkoani","lat":-5.36667,"lon":39.65,"population":23719},{"id":154097,"name":"Mgandu","ascii":"Mgandu","lat":-5.95,"lon":34.13333,"population":23718},{"id":149775,"name":"Songwa","ascii":"Songwa","lat":-3.51667,"lon":33.51667,"population":23618},{"id":157198,"name":"Kiomboi","ascii":"Kiomboi","lat":-4.26667,"lon":34.36667,"population":23519},{"id":157429,"name":"Kilindoni","ascii":"Kilindoni","lat":-7.91446,"lon":39.66204,"population":23426},{"id":152376,"name":"Mwadui","ascii":"Mwadui","lat":-3.55,"lon":33.6,"population":23296},{"id":877597,"name":"Nangomba","ascii":"Nangomba","lat":-10.9,"lon":38.5,"population":23028},{"id":149158,"name":"Urunda","ascii":"Urunda","lat":-8.65,"lon":34.3,"population":23000},{"id":157268,"name":"Kingori","ascii":"Kingori","lat":-3.28333,"lon":36.98333,"population":22839},{"id":159398,"name":"Igugunu","ascii":"Igugunu","lat":-4.56667,"lon":34.63333,"population":22810},{"id":160670,"name":"Chala","ascii":"Chala","lat":-7.58333,"lon":31.26667,"population":22624},{"id":156080,"name":"Lalago","ascii":"Lalago","lat":-3.45,"lon":33.95,"population":22551},{"id":878400,"name":"Kigonsera","ascii":"Kigonsera","lat":-10.8,"lon":35.05,"population":22155},{"id":149512,"name":"Tinde","ascii":"Tinde","lat":-3.88333,"lon":33.2,"population":22082},{"id":150436,"name":"Rulenge","ascii":"Rulenge","lat":-2.7175,"lon":30.6325,"population":22069},{"id":154648,"name":"Maswa","ascii":"Maswa","lat":-2.68333,"lon":33.98333,"population":22025},{"id":13132461,"name":"Mwanhuzi","ascii":"Mwanhuzi","lat":-3.52723,"lon":34.31513,"population":21664},{"id":154002,"name":"Mhango","ascii":"Mhango","lat":-3.28333,"lon":32.85,"population":21553},{"id":157377,"name":"Kilwa Masoko","ascii":"Kilwa Masoko","lat":-8.9251,"lon":39.5131,"population":21519},{"id":158178,"name":"Katesh","ascii":"Katesh","lat":-4.52483,"lon":35.3849,"population":21462},{"id":156627,"name":"Kiwira","ascii":"Kiwira","lat":-9.17307,"lon":33.54152,"population":21342},{"id":159045,"name":"Isaka","ascii":"Isaka","lat":-3.9,"lon":32.93333,"population":21094},{"id":159647,"name":"Hedaru","ascii":"Hedaru","lat":-4.5,"lon":37.9,"population":21000},{"id":877702,"name":"Nachingwea","ascii":"Nachingwea","lat":-10.3725,"lon":38.76251,"population":21000},{"id":149155,"name":"Usa River","ascii":"Usa River","lat":-3.36667,"lon":36.85,"population":21000},{"id":149143,"name":"Usangi","ascii":"Usangi","lat":-3.7,"lon":37.66667,"population":21000},{"id":161197,"name":"Basotu","ascii":"Basotu","lat":-4.36667,"lon":35.08333,"population":20937},{"id":154470,"name":"Mazinde","ascii":"Mazinde","lat":-4.8,"lon":38.21667,"population":20534},{"id":152497,"name":"Muriti","ascii":"Muriti","lat":-1.98333,"lon":32.91667,"population":20254},{"id":154566,"name":"Matui","ascii":"Matui","lat":-4.8,"lon":38.25,"population":20241},{"id":151363,"name":"Nsunga","ascii":"Nsunga","lat":-1.14389,"lon":31.39472,"population":20049},{"id":158324,"name":"Kiratu","ascii":"Kiratu","lat":-3.33333,"lon":35.66667,"population":20000},{"id":155077,"name":"Makuyuni","ascii":"Makuyuni","lat":-3.55,"lon":36.1,"population":20000},{"id":13132459,"name":"Matongo","ascii":"Matongo","lat":-1.46771,"lon":34.52279,"population":20000},{"id":153871,"name":"Mikumi","ascii":"Mikumi","lat":-7.40409,"lon":36.98309,"population":20000},{"id":152632,"name":"Muheza","ascii":"Muheza","lat":-5.16667,"lon":38.78333,"population":20000},{"id":877433,"name":"Ruangwa","ascii":"Ruangwa","lat":-10.06667,"lon":38.93333,"population":20000},{"id":877391,"name":"Tandahimba","ascii":"Tandahimba","lat":-10.75,"lon":39.63333,"population":20000},{"id":160266,"name":"Dareda","ascii":"Dareda","lat":-4.21667,"lon":35.55,"population":19876},{"id":151373,"name":"Nshamba","ascii":"Nshamba","lat":-1.79833,"lon":31.55111,"population":19815},{"id":159267,"name":"Ikungi","ascii":"Ikungi","lat":-5.13333,"lon":34.76667,"population":19692},{"id":877581,"name":"Nanyamba","ascii":"Nanyamba","lat":-10.68333,"lon":39.83333,"population":19555},{"id":158024,"name":"Kibakwe","ascii":"Kibakwe","lat":-6.71667,"lon":36.36667,"population":19526},{"id":878073,"name":"Maposeni","ascii":"Maposeni","lat":-10.58333,"lon":35.4,"population":19472},{"id":158684,"name":"Kabanga","ascii":"Kabanga","lat":-2.63861,"lon":30.46778,"population":19421},{"id":156098,"name":"Laela","ascii":"Laela","lat":-8.56667,"lon":32.05,"population":19185},{"id":161204,"name":"Bashanet","ascii":"Bashanet","lat":-4.23333,"lon":35.41667,"population":19087},{"id":155321,"name":"Magomeni","ascii":"Magomeni","lat":-6.8,"lon":39.25,"population":19086},{"id":155307,"name":"Kihangara","ascii":"Kihangara","lat":-2.58333,"lon":33.35,"population":19082},{"id":152718,"name":"Mtwango","ascii":"Mtwango","lat":-9.01667,"lon":34.8,"population":19040},{"id":149996,"name":"Shirati","ascii":"Shirati","lat":-1.13333,"lon":33.98333,"population":18904},{"id":159218,"name":"Ilembula","ascii":"Ilembula","lat":-8.9,"lon":34.58333,"population":18870},{"id":160172,"name":"Dongobesh","ascii":"Dongobesh","lat":-4.06667,"lon":35.38333,"population":18864},{"id":878041,"name":"Matiri","ascii":"Matiri","lat":-10.75,"lon":34.9,"population":18830},{"id":155334,"name":"Magole","ascii":"Magole","lat":-6.37697,"lon":37.37373,"population":18753},{"id":151929,"name":"Nangwa","ascii":"Nangwa","lat":-4.46667,"lon":35.45,"population":18595},{"id":159951,"name":"Galappo","ascii":"Galappo","lat":-4.26667,"lon":35.85,"population":18528},{"id":158179,"name":"Katerero","ascii":"Katerero","lat":-1.4,"lon":31.73333,"population":18430},{"id":151266,"name":"Nyakabindi","ascii":"Nyakabindi","lat":-2.63333,"lon":33.98333,"population":18428},{"id":158825,"name":"Izazi","ascii":"Izazi","lat":-7.2,"lon":35.73333,"population":18010},{"id":155794,"name":"Lubata","ascii":"Lubata","lat":-6.1,"lon":37.45,"population":18000},{"id":13132457,"name":"Madizini","ascii":"Madizini","lat":-6.14089,"lon":37.63604,"population":18000},{"id":11905975,"name":"Tarakea","ascii":"Tarakea","lat":-3.00083,"lon":37.56416,"population":18000},{"id":152933,"name":"Msowero","ascii":"Msowero","lat":-6.53333,"lon":37.2,"population":17861},{"id":159107,"name":"Ipinda","ascii":"Ipinda","lat":-9.48333,"lon":33.9,"population":17775},{"id":152743,"name":"Mto wa Mbu","ascii":"Mto wa Mbu","lat":-3.35,"lon":35.85,"population":17754},{"id":149132,"name":"Usevia","ascii":"Usevia","lat":-7.1,"lon":31.23333,"population":17742},{"id":877605,"name":"Nanganga","ascii":"Nanganga","lat":-10.38333,"lon":39.15,"population":17468},{"id":159186,"name":"Ilongero","ascii":"Ilongero","lat":-4.66667,"lon":34.86667,"population":17342},{"id":158016,"name":"Kibara","ascii":"Kibara","lat":-2.15,"lon":33.45,"population":17211},{"id":151678,"name":"Ngerengere","ascii":"Ngerengere","lat":-6.75,"lon":38.11667,"population":17181},{"id":150634,"name":"Puma","ascii":"Puma","lat":-5,"lon":34.73333,"population":17092},{"id":155056,"name":"Malampaka","ascii":"Malampaka","lat":-3.13333,"lon":33.53333,"population":16916},{"id":155743,"name":"Lugoba","ascii":"Lugoba","lat":-6.45,"lon":38.33333,"population":16902},{"id":151711,"name":"Ngara","ascii":"Ngara","lat":-2.51222,"lon":30.65583,"population":16890},{"id":153709,"name":"Mwandiga","ascii":"Mwandiga","lat":-4.83,"lon":29.65806,"population":16822},{"id":152546,"name":"Mungaa","ascii":"Mungaa","lat":-4.96667,"lon":34.88333,"population":16715},{"id":151108,"name":"Nyamuswa","ascii":"Nyamuswa","lat":-1.9,"lon":34.01667,"population":16507},{"id":160798,"name":"Butiama","ascii":"Butiama","lat":-1.76667,"lon":33.96667,"population":16376},{"id":156963,"name":"Kishapu","ascii":"Kishapu","lat":-3.61667,"lon":33.86667,"population":16371},{"id":877471,"name":"Nyangao","ascii":"Nyangao","lat":-10.33333,"lon":39.28333,"population":16343},{"id":877384,"name":"Tingi","ascii":"Tingi","lat":-11.3,"lon":35.03333,"population":16315},{"id":878367,"name":"Kitama","ascii":"Kitama","lat":-10.71667,"lon":39.73333,"population":16232},{"id":156025,"name":"Lembeni","ascii":"Lembeni","lat":-3.78333,"lon":37.61667,"population":16008},{"id":158492,"name":"Kamachumu","ascii":"Kamachumu","lat":-1.61861,"lon":31.62,"population":15701},{"id":153423,"name":"Mlalo","ascii":"Mlalo","lat":-4.93333,"lon":38.93333,"population":15576},{"id":155076,"name":"Makuyuni","ascii":"Makuyuni","lat":-4.73333,"lon":38.1,"population":15516},{"id":149151,"name":"Usagara","ascii":"Usagara","lat":-2.68333,"lon":33,"population":15514},{"id":155515,"name":"Mabama","ascii":"Mabama","lat":-5.13333,"lon":32.53333,"population":15320},{"id":153408,"name":"Mlangali","ascii":"Mlangali","lat":-9.78333,"lon":34.51667,"population":15168},{"id":155285,"name":"Mahanje","ascii":"Mahanje","lat":-9.93333,"lon":35.33333,"population":15009},{"id":151988,"name":"Namanga","ascii":"Namanga","lat":-2.55116,"lon":36.78377,"population":14922},{"id":151445,"name":"Nkoaranga","ascii":"Nkoaranga","lat":-3.33391,"lon":36.84887,"population":14738},{"id":151262,"name":"Nyakahanga","ascii":"Nyakahanga","lat":-1.60333,"lon":31.14139,"population":14611},{"id":160073,"name":"Endasak","ascii":"Endasak","lat":-4.41667,"lon":35.51667,"population":14576},{"id":151775,"name":"Ndungu","ascii":"Ndungu","lat":-4.36667,"lon":38.05,"population":14545},{"id":153772,"name":"Misasi","ascii":"Misasi","lat":-3,"lon":33.08333,"population":14170},{"id":155514,"name":"Mabamba","ascii":"Mabamba","lat":-3.59833,"lon":30.50194,"population":14140},{"id":160141,"name":"Dunda","ascii":"Dunda","lat":-8.11667,"lon":34.25,"population":14080},{"id":156124,"name":"Kyaka","ascii":"Kyaka","lat":-1.25222,"lon":31.42028,"population":13810},{"id":878121,"name":"Mahuta","ascii":"Mahuta","lat":-10.86667,"lon":39.45,"population":13548},{"id":877588,"name":"Nanhyanga","ascii":"Nanhyanga","lat":-10.8,"lon":39.55,"population":13519},{"id":152042,"name":"Naberera","ascii":"Naberera","lat":-4.2,"lon":36.93333,"population":13499},{"id":158876,"name":"Itumba","ascii":"Itumba","lat":-9.4,"lon":33.18333,"population":13438},{"id":878242,"name":"Liuli","ascii":"Liuli","lat":-11.08333,"lon":34.63333,"population":13119},{"id":151872,"name":"Ndago","ascii":"Ndago","lat":-4.6,"lon":34.35,"population":13012},{"id":152265,"name":"Mwanga","ascii":"Mwanga","lat":-4.8,"lon":38.2,"population":12846},{"id":878455,"name":"Chiungutwa","ascii":"Chiungutwa","lat":-10.88333,"lon":38.98333,"population":12764},{"id":154666,"name":"Masoko","ascii":"Masoko","lat":-9.33333,"lon":33.75,"population":12720},{"id":158321,"name":"Karema","ascii":"Karema","lat":-6.82052,"lon":30.43887,"population":12630},{"id":154995,"name":"Malya","ascii":"Malya","lat":-2.98333,"lon":33.51667,"population":12627},{"id":156996,"name":"Kisarawe","ascii":"Kisarawe","lat":-6.9,"lon":39.06667,"population":12507},{"id":878141,"name":"Madimba","ascii":"Madimba","lat":-10.4,"lon":40.33333,"population":12507},{"id":149768,"name":"Soni","ascii":"Soni","lat":-4.85,"lon":38.36667,"population":12402},{"id":158514,"name":"Kaliua","ascii":"Kaliua","lat":-5.06056,"lon":31.79361,"population":12362},{"id":149239,"name":"Ulenje","ascii":"Ulenje","lat":-8.93333,"lon":33.68333,"population":12219},{"id":877784,"name":"Mtama","ascii":"Mtama","lat":-10.3,"lon":39.36667,"population":11928},{"id":158161,"name":"Katoro","ascii":"Katoro","lat":-1.39972,"lon":31.50028,"population":11925},{"id":149070,"name":"Utete","ascii":"Utete","lat":-7.98598,"lon":38.75795,"population":11888},{"id":156493,"name":"Kongwa","ascii":"Kongwa","lat":-6.2,"lon":36.41667,"population":11840},{"id":154576,"name":"Matonga","ascii":"Matonga","lat":-2.38333,"lon":34.08333,"population":11828},{"id":878006,"name":"Mbekenyera","ascii":"Mbekenyera","lat":-10,"lon":38.98333,"population":11794},{"id":159134,"name":"Inyonga","ascii":"Inyonga","lat":-6.71667,"lon":32.06667,"population":11790},{"id":877631,"name":"Namikupa","ascii":"Namikupa","lat":-10.83333,"lon":39.6,"population":11733},{"id":152570,"name":"Muleba","ascii":"Muleba","lat":-1.83972,"lon":31.65444,"population":11555},{"id":155584,"name":"Lupiro","ascii":"Lupiro","lat":-8.38333,"lon":36.66667,"population":11430},{"id":157366,"name":"Kimamba","ascii":"Kimamba","lat":-6.78333,"lon":37.13333,"population":11235},{"id":877670,"name":"Namalenga","ascii":"Namalenga","lat":-10.95,"lon":39.1,"population":11204},{"id":152793,"name":"Mtimbira","ascii":"Mtimbira","lat":-8.78333,"lon":36.35,"population":11122},{"id":157014,"name":"Kisanga","ascii":"Kisanga","lat":-7.43622,"lon":37.70337,"population":10978},{"id":878362,"name":"Kitangari","ascii":"Kitangari","lat":-10.65,"lon":39.33333,"population":10956},{"id":151610,"name":"Ngorongoro","ascii":"Ngorongoro","lat":-3.23973,"lon":35.48747,"population":10836},{"id":151062,"name":"Nyanguge","ascii":"Nyanguge","lat":-2.55,"lon":33.2,"population":10746},{"id":154635,"name":"Matamba","ascii":"Matamba","lat":-8.98333,"lon":33.96667,"population":10642},{"id":161022,"name":"Bugene","ascii":"Bugene","lat":-1.59111,"lon":31.14028,"population":10609},{"id":152689,"name":"Mugango","ascii":"Mugango","lat":-1.68333,"lon":33.7,"population":10550},{"id":877925,"name":"Mingoyo","ascii":"Mingoyo","lat":-10.10526,"lon":39.61859,"population":10480},{"id":158422,"name":"Kandete","ascii":"Kandete","lat":-9.15,"lon":33.8,"population":10318},{"id":155093,"name":"Makungu","ascii":"Makungu","lat":-8.73333,"lon":35.28333,"population":10291},{"id":159382,"name":"Igurubi","ascii":"Igurubi","lat":-4,"lon":33.7,"population":10083},{"id":9063978,"name":"Kisasa","ascii":"Kisasa","lat":-6.17526,"lon":35.79266,"population":10000},{"id":155244,"name":"Majengo","ascii":"Majengo","lat":-5.15,"lon":38.98333,"population":9874},{"id":153955,"name":"Micheweni","ascii":"Micheweni","lat":-4.96667,"lon":39.83333,"population":9838},{"id":150689,"name":"Poli","ascii":"Poli","lat":-3.36146,"lon":36.81751,"population":9568},{"id":156513,"name":"Konde","ascii":"Konde","lat":-4.95,"lon":39.75,"population":9530},{"id":155187,"name":"Makanya","ascii":"Makanya","lat":-4.36667,"lon":37.83333,"population":9505},{"id":155848,"name":"Longido","ascii":"Longido","lat":-2.73319,"lon":36.69773,"population":9403},{"id":154915,"name":"Maneromango","ascii":"Maneromango","lat":-7.1988,"lon":38.78478,"population":9402},{"id":152169,"name":"Mwembe","ascii":"Mwembe","lat":-4.15,"lon":37.85,"population":9032},{"id":878023,"name":"Mbamba Bay","ascii":"Mbamba Bay","lat":-11.28333,"lon":34.76667,"population":8997},{"id":155322,"name":"Magomeni","ascii":"Magomeni","lat":-5.23333,"lon":38.11667,"population":8944},{"id":878087,"name":"Manda","ascii":"Manda","lat":-10.46667,"lon":34.58333,"population":8393},{"id":157653,"name":"Kihurio","ascii":"Kihurio","lat":-4.46667,"lon":38.06667,"population":8377},{"id":150793,"name":"Pangani","ascii":"Pangani","lat":-5.42526,"lon":38.97473,"population":8343},{"id":878054,"name":"Masuguru","ascii":"Masuguru","lat":-11.36667,"lon":38.41667,"population":7946},{"id":157247,"name":"Kintinku","ascii":"Kintinku","lat":-5.88333,"lon":35.23333,"population":7906},{"id":878184,"name":"Lulindi","ascii":"Lulindi","lat":-10.81667,"lon":39.13333,"population":7807},{"id":158974,"name":"Issenye","ascii":"Issenye","lat":-2,"lon":34.33333,"population":7778},{"id":155274,"name":"Mahenge","ascii":"Mahenge","lat":-8.68333,"lon":36.71667,"population":7768},{"id":152183,"name":"Mwaya","ascii":"Mwaya","lat":-9.55,"lon":33.95,"population":7558},{"id":156312,"name":"Kwakoa","ascii":"Kwakoa","lat":-3.76667,"lon":37.71667,"population":7514},{"id":160971,"name":"Bukene","ascii":"Bukene","lat":-4.23333,"lon":32.88333,"population":7444},{"id":149114,"name":"Usoke","ascii":"Usoke","lat":-5.16667,"lon":32.35,"population":7295},{"id":156918,"name":"Kisiwani","ascii":"Kisiwani","lat":-4.13333,"lon":37.95,"population":7126},{"id":155052,"name":"Malangali","ascii":"Malangali","lat":-8.56667,"lon":34.85,"population":7112},{"id":152877,"name":"Mtambile","ascii":"Mtambile","lat":-5.38333,"lon":39.7,"population":6797},{"id":152009,"name":"Nakatunguru","ascii":"Nakatunguru","lat":-2.11667,"lon":33.06667,"population":6064},{"id":157448,"name":"Kilimatinde","ascii":"Kilimatinde","lat":-5.85,"lon":34.95,"population":5975},{"id":153247,"name":"Monduli","ascii":"Monduli","lat":-3.3,"lon":36.45,"population":5694},{"id":161044,"name":"Bububu","ascii":"Bububu","lat":-6.1,"lon":39.21667,"population":5646},{"id":155263,"name":"Mahonda","ascii":"Mahonda","lat":-6.45,"lon":39.46667,"population":5569},{"id":153046,"name":"Msanga","ascii":"Msanga","lat":-6.05,"lon":36.03333,"population":5527},{"id":151424,"name":"Nkove","ascii":"Nkove","lat":-7.95,"lon":30.85,"population":5389},{"id":158006,"name":"Kibaya","ascii":"Kibaya","lat":-5.3,"lon":36.56667,"population":5028},{"id":154309,"name":"Mbumi","ascii":"Mbumi","lat":-7.90577,"lon":39.21047,"population":4305},{"id":160950,"name":"Bukonyo","ascii":"Bukonyo","lat":-1.95,"lon":32.93333,"population":4051},{"id":157045,"name":"Kirya","ascii":"Kirya","lat":-3.91667,"lon":37.48333,"population":3998},{"id":157632,"name":"Kijini","ascii":"Kijini","lat":-5.85,"lon":39.31667,"population":3720},{"id":159936,"name":"Gamba","ascii":"Gamba","lat":-5.9,"lon":39.3,"population":3644},{"id":159219,"name":"Ilembo","ascii":"Ilembo","lat":-9.25,"lon":33.38333,"population":2607},{"id":153585,"name":"Mkokotoni","ascii":"Mkokotoni","lat":-5.87506,"lon":39.25523,"population":2572},{"id":149039,"name":"Uwelini","ascii":"Uwelini","lat":-5.4,"lon":39.68333,"population":2472},{"id":156636,"name":"Kiwengwa","ascii":"Kiwengwa","lat":-5.98957,"lon":39.3768,"population":2429},{"id":156588,"name":"Koani Ndogo","ascii":"Koani Ndogo","lat":-6.13333,"lon":39.28333,"population":2311},{"id":156589,"name":"Koani","ascii":"Koani","lat":-6.13333,"lon":39.28333,"population":2211},{"id":151720,"name":"Nganane","ascii":"Nganane","lat":-6.4,"lon":39.55,"population":1929},{"id":9399202,"name":"Mvomero","ascii":"Mvomero","lat":-6.30122,"lon":37.44398,"population":0}]