[{"id":703448,"name":"Kyiv","nameKo":"키예프","ascii":"Kyiv","lat":50.45466,"lon":30.5238,"population":2797553},{"id":706483,"name":"Kharkiv","nameKo":"하르키우","ascii":"Kharkiv","lat":49.98177,"lon":36.25475,"population":1433886},{"id":698740,"name":"Odesa","nameKo":"오데사","ascii":"Odesa","lat":46.48572,"lon":30.74383,"population":1015826},{"id":709930,"name":"Dnipro","nameKo":"드니프로페트로우시크","ascii":"Dnipro","lat":48.46664,"lon":35.04066,"population":968502},{"id":709717,"name":"Donetsk","nameKo":"도네츠크","ascii":"Donetsk","lat":48.023,"lon":37.80224,"population":901645},{"id":702550,"name":"Lviv","nameKo":"리비우","ascii":"Lviv","lat":49.83826,"lon":24.02324,"population":717273},{"id":687700,"name":"Zaporizhzhya","ascii":"Zaporizhzhya","lat":47.85167,"lon":35.11714,"population":710052},{"id":703845,"name":"Kryvyy Rih","nameKo":"크리비리흐","ascii":"Kryvyy Rih","lat":47.90572,"lon":33.39404,"population":603904},{"id":694423,"name":"Sevastopol","nameKo":"세바스토폴","ascii":"Sevastopol","lat":44.60795,"lon":33.52134,"population":547820},{"id":700569,"name":"Mykolayiv","ascii":"Mykolayiv","lat":46.97625,"lon":31.99296,"population":470011},{"id":6722148,"name":"Saltivka","ascii":"Saltivka","lat":50.02207,"lon":36.34901,"population":400000},{"id":702658,"name":"Luhansk","nameKo":"루한시크","ascii":"Luhansk","lat":48.56814,"lon":39.30553,"population":397677},{"id":689558,"name":"Vinnytsya","nameKo":"빈니차","ascii":"Vinnytsya","lat":49.2322,"lon":28.46871,"population":369839},{"id":13546519,"name":"Desna","ascii":"Desna","lat":50.52207,"lon":30.68228,"population":368500},{"id":13546518,"name":"Dniprovskyi","ascii":"Dniprovskyi","lat":50.45366,"lon":30.60146,"population":357900},{"id":13580095,"name":"Darnytsya","ascii":"Darnytsya","lat":50.41596,"lon":30.69534,"population":343384},{"id":13535747,"name":"Svyatoshyn","ascii":"Svyatoshyn","lat":50.46341,"lon":30.34612,"population":340399},{"id":702320,"name":"Makiivka","ascii":"Makiivka","lat":48.04782,"lon":37.92576,"population":338968},{"id":693805,"name":"Simferopol","nameKo":"심페로폴","ascii":"Simferopol","lat":44.95719,"lon":34.11079,"population":336460},{"id":8519916,"name":"Obolon","ascii":"Obolon","lat":50.5132,"lon":30.5055,"population":317300},{"id":710735,"name":"Chernihiv","nameKo":"체르니히우","ascii":"Chernihiv","lat":51.50541,"lon":31.28656,"population":285234},{"id":706448,"name":"Kherson","nameKo":"헤르손","ascii":"Kherson","lat":46.63695,"lon":32.61458,"population":283649},{"id":696643,"name":"Poltava","nameKo":"폴타바","ascii":"Poltava","lat":49.58925,"lon":34.55367,"population":283402},{"id":13546520,"name":"Solomyansk","ascii":"Solomyansk","lat":50.42838,"lon":30.45211,"population":280400},{"id":706369,"name":"Khmelnytskyi","ascii":"Khmelnytskyi","lat":49.41835,"lon":26.97936,"population":274582},{"id":710791,"name":"Cherkasy","nameKo":"체르카시","ascii":"Cherkasy","lat":49.44452,"lon":32.05738,"population":272651},{"id":710719,"name":"Chernivtsi","nameKo":"체르니우치","ascii":"Chernivtsi","lat":48.29045,"lon":25.93241,"population":265471},{"id":686967,"name":"Zhytomyr","nameKo":"지토미르","ascii":"Zhytomyr","lat":50.26235,"lon":28.67913,"population":261624},{"id":692194,"name":"Sumy","nameKo":"수미","ascii":"Sumy","lat":50.91741,"lon":34.79906,"population":259660},{"id":13535744,"name":"Holosiyiv","ascii":"Holosiyiv","lat":50.34433,"lon":30.55178,"population":251021},{"id":695594,"name":"Rivne","nameKo":"리우네","ascii":"Rivne","lat":50.62036,"lon":26.23695,"population":245289},{"id":688758,"name":"Vyhurivshchyna-Troieshchyna","ascii":"Vyhurivshchyna-Troieshchyna","lat":50.51137,"lon":30.60251,"population":240000},{"id":707753,"name":"Horlivka","nameKo":"호를리우카","ascii":"Horlivka","lat":48.33576,"lon":38.05325,"population":239828},{"id":707471,"name":"Ivano-Frankivsk","ascii":"Ivano-Frankivsk","lat":48.92312,"lon":24.71248,"population":238196},{"id":709932,"name":"Kamyanske","ascii":"Kamyanske","lat":48.51716,"lon":34.60617,"population":226845},{"id":691650,"name":"Ternopil","ascii":"Ternopil","lat":49.55404,"lon":25.59067,"population":225238},{"id":13546521,"name":"Shevchenko","ascii":"Shevchenko","lat":50.46408,"lon":30.46576,"population":220077},{"id":705812,"name":"Kropyvnytskyy","nameKo":"키로보흐라드","ascii":"Kropyvnytskyy","lat":48.50834,"lon":32.26618,"population":219676},{"id":704147,"name":"Kremenchuk","nameKo":"크레멘추크","ascii":"Kremenchuk","lat":49.06253,"lon":33.40484,"population":217710},{"id":702569,"name":"Lutsk","ascii":"Lutsk","lat":50.75784,"lon":25.35024,"population":215986},{"id":712165,"name":"Bila Tserkva","nameKo":"빌라체르크바","ascii":"Bila Tserkva","lat":49.8004,"lon":30.12851,"population":207273},{"id":13561808,"name":"Rayon KTZ","ascii":"Rayon KTZ","lat":49.94349,"lon":36.36959,"population":200000},{"id":693821,"name":"Sykhiv","ascii":"Sykhiv","lat":49.79427,"lon":24.06284,"population":170000},{"id":13561146,"name":"Kirovskyi","ascii":"Kirovskyi","lat":47.97597,"lon":37.69677,"population":168029},{"id":13546531,"name":"Fortetsya","ascii":"Fortetsya","lat":48.49865,"lon":32.25365,"population":167451},{"id":13535745,"name":"Pechersk","ascii":"Pechersk","lat":50.44441,"lon":30.52348,"population":165360},{"id":700022,"name":"Nyzhnyodniprovsk","ascii":"Nyzhnyodniprovsk","lat":48.47546,"lon":35.1167,"population":160123},{"id":12167218,"name":"Avtozavodskyi","ascii":"Avtozavodskyi","lat":49.09753,"lon":33.43206,"population":157382},{"id":706524,"name":"Kerch","nameKo":"케르치","ascii":"Kerch","lat":45.35675,"lon":36.47542,"population":148932},{"id":701404,"name":"Melitopol","nameKo":"멜리토폴","ascii":"Melitopol","lat":46.84735,"lon":35.38196,"population":148851},{"id":13561779,"name":"Shevchenko","ascii":"Shevchenko","lat":49.5645,"lon":34.53873,"population":147600},{"id":704508,"name":"Kramatorsk","nameKo":"크라마토르스크","ascii":"Kramatorsk","lat":48.73049,"lon":37.58793,"population":147145},{"id":13561145,"name":"Kyivskyi","ascii":"Kyivskyi","lat":48.04646,"lon":37.77571,"population":139177},{"id":13580316,"name":"Mykilska Borshchahivka","ascii":"Mykilska Borshchahivka","lat":50.42638,"lon":30.37442,"population":127400},{"id":701822,"name":"Mariupol","nameKo":"마리우폴","ascii":"Mariupol","lat":47.09514,"lon":37.54131,"population":120000},{"id":13561147,"name":"Kuybyshevskyi","ascii":"Kuybyshevskyi","lat":48.01443,"lon":37.73624,"population":116779},{"id":690548,"name":"Uzhhorod","nameKo":"우주호로드","ascii":"Uzhhorod","lat":48.6242,"lon":22.2947,"population":115449},{"id":13561778,"name":"Kyivskyi","ascii":"Kyivskyi","lat":49.60902,"lon":34.52933,"population":110600},{"id":711390,"name":"Brovary","nameKo":"브로바리","ascii":"Brovary","lat":50.51809,"lon":30.80671,"population":109806},{"id":712451,"name":"Berdyansk","ascii":"Berdyansk","lat":46.75578,"lon":36.78815,"population":106311},{"id":688105,"name":"Yevpatoriya","ascii":"Yevpatoriya","lat":45.20091,"lon":33.36655,"population":106202},{"id":713716,"name":"Alchevsk","ascii":"Alchevsk","lat":48.46893,"lon":38.81669,"population":106062},{"id":700051,"name":"Nikopol","ascii":"Nikopol","lat":47.56826,"lon":34.39126,"population":105160},{"id":693468,"name":"Sloviansk","nameKo":"슬로비얀시크","ascii":"Sloviansk","lat":48.84974,"lon":37.59739,"population":105141},{"id":13580094,"name":"Pozniaky","ascii":"Pozniaky","lat":50.40259,"lon":30.62352,"population":104400},{"id":13561144,"name":"Kalininskyi","ascii":"Kalininskyi","lat":48.00741,"lon":37.85378,"population":103249},{"id":13561150,"name":"Proletarskyi","ascii":"Proletarskyi","lat":47.95671,"lon":37.94194,"population":103005},{"id":697889,"name":"Pavlohrad","nameKo":"파블로흐라드","ascii":"Pavlohrad","lat":48.53214,"lon":35.86878,"population":101430},{"id":12500938,"name":"Oleksiyivka","ascii":"Oleksiyivka","lat":50.04516,"lon":36.19322,"population":100500},{"id":13561149,"name":"Leninskyi","ascii":"Leninskyi","lat":47.96788,"lon":37.80335,"population":100330},{"id":690688,"name":"Uman","ascii":"Uman","lat":48.7501,"lon":30.21944,"population":100135},{"id":13580130,"name":"Shulyavka","ascii":"Shulyavka","lat":50.45356,"lon":30.4531,"population":100000},{"id":691999,"name":"Sievierodonetsk","ascii":"Sievierodonetsk","lat":48.94628,"lon":38.48624,"population":99067},{"id":706950,"name":"Kamianets-Podilskyi","ascii":"Kamianets-Podilskyi","lat":48.67882,"lon":26.58516,"population":97908},{"id":13561143,"name":"Voroshylovskyi","ascii":"Voroshylovskyi","lat":48,"lon":37.80006,"population":94228},{"id":13580317,"name":"Kharkivskyi Masyv","ascii":"Kharkivskyi Masyv","lat":50.40848,"lon":30.66006,"population":93700},{"id":702972,"name":"Lysychansk","ascii":"Lysychansk","lat":48.90421,"lon":38.44094,"population":93340},{"id":13561142,"name":"Budyonnivskyi","ascii":"Budyonnivskyi","lat":47.96688,"lon":37.86255,"population":90600},{"id":13580135,"name":"Lukyanivka","ascii":"Lukyanivka","lat":50.46642,"lon":30.47591,"population":90000},{"id":13580129,"name":"Tatarka","ascii":"Tatarka","lat":50.46941,"lon":30.48649,"population":90000},{"id":13546532,"name":"Podilsk","ascii":"Podilsk","lat":48.50357,"lon":32.28035,"population":86652},{"id":700646,"name":"Mukachevo","ascii":"Mukachevo","lat":48.44248,"lon":22.718,"population":85569},{"id":697302,"name":"Petrovskyi","ascii":"Petrovskyi","lat":47.93161,"lon":37.62971,"population":85399},{"id":705135,"name":"Konotop","ascii":"Konotop","lat":51.24032,"lon":33.20263,"population":84787},{"id":13580098,"name":"Voskresenka","ascii":"Voskresenka","lat":50.48481,"lon":30.6032,"population":84200},{"id":713174,"name":"Bakhmut","nameKo":"바흐무트","ascii":"Bakhmut","lat":48.59441,"lon":37.99983,"population":80500},{"id":704202,"name":"Khrustalnyi","ascii":"Khrustalnyi","lat":48.13954,"lon":38.93715,"population":79533},{"id":688533,"name":"Yalta","nameKo":"얄타","ascii":"Yalta","lat":44.50218,"lon":34.16624,"population":77003},{"id":688148,"name":"Yenakiieve","ascii":"Yenakiieve","lat":48.23857,"lon":38.20403,"population":76673},{"id":698625,"name":"Oleksandriya","ascii":"Oleksandriya","lat":48.67466,"lon":33.11761,"population":76097},{"id":703853,"name":"Kriukiv","ascii":"Kriukiv","lat":49.02894,"lon":33.43847,"population":75578},{"id":13561228,"name":"Tekstylnyk","ascii":"Tekstylnyk","lat":47.94594,"lon":37.69848,"population":75000},{"id":709611,"name":"Drohobych","ascii":"Drohobych","lat":49.35196,"lon":23.51121,"population":73682},{"id":692975,"name":"Kadiyivka","ascii":"Kadiyivka","lat":48.56818,"lon":38.64352,"population":73248},{"id":693942,"name":"Shostka","ascii":"Shostka","lat":51.86296,"lon":33.4698,"population":73197},{"id":712441,"name":"Berdychiv","nameKo":"베르디치우","ascii":"Berdychiv","lat":49.89408,"lon":28.60144,"population":73046},{"id":13580041,"name":"Nyvky","ascii":"Nyvky","lat":50.46461,"lon":30.40593,"population":71700},{"id":694382,"name":"Shakhtarsk","ascii":"Shakhtarsk","lat":48.05657,"lon":38.43826,"population":71700},{"id":699445,"name":"Samar","ascii":"Samar","lat":48.62893,"lon":35.2589,"population":70550},{"id":707308,"name":"Izmail","nameKo":"이즈마일","ascii":"Izmail","lat":45.35058,"lon":28.83751,"population":69932},{"id":13580117,"name":"Darnytskyi Masyv","ascii":"Darnytskyi Masyv","lat":50.44311,"lon":30.62759,"population":68900},{"id":709161,"name":"Feodosiya","nameKo":"페오도시야","ascii":"Feodosiya","lat":45.03199,"lon":35.38153,"population":68562},{"id":704617,"name":"Kovel","ascii":"Kovel","lat":51.21526,"lon":24.70867,"population":67575},{"id":705104,"name":"Kostiantynivka","ascii":"Kostiantynivka","lat":48.52728,"lon":37.70594,"population":67350},{"id":699942,"name":"Nizhyn","ascii":"Nizhyn","lat":51.04801,"lon":31.88688,"population":66983},{"id":693457,"name":"Smila","ascii":"Smila","lat":49.23295,"lon":31.88427,"population":66475},{"id":707565,"name":"Irpin","ascii":"Irpin","lat":50.52175,"lon":30.25055,"population":65167},{"id":707099,"name":"Kalush","ascii":"Kalush","lat":49.02398,"lon":24.37206,"population":65088},{"id":11778464,"name":"Borshchahivka","ascii":"Borshchahivka","lat":50.4316,"lon":30.3899,"population":65000},{"id":13580115,"name":"Chokolivka","ascii":"Chokolivka","lat":50.42444,"lon":30.44732,"population":65000},{"id":13580103,"name":"Vynohradar","ascii":"Vynohradar","lat":50.51429,"lon":30.42452,"population":65000},{"id":710554,"name":"Sheptytskyi","ascii":"Sheptytskyi","lat":50.39403,"lon":24.23935,"population":64297},{"id":711660,"name":"Boryspil","ascii":"Boryspil","lat":50.35269,"lon":30.95501,"population":64117},{"id":692105,"name":"Dovzhansk","ascii":"Dovzhansk","lat":48.08964,"lon":39.65243,"population":62691},{"id":697593,"name":"Pervomaysk","ascii":"Pervomaysk","lat":48.04478,"lon":30.84784,"population":62426},{"id":707601,"name":"Inhulets","ascii":"Inhulets","lat":47.7301,"lon":33.25189,"population":62173},{"id":704901,"name":"Korosten","ascii":"Korosten","lat":50.95937,"lon":28.63855,"population":61496},{"id":692372,"name":"Stryi","ascii":"Stryi","lat":49.26103,"lon":23.84845,"population":61404},{"id":705392,"name":"Kolomyia","ascii":"Kolomyia","lat":48.52496,"lon":25.03712,"population":60821},{"id":704422,"name":"Pokrovsk","ascii":"Pokrovsk","lat":48.2824,"lon":37.17772,"population":60127},{"id":707688,"name":"Chornomors’k","ascii":"Chornomors'k","lat":46.29914,"lon":30.65529,"population":57983},{"id":706466,"name":"Khartsyzk","ascii":"Khartsyzk","lat":48.04243,"lon":38.14728,"population":56182},{"id":699553,"name":"Zviahel","ascii":"Zviahel","lat":50.59412,"lon":27.6165,"population":55925},{"id":693381,"name":"Snizhne","ascii":"Snizhne","lat":48.02612,"lon":38.77225,"population":55587},{"id":695274,"name":"Rubizhne","ascii":"Rubizhne","lat":49.00606,"lon":38.38119,"population":55247},{"id":702760,"name":"Lozova","ascii":"Lozova","lat":48.88937,"lon":36.31755,"population":54026},{"id":616743,"name":"Druzhkivka","ascii":"Druzhkivka","lat":48.61897,"lon":37.52704,"population":53977},{"id":691374,"name":"Chystyakove","ascii":"Chystyakove","lat":48.03876,"lon":38.59685,"population":53462},{"id":693065,"name":"Sotsmisto","ascii":"Sotsmisto","lat":48.73663,"lon":37.59075,"population":53370},{"id":709276,"name":"Enerhodar","ascii":"Enerhodar","lat":47.49048,"lon":34.66199,"population":52887},{"id":696108,"name":"Pryluky","ascii":"Pryluky","lat":50.59323,"lon":32.38761,"population":52553},{"id":713259,"name":"Antratsyt","ascii":"Antratsyt","lat":48.11503,"lon":39.09128,"population":52150},{"id":13561148,"name":"Bosse","ascii":"Bosse","lat":47.95519,"lon":37.8003,"population":50000},{"id":6559559,"name":"Horishni Plavni","nameKo":"콤소몰시크","ascii":"Horishni Plavni","lat":49.00835,"lon":33.62926,"population":49854},{"id":699035,"name":"Novovolynsk","ascii":"Novovolynsk","lat":50.72576,"lon":24.16265,"population":49772},{"id":704403,"name":"Sorokyne","ascii":"Sorokyne","lat":48.29235,"lon":39.73921,"population":49352},{"id":712160,"name":"Bilhorod-Dnistrovskyi","nameKo":"빌호로드드니스트로우스키","ascii":"Bilhorod-Dnistrovskyi","lat":46.19484,"lon":30.34827,"population":47727},{"id":713749,"name":"Okhtyrka","ascii":"Okhtyrka","lat":50.31036,"lon":34.89879,"population":47216},{"id":710035,"name":"Myrnohrad","ascii":"Myrnohrad","lat":48.3099,"lon":37.26513,"population":46098},{"id":13580096,"name":"Berezniaky","ascii":"Berezniaky","lat":50.42627,"lon":30.60218,"population":46000},{"id":707292,"name":"Izium","ascii":"Izium","lat":49.20697,"lon":37.27679,"population":45884},{"id":699871,"name":"Nova Darnytsya","ascii":"Nova Darnytsya","lat":50.42405,"lon":30.6558,"population":45700},{"id":695379,"name":"Rovenky","ascii":"Rovenky","lat":48.08331,"lon":39.37764,"population":45514},{"id":6723024,"name":"Pivnichna Saltivka","ascii":"Pivnichna Saltivka","lat":50.04512,"lon":36.35905,"population":45000},{"id":701855,"name":"Marhanets","ascii":"Marhanets","lat":47.63088,"lon":34.6245,"population":44980},{"id":711369,"name":"Brianka","ascii":"Brianka","lat":48.511,"lon":38.67222,"population":44760},{"id":702723,"name":"Lubny","ascii":"Lubny","lat":50.01413,"lon":32.99975,"population":44595},{"id":699839,"name":"Nova Kakhovka","nameKo":"노바카호우카","ascii":"Nova Kakhovka","lat":46.75966,"lon":33.35591,"population":44427},{"id":709248,"name":"Fastiv","ascii":"Fastiv","lat":50.0767,"lon":29.9177,"population":44014},{"id":11139621,"name":"Molodizhnyi","ascii":"Molodizhnyi","lat":49.1504,"lon":33.4305,"population":44000},{"id":692087,"name":"Svitlovodsk","ascii":"Svitlovodsk","lat":49.06287,"lon":33.2458,"population":43130},{"id":689487,"name":"Vyshneve","ascii":"Vyshneve","lat":50.38913,"lon":30.3705,"population":42983},{"id":711350,"name":"Bucha","ascii":"Bucha","lat":50.54345,"lon":30.21201,"population":42279},{"id":687196,"name":"Zhovti Vody","ascii":"Zhovti Vody","lat":48.34518,"lon":33.49743,"population":42052},{"id":8341919,"name":"Varash","ascii":"Varash","lat":51.34038,"lon":25.85547,"population":42000},{"id":709334,"name":"Dzhankoi","ascii":"Dzhankoi","lat":45.7131,"lon":34.39273,"population":41731},{"id":694216,"name":"Shepetivka","ascii":"Shepetivka","lat":50.18118,"lon":27.06517,"population":40802},{"id":706488,"name":"Khanzhenkove","ascii":"Khanzhenkove","lat":48.0945,"lon":38.07553,"population":40007},{"id":13580125,"name":"Mostytskyi Masyv","ascii":"Mostytskyi Masyv","lat":50.50231,"lon":30.44121,"population":40000},{"id":13546540,"name":"Novyi Lviv","ascii":"Novyi Lviv","lat":49.81519,"lon":24.03171,"population":40000},{"id":701075,"name":"Myrhorod","ascii":"Myrhorod","lat":49.96464,"lon":33.60861,"population":39575},{"id":13580318,"name":"Pivnichni Osokorky","ascii":"Pivnichni Osokorky","lat":50.3932,"lon":30.61304,"population":39500},{"id":704679,"name":"Podilsk","ascii":"Podilsk","lat":47.74988,"lon":29.53074,"population":39220},{"id":7525990,"name":"Pivdennoukrainsk","ascii":"Pivdennoukrainsk","lat":47.82879,"lon":31.17513,"population":38560},{"id":695464,"name":"Romny","nameKo":"롬니","ascii":"Romny","lat":50.75104,"lon":33.47471,"population":38305},{"id":13580127,"name":"Kurenivka","ascii":"Kurenivka","lat":50.49371,"lon":30.47104,"population":38000},{"id":689378,"name":"Volodymyr-Volynskyi","ascii":"Volodymyr-Volynskyi","lat":50.85253,"lon":24.32364,"population":37910},{"id":13580323,"name":"Pivnichno-Brovarskyi Masyv","ascii":"Pivnichno-Brovarskyi Masyv","lat":50.46304,"lon":30.61697,"population":37600},{"id":688373,"name":"Yasynuvata","ascii":"Yasynuvata","lat":48.1298,"lon":37.8594,"population":37600},{"id":698436,"name":"Pokrov","ascii":"Pokrov","lat":47.65361,"lon":34.11488,"population":37493},{"id":709540,"name":"Dubno","ascii":"Dubno","lat":50.40752,"lon":25.7624,"population":37257},{"id":690412,"name":"Vasylkiv","ascii":"Vasylkiv","lat":50.18693,"lon":30.31346,"population":37068},{"id":710374,"name":"Chuhuiv","ascii":"Chuhuiv","lat":49.83538,"lon":36.6865,"population":36519},{"id":700261,"name":"Netishyn","ascii":"Netishyn","lat":50.32863,"lon":26.64872,"population":36492},{"id":697592,"name":"Pervomaisk","ascii":"Pervomaisk","lat":48.62831,"lon":38.56205,"population":36091},{"id":707244,"name":"Kakhovka","ascii":"Kakhovka","lat":46.81601,"lon":33.47862,"population":35983},{"id":713122,"name":"Avdiivka","nameKo":"아브 데브 카","ascii":"Avdiivka","lat":48.14019,"lon":37.75008,"population":35826},{"id":13580123,"name":"Vyshhorodskyi Masyv","ascii":"Vyshhorodskyi Masyv","lat":50.50978,"lon":30.45355,"population":35200},{"id":693581,"name":"Slavuta","ascii":"Slavuta","lat":50.29609,"lon":26.86613,"population":35068},{"id":13580121,"name":"Rayduzhnyi Masyv","ascii":"Rayduzhnyi Masyv","lat":50.48551,"lon":30.58571,"population":35000},{"id":687116,"name":"Zhmerynka","ascii":"Zhmerynka","lat":49.03523,"lon":28.11405,"population":34498},{"id":711515,"name":"Boiarka","ascii":"Boiarka","lat":50.31911,"lon":30.29728,"population":34394},{"id":692818,"name":"Starokostyantyniv","ascii":"Starokostyantyniv","lat":49.75522,"lon":27.21229,"population":34232},{"id":694864,"name":"Sambir","ascii":"Sambir","lat":49.51624,"lon":23.20133,"population":34152},{"id":688860,"name":"Voznesensk","ascii":"Voznesensk","lat":47.56218,"lon":31.33602,"population":33442},{"id":687997,"name":"Pivdenne","ascii":"Pivdenne","lat":46.62472,"lon":31.10182,"population":32677},{"id":711669,"name":"Boryslav","ascii":"Boryslav","lat":49.28998,"lon":23.42889,"population":32473},{"id":13580113,"name":"Vidradnyi","ascii":"Vidradnyi","lat":50.43194,"lon":30.42231,"population":32000},{"id":13561777,"name":"Podil","ascii":"Podil","lat":49.6039,"lon":34.59443,"population":31870},{"id":707758,"name":"Hlukhiv","nameKo":"흘루히우","ascii":"Hlukhiv","lat":51.67822,"lon":33.9162,"population":31789},{"id":698782,"name":"Obukhiv","ascii":"Obukhiv","lat":50.10689,"lon":30.61848,"population":31557},{"id":8468760,"name":"Novoyavorivs'k","ascii":"Novoyavorivs'k","lat":49.93023,"lon":23.57357,"population":31366},{"id":709354,"name":"Toretsk","ascii":"Toretsk","lat":48.39477,"lon":37.8478,"population":30914},{"id":704737,"name":"Kostopil","ascii":"Kostopil","lat":50.87732,"lon":26.44797,"population":30838},{"id":704362,"name":"Yany Kapu","ascii":"Yany Kapu","lat":45.95547,"lon":33.79261,"population":30700},{"id":700918,"name":"Mohyliv-Podilskyy","ascii":"Mohyliv-Podilskyy","lat":48.44278,"lon":27.79975,"population":30589},{"id":693796,"name":"Synelnykove","ascii":"Synelnykove","lat":48.32362,"lon":35.52612,"population":30556},{"id":712631,"name":"Bilychi","ascii":"Bilychi","lat":50.46544,"lon":30.34654,"population":30000},{"id":11776362,"name":"Demiyivka","ascii":"Demiyivka","lat":50.40206,"lon":30.51564,"population":30000},{"id":13580120,"name":"Minskyi Masyv","ascii":"Minskyi Masyv","lat":50.51791,"lon":30.46318,"population":30000},{"id":13580126,"name":"Syrets","ascii":"Syrets","lat":50.47955,"lon":30.44491,"population":30000},{"id":713513,"name":"Alushta","nameKo":"알루슈타","ascii":"Alushta","lat":44.67728,"lon":34.4097,"population":29586},{"id":691469,"name":"Tokmak","ascii":"Tokmak","lat":47.25554,"lon":35.70836,"population":29573},{"id":694792,"name":"Sarny","ascii":"Sarny","lat":51.33898,"lon":26.60693,"population":28865},{"id":697576,"name":"Zlatopil","ascii":"Zlatopil","lat":49.37646,"lon":36.21848,"population":28510},{"id":706165,"name":"Khust","ascii":"Khust","lat":48.17193,"lon":23.29791,"population":28424},{"id":710400,"name":"Chortkiv","ascii":"Chortkiv","lat":49.01701,"lon":25.79808,"population":28393},{"id":694910,"name":"Saki","ascii":"Saki","lat":45.13424,"lon":33.59996,"population":28322},{"id":698874,"name":"Novyi Rozdil","ascii":"Novyi Rozdil","lat":49.47136,"lon":24.13352,"population":28304},{"id":691179,"name":"Truskavets","nameKo":"트루스카베츠","ascii":"Truskavets","lat":49.28067,"lon":23.50365,"population":28287},{"id":709900,"name":"Dobropillia","ascii":"Dobropillia","lat":48.46147,"lon":37.08524,"population":28170},{"id":691605,"name":"Terny","ascii":"Terny","lat":48.14512,"lon":33.55832,"population":28000},{"id":686875,"name":"Zolotonosha","ascii":"Zolotonosha","lat":49.66926,"lon":32.03637,"population":27818},{"id":706380,"name":"Khmilnyk","ascii":"Khmilnyk","lat":49.5581,"lon":27.95682,"population":27707},{"id":697616,"name":"Shakhtarske","ascii":"Shakhtarske","lat":48.3479,"lon":36.39637,"population":27573},{"id":712969,"name":"Bakhchysarai","nameKo":"바흐치사라이","ascii":"Bakhchysarai","lat":44.75525,"lon":33.85782,"population":27448},{"id":13580324,"name":"Rusanivka","ascii":"Rusanivka","lat":50.43996,"lon":30.59682,"population":27400},{"id":705797,"name":"Khrestivka","ascii":"Khrestivka","lat":48.14918,"lon":38.35944,"population":27370},{"id":703656,"name":"Kupiansk","ascii":"Kupiansk","lat":49.71003,"lon":37.61581,"population":27169},{"id":691628,"name":"Ternivka","ascii":"Ternivka","lat":48.52656,"lon":36.07051,"population":26961},{"id":705809,"name":"Holubivka","ascii":"Holubivka","lat":48.63751,"lon":38.6428,"population":26654},{"id":712926,"name":"Balakliia","nameKo":"발라클리야","ascii":"Balakliia","lat":49.45595,"lon":36.84433,"population":26334},{"id":697637,"name":"Pereiaslav","ascii":"Pereiaslav","lat":50.06739,"lon":31.44969,"population":26273},{"id":692909,"name":"Stara Darnytsya","ascii":"Stara Darnytsya","lat":50.43333,"lon":30.63333,"population":25900},{"id":13513215,"name":"Sofiivska Borschahivka","ascii":"Sofiivska Borschahivka","lat":50.40931,"lon":30.35908,"population":25882},{"id":708901,"name":"Haysyn","ascii":"Haysyn","lat":48.81294,"lon":29.37917,"population":25735},{"id":688746,"name":"Vynohradiv","ascii":"Vynohradiv","lat":48.14126,"lon":23.03623,"population":25317},{"id":702116,"name":"Malyn","ascii":"Malyn","lat":50.77233,"lon":29.23833,"population":25172},{"id":13580099,"name":"Stare Misto","ascii":"Stare Misto","lat":50.44759,"lon":30.52635,"population":25000},{"id":697650,"name":"Perevalsk","ascii":"Perevalsk","lat":48.43779,"lon":38.84384,"population":24817},{"id":691037,"name":"Oleshky","ascii":"Oleshky","lat":46.62553,"lon":32.72426,"population":24639},{"id":687432,"name":"Zdolbuniv","ascii":"Zdolbuniv","lat":50.52205,"lon":26.24823,"population":24501},{"id":6930327,"name":"Slavutych","ascii":"Slavutych","lat":51.5225,"lon":30.71806,"population":24464},{"id":713203,"name":"Armyansk","ascii":"Armyansk","lat":46.10919,"lon":33.69206,"population":24442},{"id":710229,"name":"Debaltseve","ascii":"Debaltseve","lat":48.338,"lon":38.40239,"population":24209},{"id":704885,"name":"Korostyshiv","ascii":"Korostyshiv","lat":50.31723,"lon":29.0563,"population":24129},{"id":704000,"name":"Krolevets","ascii":"Krolevets","lat":51.54775,"lon":33.38475,"population":24115},{"id":613273,"name":"Lebedyn","ascii":"Lebedyn","lat":50.58518,"lon":34.4849,"population":23892},{"id":697488,"name":"Pisochyn","ascii":"Pisochyn","lat":49.95642,"lon":36.10841,"population":23509},{"id":706900,"name":"Kaniv","nameKo":"카니우","ascii":"Kaniv","lat":49.75187,"lon":31.47003,"population":23503},{"id":709054,"name":"Hadyach","ascii":"Hadyach","lat":50.36912,"lon":33.997,"population":23480},{"id":712423,"name":"Berehove","nameKo":"베레호베","ascii":"Berehove","lat":48.20514,"lon":22.64453,"population":23325},{"id":706571,"name":"Koziatyn","ascii":"Koziatyn","lat":49.7164,"lon":28.83858,"population":23241},{"id":711416,"name":"Brody","nameKo":"브로디","ascii":"Brody","lat":50.08854,"lon":25.14606,"population":23134},{"id":709835,"name":"Dokuchaievsk","ascii":"Dokuchaievsk","lat":47.7522,"lon":37.67761,"population":22835},{"id":686896,"name":"Zolochiv","nameKo":"졸로치우","ascii":"Zolochiv","lat":49.8074,"lon":24.90376,"population":22608},{"id":700507,"name":"Nadvirna","ascii":"Nadvirna","lat":48.63659,"lon":24.5714,"population":22504},{"id":703428,"name":"Ladyzhyn","ascii":"Ladyzhyn","lat":48.68437,"lon":29.23636,"population":22459},{"id":700829,"name":"Molodohvardiisk","ascii":"Molodohvardiisk","lat":48.34511,"lon":39.65244,"population":22449},{"id":686919,"name":"Znamyanka","ascii":"Znamyanka","lat":48.72066,"lon":32.65822,"population":22444},{"id":698709,"name":"Ihren","ascii":"Ihren","lat":48.47614,"lon":35.15842,"population":22118},{"id":688723,"name":"Vyshhorod","ascii":"Vyshhorod","lat":50.58476,"lon":30.4898,"population":22080},{"id":689200,"name":"Vilnohirsk","ascii":"Vilnohirsk","lat":48.48416,"lon":34.01708,"population":22079},{"id":692832,"name":"Starobilsk","ascii":"Starobilsk","lat":49.27719,"lon":38.91673,"population":22000},{"id":694677,"name":"Selydove","ascii":"Selydove","lat":48.14446,"lon":37.30058,"population":21521},{"id":704388,"name":"Berestyn","ascii":"Berestyn","lat":49.37511,"lon":35.45493,"population":21426},{"id":712590,"name":"Bilohorodka","ascii":"Bilohorodka","lat":50.38969,"lon":30.22532,"population":21369},{"id":701347,"name":"Merefa","ascii":"Merefa","lat":49.81861,"lon":36.05653,"population":21202},{"id":689198,"name":"Volnovakha","ascii":"Volnovakha","lat":47.6016,"lon":37.49712,"population":21166},{"id":704143,"name":"Kremenets","ascii":"Kremenets","lat":50.09864,"lon":25.72787,"population":21063},{"id":13580112,"name":"Teremky","ascii":"Teremky","lat":50.37053,"lon":30.45881,"population":21000},{"id":696660,"name":"Polonne","ascii":"Polonne","lat":50.11944,"lon":27.50856,"population":20785},{"id":703646,"name":"Kurakhovo","ascii":"Kurakhovo","lat":47.98522,"lon":37.2821,"population":20700},{"id":709755,"name":"Dolyna","ascii":"Dolyna","lat":48.97158,"lon":23.96558,"population":20417},{"id":692254,"name":"Sukhodilsk","ascii":"Sukhodilsk","lat":48.35022,"lon":39.72698,"population":20390},{"id":693301,"name":"Sokal","ascii":"Sokal","lat":50.47452,"lon":24.28088,"population":20373},{"id":692632,"name":"Stebnyk","ascii":"Stebnyk","lat":49.30098,"lon":23.55197,"population":20200},{"id":704204,"name":"Lyman","ascii":"Lyman","lat":48.98616,"lon":37.80307,"population":20066},{"id":702417,"name":"Liubotyn","ascii":"Liubotyn","lat":49.94691,"lon":35.92907,"population":20001},{"id":6723020,"name":"Zhuravlivka","ascii":"Zhuravlivka","lat":50.0125,"lon":36.27214,"population":20000},{"id":704608,"name":"Kivsharivka","ascii":"Kivsharivka","lat":49.63026,"lon":37.6775,"population":19738},{"id":691255,"name":"Trostianets","ascii":"Trostianets","lat":50.48478,"lon":34.96567,"population":19544},{"id":705883,"name":"Kiliya","ascii":"Kiliya","lat":45.44445,"lon":29.26396,"population":19540},{"id":708878,"name":"Henichesk","ascii":"Henichesk","lat":46.16824,"lon":34.80861,"population":19501},{"id":696566,"name":"Popasna","ascii":"Popasna","lat":48.63328,"lon":38.37804,"population":19199},{"id":696943,"name":"Pidhorodne","ascii":"Pidhorodne","lat":48.57422,"lon":35.09702,"population":19138},{"id":689564,"name":"Vynnyky","ascii":"Vynnyky","lat":49.81672,"lon":24.14417,"population":19037},{"id":688587,"name":"Yahotyn","ascii":"Yahotyn","lat":50.27975,"lon":31.76246,"population":18995},{"id":704492,"name":"Krasyliv","ascii":"Krasyliv","lat":49.65376,"lon":26.97211,"population":18868},{"id":712930,"name":"Balaklava","nameKo":"발라클라바","ascii":"Balaklava","lat":44.51118,"lon":33.59942,"population":18649},{"id":12129128,"name":"Reni","ascii":"Reni","lat":45.45421,"lon":28.27731,"population":18530},{"id":712886,"name":"Balta","ascii":"Balta","lat":47.93596,"lon":29.62225,"population":18511},{"id":707155,"name":"Kalynivka","ascii":"Kalynivka","lat":49.46129,"lon":28.51541,"population":18492},{"id":689159,"name":"Volochysk","ascii":"Volochysk","lat":49.53606,"lon":26.20681,"population":18474},{"id":708251,"name":"Hostomel","ascii":"Hostomel","lat":50.56841,"lon":30.2651,"population":18466},{"id":709782,"name":"Dolynska","ascii":"Dolynska","lat":48.11725,"lon":32.77691,"population":18225},{"id":695357,"name":"Kurakhove","ascii":"Kurakhove","lat":47.9847,"lon":37.27937,"population":18220},{"id":695965,"name":"Pyatykhatky","ascii":"Pyatykhatky","lat":48.40821,"lon":33.70919,"population":18140},{"id":704138,"name":"Kreminna","ascii":"Kreminna","lat":49.0495,"lon":38.21893,"population":18116},{"id":696677,"name":"Polohy","ascii":"Polohy","lat":47.47865,"lon":36.25463,"population":18111},{"id":13580319,"name":"Klov","ascii":"Klov","lat":50.4349,"lon":30.53807,"population":18000},{"id":13546522,"name":"Zhulyany","ascii":"Zhulyany","lat":50.39428,"lon":30.44057,"population":18000},{"id":713504,"name":"Amvrosiivka","ascii":"Amvrosiivka","lat":47.79273,"lon":38.4782,"population":17998},{"id":690254,"name":"Velyka Kokhnivka","ascii":"Velyka Kokhnivka","lat":49.11719,"lon":33.48033,"population":17966},{"id":693709,"name":"Skadovsk","ascii":"Skadovsk","lat":46.11313,"lon":32.90978,"population":17915},{"id":697771,"name":"Pelahiivka","ascii":"Pelahiivka","lat":48.10752,"lon":38.61338,"population":17877},{"id":686818,"name":"Zuhres","ascii":"Zuhres","lat":48.01428,"lon":38.26599,"population":17871},{"id":695344,"name":"Rozdilna","ascii":"Rozdilna","lat":46.85479,"lon":30.07091,"population":17858},{"id":711894,"name":"Bohodukhiv","ascii":"Bohodukhiv","lat":50.16464,"lon":35.52725,"population":17818},{"id":704858,"name":"Korsun-Shevchenkivskyy","ascii":"Korsun-Shevchenkivskyy","lat":49.41822,"lon":31.25174,"population":17763},{"id":709960,"name":"Dniprorudne","ascii":"Dniprorudne","lat":47.38993,"lon":35.00065,"population":17736},{"id":712374,"name":"Berezhany","ascii":"Berezhany","lat":49.44578,"lon":24.93686,"population":17697},{"id":704670,"name":"Kotsiubynske","ascii":"Kotsiubynske","lat":50.48836,"lon":30.32957,"population":17623},{"id":689304,"name":"Vovchansk","ascii":"Vovchansk","lat":50.29078,"lon":36.94108,"population":17459},{"id":693615,"name":"Skvyra","ascii":"Skvyra","lat":49.73303,"lon":29.66426,"population":17452},{"id":710098,"name":"Derhachi","ascii":"Derhachi","lat":50.10659,"lon":36.12112,"population":17139},{"id":692129,"name":"Svalyava","ascii":"Svalyava","lat":48.54735,"lon":22.98673,"population":17068},{"id":702563,"name":"Lutuhyne","ascii":"Lutuhyne","lat":48.40507,"lon":39.22675,"population":17061},{"id":13580132,"name":"Galagany","ascii":"Galagany","lat":50.45537,"lon":30.40233,"population":17000},{"id":13580102,"name":"Lypky","ascii":"Lypky","lat":50.44296,"lon":30.53039,"population":17000},{"id":13580320,"name":"Zvirynets","ascii":"Zvirynets","lat":50.41626,"lon":30.5492,"population":17000},{"id":688089,"name":"Katerynivka","ascii":"Katerynivka","lat":48.55586,"lon":39.18277,"population":16948},{"id":700696,"name":"Mostyska","ascii":"Mostyska","lat":49.79467,"lon":23.15077,"population":16945},{"id":712967,"name":"Bakhmach","ascii":"Bakhmach","lat":51.18144,"lon":32.83463,"population":16862},{"id":693920,"name":"Shpola","ascii":"Shpola","lat":49.01291,"lon":31.3926,"population":16674},{"id":692315,"name":"Sudak","ascii":"Sudak","lat":44.84924,"lon":34.97471,"population":16597},{"id":686803,"name":"Zvenihorodka","ascii":"Zvenihorodka","lat":49.07765,"lon":30.96074,"population":16490},{"id":699078,"name":"Novoukrayinka","ascii":"Novoukrayinka","lat":48.31661,"lon":31.52355,"population":16479},{"id":712587,"name":"Bilohirsk","ascii":"Bilohirsk","lat":45.05679,"lon":34.60386,"population":16428},{"id":712389,"name":"Berezan","ascii":"Berezan","lat":50.3112,"lon":31.46712,"population":16202},{"id":8354605,"name":"Svyatopetrivske","ascii":"Svyatopetrivske","lat":50.38214,"lon":30.32278,"population":16200},{"id":707296,"name":"Iziaslav","ascii":"Iziaslav","lat":50.11978,"lon":26.82475,"population":16162},{"id":692118,"name":"Svatove","ascii":"Svatove","lat":49.40719,"lon":38.15362,"population":16145},{"id":13580322,"name":"Kybalchych","ascii":"Kybalchych","lat":50.49288,"lon":30.59756,"population":16100},{"id":707752,"name":"Horodok","ascii":"Horodok","lat":49.17209,"lon":26.56357,"population":16046},{"id":708313,"name":"Horodok","ascii":"Horodok","lat":49.78476,"lon":23.6481,"population":15993},{"id":713245,"name":"Apostolove","ascii":"Apostolove","lat":47.65983,"lon":33.71952,"population":15828},{"id":705183,"name":"Slobozhans’ke","ascii":"Slobozhans'ke","lat":49.59701,"lon":36.52618,"population":15825},{"id":711867,"name":"Bohuslav","ascii":"Bohuslav","lat":49.54637,"lon":30.87407,"population":15789},{"id":690312,"name":"Bahacheve","ascii":"Bahacheve","lat":49.01198,"lon":31.04659,"population":15763},{"id":709429,"name":"Dunayivtsi","ascii":"Dunayivtsi","lat":48.88697,"lon":26.84816,"population":15707},{"id":695859,"name":"Rakhiv","ascii":"Rakhiv","lat":48.05472,"lon":24.20314,"population":15621},{"id":712559,"name":"Bilopillia","ascii":"Bilopillia","lat":51.15016,"lon":34.31287,"population":15600},{"id":711562,"name":"Bortnychi","ascii":"Bortnychi","lat":50.38489,"lon":30.69542,"population":15500},{"id":689916,"name":"Verkhnodniprovsk","ascii":"Verkhnodniprovsk","lat":48.65557,"lon":34.3262,"population":15477},{"id":707679,"name":"Ilovays’k","ascii":"Ilovays'k","lat":47.92498,"lon":38.20235,"population":15447},{"id":712861,"name":"Bar","nameKo":"바르","ascii":"Bar","lat":49.07362,"lon":27.67404,"population":15337},{"id":698131,"name":"Ovruch","ascii":"Ovruch","lat":51.3246,"lon":28.80351,"population":15332},{"id":695912,"name":"Radomyshl","ascii":"Radomyshl","lat":50.49613,"lon":29.22911,"population":15252},{"id":710548,"name":"Chervonopartyzansk","ascii":"Chervonopartyzansk","lat":48.07613,"lon":39.79618,"population":15218},{"id":711841,"name":"Bolhrad","nameKo":"볼흐라드","ascii":"Bolhrad","lat":45.67786,"lon":28.61811,"population":15044},{"id":689584,"name":"Vilnyansk","ascii":"Vilnyansk","lat":47.94768,"lon":35.44034,"population":15044},{"id":691016,"name":"Tulchyn","ascii":"Tulchyn","lat":48.67397,"lon":28.86848,"population":15011},{"id":9112916,"name":"Abakumova","ascii":"Abakumova","lat":48.00222,"lon":37.59721,"population":15000},{"id":13526729,"name":"Darnytsya Car Repair Plant Microdistrict","ascii":"Darnytsya Car Repair Plant Microdistrict","lat":50.44953,"lon":30.67608,"population":15000},{"id":13580118,"name":"Livoberezhnyi Masyv","ascii":"Livoberezhnyi Masyv","lat":50.45544,"lon":30.58969,"population":15000},{"id":697183,"name":"Pyriatyn","ascii":"Pyriatyn","lat":50.24388,"lon":32.5203,"population":14988},{"id":698953,"name":"Novyy Buh","ascii":"Novyy Buh","lat":47.69057,"lon":32.51214,"population":14969},{"id":698232,"name":"Ostroh","ascii":"Ostroh","lat":50.32897,"lon":26.52113,"population":14894},{"id":696008,"name":"Putyvl","ascii":"Putyvl","lat":51.33745,"lon":33.87066,"population":14886},{"id":696317,"name":"Prydniprovsk","ascii":"Prydniprovsk","lat":48.41302,"lon":35.12995,"population":14787},{"id":711134,"name":"Burshtyn","nameKo":"호박","ascii":"Burshtyn","lat":49.25193,"lon":24.63339,"population":14737},{"id":704393,"name":"Krasnohorivka","ascii":"Krasnohorivka","lat":48.00528,"lon":37.50839,"population":14666},{"id":712501,"name":"Belozyorskoye","ascii":"Belozyorskoye","lat":48.53366,"lon":37.06272,"population":14634},{"id":708898,"name":"Hayvoron","ascii":"Hayvoron","lat":48.34323,"lon":29.86592,"population":14523},{"id":700568,"name":"Mykolaiv","ascii":"Mykolaiv","lat":49.5255,"lon":23.9779,"population":14498},{"id":698428,"name":"Orikhiv","ascii":"Orikhiv","lat":47.57613,"lon":35.78333,"population":14479},{"id":706749,"name":"Karlivka","ascii":"Karlivka","lat":49.45548,"lon":35.13493,"population":14470},{"id":699753,"name":"Novhorod-Siverskyi","ascii":"Novhorod-Siverskyi","lat":52.00683,"lon":33.26335,"population":14400},{"id":691578,"name":"Tetiiv","ascii":"Tetiiv","lat":49.36947,"lon":29.67789,"population":14388},{"id":713163,"name":"Artsyz","ascii":"Artsyz","lat":45.98526,"lon":29.43286,"population":14355},{"id":699956,"name":"Nyzhnia Krynka","ascii":"Nyzhnia Krynka","lat":48.11376,"lon":38.15962,"population":14253},{"id":704839,"name":"Koriukivka","ascii":"Koriukivka","lat":51.76877,"lon":32.24813,"population":14215},{"id":700119,"name":"Mykolaivka","ascii":"Mykolaivka","lat":48.85461,"lon":37.7728,"population":14210},{"id":692487,"name":"Storozhynets","ascii":"Storozhynets","lat":48.15938,"lon":25.72144,"population":14198},{"id":690823,"name":"Vuhledar","ascii":"Vuhledar","lat":47.77974,"lon":37.24992,"population":14144},{"id":699557,"name":"Novohrodivka","ascii":"Novohrodivka","lat":48.20139,"lon":37.33937,"population":14037},{"id":13561774,"name":"Levada","ascii":"Levada","lat":49.5692,"lon":34.58061,"population":13990},{"id":690082,"name":"Velykodolynske","ascii":"Velykodolynske","lat":46.34642,"lon":30.57902,"population":13856},{"id":687093,"name":"Zhovkva","nameKo":"조우크바","ascii":"Zhovkva","lat":50.05751,"lon":23.97346,"population":13852},{"id":711635,"name":"Borodianka","nameKo":"보로댠카","ascii":"Borodianka","lat":50.64484,"lon":29.9201,"population":13832},{"id":705730,"name":"Kivertsi","ascii":"Kivertsi","lat":50.83425,"lon":25.45821,"population":13798},{"id":687455,"name":"Zbarazh","ascii":"Zbarazh","lat":49.66157,"lon":25.77925,"population":13746},{"id":686928,"name":"Zmiiv","ascii":"Zmiiv","lat":49.68886,"lon":36.3576,"population":13737},{"id":698770,"name":"Ochakiv","ascii":"Ochakiv","lat":46.61472,"lon":31.54505,"population":13663},{"id":690773,"name":"Ukrainka","ascii":"Ukrainka","lat":50.14317,"lon":30.74612,"population":13636},{"id":708366,"name":"Horodyshche","ascii":"Horodyshche","lat":49.29114,"lon":31.44035,"population":13609},{"id":9533118,"name":"Slobozhanske","ascii":"Slobozhanske","lat":48.53201,"lon":35.07147,"population":13556},{"id":699811,"name":"Nova Odesa","nameKo":"노바 오데사","ascii":"Nova Odesa","lat":47.31268,"lon":31.76972,"population":13547},{"id":708632,"name":"Hola Prystan","ascii":"Hola Prystan","lat":46.52973,"lon":32.52408,"population":13544},{"id":688073,"name":"Bunhe","ascii":"Bunhe","lat":48.2214,"lon":38.28365,"population":13495},{"id":707898,"name":"Hulyaypole","ascii":"Hulyaypole","lat":47.66685,"lon":36.25576,"population":13446},{"id":691693,"name":"Terebovlia","ascii":"Terebovlia","lat":49.29967,"lon":25.68886,"population":13425},{"id":691936,"name":"Talne","ascii":"Talne","lat":48.88891,"lon":30.6965,"population":13318},{"id":691832,"name":"Taromske","ascii":"Taromske","lat":48.44278,"lon":34.78852,"population":13289},{"id":712332,"name":"Berezne","ascii":"Berezne","lat":51.00343,"lon":26.74618,"population":13280},{"id":695326,"name":"Rozhyshche","ascii":"Rozhyshche","lat":50.91542,"lon":25.26906,"population":13280},{"id":687245,"name":"Zhashkiv","ascii":"Zhashkiv","lat":49.2459,"lon":30.09888,"population":13242},{"id":707251,"name":"Kaharlyk","ascii":"Kaharlyk","lat":49.859,"lon":30.82327,"population":13133},{"id":9983758,"name":"Lymanka","ascii":"Lymanka","lat":46.38564,"lon":30.67736,"population":13085},{"id":686868,"name":"Zolote","ascii":"Zolote","lat":48.69516,"lon":38.51512,"population":13007},{"id":13535689,"name":"Khreshchatyi Yar","ascii":"Khreshchatyi Yar","lat":50.4547,"lon":30.52917,"population":13000},{"id":13580109,"name":"Teremky-I","ascii":"Teremky-I","lat":50.3666,"lon":30.45858,"population":13000},{"id":691904,"name":"Tarashcha","ascii":"Tarashcha","lat":49.55883,"lon":30.49967,"population":12952},{"id":699917,"name":"Nosivka","ascii":"Nosivka","lat":50.93152,"lon":31.58282,"population":12908},{"id":688288,"name":"Yavoriv","ascii":"Yavoriv","lat":49.93774,"lon":23.38355,"population":12785},{"id":713304,"name":"Antonivka","ascii":"Antonivka","lat":46.67666,"lon":32.73061,"population":12777},{"id":687392,"name":"Zelenodolsk","ascii":"Zelenodolsk","lat":47.55353,"lon":33.65648,"population":12692},{"id":697741,"name":"Perehinske","ascii":"Perehinske","lat":48.81118,"lon":24.19196,"population":12681},{"id":697276,"name":"Petrovske","ascii":"Petrovske","lat":48.29662,"lon":38.87892,"population":12642},{"id":707777,"name":"Hvardiiske","ascii":"Hvardiiske","lat":45.11692,"lon":34.02188,"population":12589},{"id":686729,"name":"Vasylivka","ascii":"Vasylivka","lat":47.44218,"lon":35.28213,"population":12567},{"id":696291,"name":"Primorskiy","ascii":"Primorskiy","lat":45.11201,"lon":35.4786,"population":12560},{"id":706289,"name":"Khorol","ascii":"Khorol","lat":49.78286,"lon":33.27184,"population":12540},{"id":8354606,"name":"Hatne","ascii":"Hatne","lat":50.35444,"lon":30.37497,"population":12500},{"id":712488,"name":"Bilyayivka","ascii":"Bilyayivka","lat":46.48427,"lon":30.2089,"population":12477},{"id":712260,"name":"Beryslav","ascii":"Beryslav","lat":46.83851,"lon":33.42664,"population":12417},{"id":693194,"name":"Solonytsivka","ascii":"Solonytsivka","lat":49.99682,"lon":36.03464,"population":12378},{"id":692953,"name":"Stanytsia Luhanska","ascii":"Stanytsia Luhanska","lat":48.66247,"lon":39.48358,"population":12258},{"id":710915,"name":"Chasiv Yar","ascii":"Chasiv Yar","lat":48.59362,"lon":37.85543,"population":12250},{"id":712250,"name":"Bershad","ascii":"Bershad","lat":48.36354,"lon":29.51463,"population":12205},{"id":708663,"name":"Hnivan","ascii":"Hnivan","lat":49.0939,"lon":28.33785,"population":12191},{"id":712775,"name":"Bashtanka","ascii":"Bashtanka","lat":47.40528,"lon":32.43444,"population":12180},{"id":711348,"name":"Buchach","ascii":"Buchach","lat":49.06234,"lon":25.39496,"population":12171},{"id":704705,"name":"Kotelva","ascii":"Kotelva","lat":50.06849,"lon":34.74697,"population":12122},{"id":707026,"name":"Kamyanka-Dniprovska","ascii":"Kamyanka-Dniprovska","lat":47.49629,"lon":34.41026,"population":12117},{"id":693379,"name":"Snihurivka","ascii":"Snihurivka","lat":47.07651,"lon":32.8197,"population":12045},{"id":8519820,"name":"Chaiky","ascii":"Chaiky","lat":50.43034,"lon":30.28385,"population":12000},{"id":13580131,"name":"Hrushky","ascii":"Hrushky","lat":50.45305,"lon":30.42741,"population":12000},{"id":13580104,"name":"Post-Volynskyi","ascii":"Post-Volynskyi","lat":50.41691,"lon":30.42795,"population":12000},{"id":701233,"name":"Mykhaylivka","ascii":"Mykhaylivka","lat":47.26863,"lon":35.22207,"population":11949},{"id":690545,"name":"Uzyn","ascii":"Uzyn","lat":49.8246,"lon":30.42523,"population":11921},{"id":687237,"name":"Zhdanivka","ascii":"Zhdanivka","lat":48.1532,"lon":38.25694,"population":11867},{"id":701906,"name":"Manevychi","ascii":"Manevychi","lat":51.29405,"lon":25.53436,"population":11775},{"id":700322,"name":"Nemyriv","ascii":"Nemyriv","lat":48.97002,"lon":28.83781,"population":11662},{"id":698138,"name":"Ovidiopol","ascii":"Ovidiopol","lat":46.24721,"lon":30.43746,"population":11572},{"id":705115,"name":"Kostiantynivka","ascii":"Kostiantynivka","lat":46.81778,"lon":35.42424,"population":11540},{"id":708320,"name":"Horodnia","ascii":"Horodnia","lat":51.89085,"lon":31.59741,"population":11506},{"id":707052,"name":"Kamyanka","ascii":"Kamyanka","lat":49.03955,"lon":32.10174,"population":11501},{"id":11125112,"name":"Myrnyi","ascii":"Myrnyi","lat":48.38919,"lon":35.00277,"population":11476},{"id":705186,"name":"Kal'mius'ke","ascii":"Kal'mius'ke","lat":47.6639,"lon":38.07753,"population":11422},{"id":690524,"name":"Vakhrusheve","ascii":"Vakhrusheve","lat":48.15124,"lon":38.78043,"population":11421},{"id":694725,"name":"Shchastia","ascii":"Shchastia","lat":48.73784,"lon":39.23047,"population":11411},{"id":686961,"name":"Zymna Voda","ascii":"Zymna Voda","lat":49.82625,"lon":23.88222,"population":11365},{"id":707695,"name":"Illintsi","ascii":"Illintsi","lat":49.10544,"lon":29.20589,"population":11284},{"id":712839,"name":"Baranivka","ascii":"Baranivka","lat":50.29691,"lon":27.6622,"population":11161},{"id":696292,"name":"Prymorsk","ascii":"Prymorsk","lat":46.73415,"lon":36.34599,"population":11157},{"id":704381,"name":"Krasnogvardeyskoye","ascii":"Krasnogvardeyskoye","lat":45.50271,"lon":34.30134,"population":11134},{"id":692093,"name":"Svetlodarsk","ascii":"Svetlodarsk","lat":48.43374,"lon":38.22331,"population":11127},{"id":701031,"name":"Myronivka","ascii":"Myronivka","lat":49.66007,"lon":30.98225,"population":11103},{"id":713743,"name":"Yakymivka","ascii":"Yakymivka","lat":46.7011,"lon":35.16334,"population":11069},{"id":699675,"name":"Novoazovs'k","ascii":"Novoazovs'k","lat":47.11389,"lon":38.08599,"population":11051},{"id":707025,"name":"Kamin-Kashyrskyi","ascii":"Kamin-Kashyrskyi","lat":51.62412,"lon":24.95864,"population":11042},{"id":710687,"name":"Chernomorskoye","ascii":"Chernomorskoye","lat":45.50657,"lon":32.69776,"population":11039},{"id":702874,"name":"Lokhvytsya","ascii":"Lokhvytsya","lat":50.36444,"lon":33.27153,"population":11014},{"id":688696,"name":"Vysokyi","ascii":"Vysokyi","lat":49.89156,"lon":36.12175,"population":10988},{"id":693020,"name":"Yampil","ascii":"Yampil","lat":48.24056,"lon":28.28141,"population":10957},{"id":701372,"name":"Mena","ascii":"Mena","lat":51.5217,"lon":32.21568,"population":10935},{"id":694403,"name":"Siversk","ascii":"Siversk","lat":48.86588,"lon":38.09779,"population":10875},{"id":693086,"name":"Sosnivka","ascii":"Sosnivka","lat":50.2897,"lon":24.25139,"population":10838},{"id":691803,"name":"Tatarbunary","ascii":"Tatarbunary","lat":45.83861,"lon":29.61123,"population":10836},{"id":711989,"name":"Bobrynets","ascii":"Bobrynets","lat":48.05674,"lon":32.1655,"population":10758},{"id":699453,"name":"Novomyrhorod","ascii":"Novomyrhorod","lat":48.81692,"lon":31.64985,"population":10715},{"id":690771,"name":"Ukrainsk","ascii":"Ukrainsk","lat":48.09777,"lon":37.36526,"population":10655},{"id":699100,"name":"Novotroyitske","ascii":"Novotroyitske","lat":46.35088,"lon":34.33245,"population":10647},{"id":711587,"name":"Borshchiv","ascii":"Borshchiv","lat":48.80319,"lon":26.03171,"population":10632},{"id":694273,"name":"Snovsk","ascii":"Snovsk","lat":51.81943,"lon":31.94412,"population":10620},{"id":700551,"name":"Shchyolkino","ascii":"Shchyolkino","lat":45.42985,"lon":35.8225,"population":10593},{"id":699620,"name":"Novodnistrovsk","ascii":"Novodnistrovsk","lat":48.58321,"lon":27.43658,"population":10590},{"id":711999,"name":"Bobrovytsia","ascii":"Bobrovytsia","lat":50.74693,"lon":31.3948,"population":10541},{"id":708181,"name":"Hrebinka","ascii":"Hrebinka","lat":50.12017,"lon":32.42966,"population":10541},{"id":706757,"name":"Soledar","ascii":"Soledar","lat":48.69075,"lon":38.07432,"population":10490},{"id":700700,"name":"Mospyne","ascii":"Mospyne","lat":47.89012,"lon":38.06381,"population":10471},{"id":699777,"name":"Nova Vodolaha","ascii":"Nova Vodolaha","lat":49.7199,"lon":35.86964,"population":10455},{"id":704379,"name":"Krasnoyilsk","ascii":"Krasnoyilsk","lat":48.01865,"lon":25.56004,"population":10428},{"id":710565,"name":"Radyvyliv","ascii":"Radyvyliv","lat":50.13041,"lon":25.25181,"population":10427},{"id":693062,"name":"Sovetskiy","ascii":"Sovetskiy","lat":45.34267,"lon":34.92463,"population":10410},{"id":707744,"name":"Ichnia","ascii":"Ichnia","lat":50.86258,"lon":32.39425,"population":10390},{"id":704920,"name":"Korolevo","ascii":"Korolevo","lat":48.15731,"lon":23.13769,"population":10385},{"id":702147,"name":"Mala Vyska","ascii":"Mala Vyska","lat":48.64694,"lon":31.63231,"population":10382},{"id":690509,"name":"Valky","ascii":"Valky","lat":49.83597,"lon":35.61223,"population":10381},{"id":708395,"name":"Hirnyk","ascii":"Hirnyk","lat":48.05728,"lon":37.3716,"population":10357},{"id":618835,"name":"Zhydachiv","ascii":"Zhydachiv","lat":49.3832,"lon":24.13918,"population":10353},{"id":703142,"name":"Letychiv","ascii":"Letychiv","lat":49.3801,"lon":27.61889,"population":10335},{"id":708953,"name":"Gaspra","ascii":"Gaspra","lat":44.43364,"lon":34.10297,"population":10310},{"id":702421,"name":"Liuboml","ascii":"Liuboml","lat":51.22601,"lon":24.03727,"population":10295},{"id":712787,"name":"Baryshivka","ascii":"Baryshivka","lat":50.36098,"lon":31.32173,"population":10294},{"id":689808,"name":"Verkhivtseve","ascii":"Verkhivtseve","lat":48.48127,"lon":34.24003,"population":10262},{"id":711850,"name":"Bolekhiv","ascii":"Bolekhiv","lat":49.06479,"lon":23.85953,"population":10259},{"id":698652,"name":"Oktyabr’skoye","ascii":"Oktyabr'skoye","lat":45.28866,"lon":34.13521,"population":10244},{"id":706925,"name":"Komyshova Bukhta","ascii":"Komyshova Bukhta","lat":44.58442,"lon":33.44095,"population":10205},{"id":712576,"name":"Inkerman","ascii":"Inkerman","lat":44.61391,"lon":33.6098,"population":10204},{"id":699706,"name":"Novooleksiyivka","ascii":"Novooleksiyivka","lat":46.22995,"lon":34.64576,"population":10154},{"id":865729,"name":"Tavriysk","ascii":"Tavriysk","lat":46.75432,"lon":33.41665,"population":10108},{"id":696280,"name":"Sartana","ascii":"Sartana","lat":47.17704,"lon":37.69273,"population":10070},{"id":698597,"name":"Olevsk","ascii":"Olevsk","lat":51.22482,"lon":27.65228,"population":10032},{"id":13580325,"name":"Akademmistechko","ascii":"Akademmistechko","lat":50.46936,"lon":30.36216,"population":10000},{"id":13580128,"name":"Antyfiyivka","ascii":"Antyfiyivka","lat":50.48648,"lon":30.46975,"population":10000},{"id":13580100,"name":"Chorna Hora","ascii":"Chorna Hora","lat":50.41063,"lon":30.54519,"population":10000},{"id":13580119,"name":"Lisovyi Masyv","ascii":"Lisovyi Masyv","lat":50.4725,"lon":30.63113,"population":10000},{"id":12522778,"name":"Shchemylivka","ascii":"Shchemylivka","lat":49.07551,"lon":33.39964,"population":10000},{"id":13545871,"name":"Tretiy Zanasyp","ascii":"Tretiy Zanasyp","lat":49.08078,"lon":33.45547,"population":10000},{"id":707489,"name":"Ivankiv","ascii":"Ivankiv","lat":50.93865,"lon":29.89426,"population":9993},{"id":696743,"name":"Pokotylivka","ascii":"Pokotylivka","lat":49.91343,"lon":36.17511,"population":9962},{"id":865087,"name":"Teplodar","ascii":"Teplodar","lat":46.50196,"lon":30.32256,"population":9958},{"id":693365,"name":"Sniatyn","ascii":"Sniatyn","lat":48.44883,"lon":25.55994,"population":9942},{"id":709516,"name":"Dubove","ascii":"Dubove","lat":48.17473,"lon":23.88693,"population":9938},{"id":706200,"name":"Khrystynivka","ascii":"Khrystynivka","lat":48.81282,"lon":29.96885,"population":9879},{"id":696720,"name":"Pokrovske","ascii":"Pokrovske","lat":47.98126,"lon":36.23446,"population":9868},{"id":695581,"name":"Rodynske","ascii":"Rodynske","lat":48.35415,"lon":37.20641,"population":9850},{"id":708140,"name":"Gresovskiy","ascii":"Gresovskiy","lat":45.00804,"lon":34.02657,"population":9835},{"id":709546,"name":"Dubliany","ascii":"Dubliany","lat":49.90411,"lon":24.08637,"population":9793},{"id":710129,"name":"Derazhnya","ascii":"Derazhnya","lat":49.26915,"lon":27.42909,"population":9772},{"id":705544,"name":"Kobelyaky","ascii":"Kobelyaky","lat":49.14936,"lon":34.20193,"population":9772},{"id":699751,"name":"Niu-York","ascii":"Niu-York","lat":48.33027,"lon":37.84114,"population":9735},{"id":697671,"name":"Pereshchepyne","ascii":"Pereshchepyne","lat":49.02512,"lon":35.36885,"population":9720},{"id":689736,"name":"Vesele","ascii":"Vesele","lat":47.00973,"lon":34.91843,"population":9719},{"id":710935,"name":"Chaplynka","ascii":"Chaplynka","lat":46.36454,"lon":33.54087,"population":9687},{"id":695935,"name":"Radekhiv","ascii":"Radekhiv","lat":50.28086,"lon":24.63836,"population":9680},{"id":695789,"name":"Ratne","ascii":"Ratne","lat":51.6683,"lon":24.5303,"population":9657},{"id":690158,"name":"Velyki Luchky","ascii":"Velyki Luchky","lat":48.41822,"lon":22.56765,"population":9650},{"id":712312,"name":"Berezivka","ascii":"Berezivka","lat":47.20037,"lon":30.90943,"population":9644},{"id":694025,"name":"Shyroke","ascii":"Shyroke","lat":47.6855,"lon":33.26147,"population":9623},{"id":696771,"name":"Pohrebyshche","ascii":"Pohrebyshche","lat":49.48508,"lon":29.25988,"population":9620},{"id":699311,"name":"Aydar","ascii":"Aydar","lat":49.53316,"lon":39.11845,"population":9619},{"id":690266,"name":"Velyka Dymerka","ascii":"Velyka Dymerka","lat":50.59333,"lon":30.90313,"population":9606},{"id":702337,"name":"Makariv","ascii":"Makariv","lat":50.46408,"lon":29.81128,"population":9589},{"id":701299,"name":"Mizhhirya","ascii":"Mizhhirya","lat":48.52435,"lon":23.50091,"population":9567},{"id":712508,"name":"Bilozerka","ascii":"Bilozerka","lat":46.62651,"lon":32.44447,"population":9565},{"id":686956,"name":"Zymohiria","ascii":"Zymohiria","lat":48.58528,"lon":38.9375,"population":9557},{"id":693426,"name":"Smoline","ascii":"Smoline","lat":48.60127,"lon":31.31292,"population":9547},{"id":687292,"name":"Zinkiv","ascii":"Zinkiv","lat":50.20987,"lon":34.35952,"population":9514},{"id":698861,"name":"Novyi Svit","ascii":"Novyi Svit","lat":47.80669,"lon":38.02102,"population":9488},{"id":711536,"name":"Borzna","ascii":"Borzna","lat":51.25464,"lon":32.4269,"population":9454},{"id":696032,"name":"Pustomyty","ascii":"Pustomyty","lat":49.71687,"lon":23.90677,"population":9434},{"id":707757,"name":"Hlyboka","ascii":"Hlyboka","lat":48.08756,"lon":25.9284,"population":9424},{"id":710820,"name":"Cherepkivtsi","ascii":"Cherepkivtsi","lat":48.01557,"lon":25.9643,"population":9376},{"id":698461,"name":"Oprysheny","ascii":"Oprysheny","lat":48.05334,"lon":26.02699,"population":9376},{"id":692714,"name":"Stary Krym","ascii":"Stary Krym","lat":45.02887,"lon":35.09174,"population":9370},{"id":708753,"name":"Hlobyne","ascii":"Hlobyne","lat":49.37894,"lon":33.27555,"population":9349},{"id":709493,"name":"Dubrovytsia","ascii":"Dubrovytsia","lat":51.57076,"lon":26.56369,"population":9343},{"id":710587,"name":"Sloboda","ascii":"Sloboda","lat":49.37281,"lon":32.15742,"population":9333},{"id":689428,"name":"Volodymyrets","ascii":"Volodymyrets","lat":51.41909,"lon":26.14353,"population":9315},{"id":712200,"name":"Bezliudivka","ascii":"Bezliudivka","lat":49.87547,"lon":36.26539,"population":9296},{"id":690873,"name":"Tysmenytsia","ascii":"Tysmenytsia","lat":48.9036,"lon":24.84695,"population":9287},{"id":707240,"name":"Mirnoye","ascii":"Mirnoye","lat":44.9833,"lon":34.0616,"population":9284},{"id":708273,"name":"Hirske","ascii":"Hirske","lat":48.74981,"lon":38.49518,"population":9274},{"id":11114903,"name":"Rozsoshentsi","ascii":"Rozsoshentsi","lat":49.54094,"lon":34.50565,"population":9272},{"id":691705,"name":"Irmino","ascii":"Irmino","lat":48.59905,"lon":38.58824,"population":9270},{"id":690040,"name":"Velykyy Bychkiv","ascii":"Velykyy Bychkiv","lat":47.96821,"lon":24.01061,"population":9255},{"id":707232,"name":"Kalanchak","ascii":"Kalanchak","lat":46.25495,"lon":33.29061,"population":9251},{"id":695643,"name":"Reshetylivka","ascii":"Reshetylivka","lat":49.563,"lon":34.07896,"population":9240},{"id":710663,"name":"Cherniakhiv","ascii":"Cherniakhiv","lat":50.45652,"lon":28.67018,"population":9214},{"id":705796,"name":"Obukhivka","ascii":"Obukhivka","lat":48.54884,"lon":34.85387,"population":9178},{"id":692416,"name":"Stryzhavka","ascii":"Stryzhavka","lat":49.30955,"lon":28.47208,"population":9165},{"id":707559,"name":"Irshava","ascii":"Irshava","lat":48.31227,"lon":23.04065,"population":9163},{"id":701845,"name":"Mar'yinka","ascii":"Mar'yinka","lat":47.94527,"lon":37.50544,"population":9089},{"id":702898,"name":"Lyubashivka","ascii":"Lyubashivka","lat":47.83387,"lon":30.25209,"population":9055},{"id":707681,"name":"Ilnytsia","ascii":"Ilnytsia","lat":48.35662,"lon":23.07616,"population":9050},{"id":690906,"name":"Tyachiv","ascii":"Tyachiv","lat":48.01092,"lon":23.57168,"population":9019},{"id":12089488,"name":"Bahrynova Gora","ascii":"Bahrynova Gora","lat":50.38564,"lon":30.53718,"population":9000},{"id":704525,"name":"Kozova","ascii":"Kozova","lat":49.43206,"lon":25.14547,"population":8989},{"id":690203,"name":"Velyka Znamianka","ascii":"Velyka Znamianka","lat":47.44536,"lon":34.35081,"population":8989},{"id":710715,"name":"Chornobaivka","ascii":"Chornobaivka","lat":46.69641,"lon":32.5471,"population":8954},{"id":706352,"name":"Khodoriv","ascii":"Khodoriv","lat":49.40738,"lon":24.31294,"population":8954},{"id":706244,"name":"Khotyn","nameKo":"호틴","ascii":"Khotyn","lat":48.50555,"lon":26.48978,"population":8936},{"id":707860,"name":"Gurzuf","ascii":"Gurzuf","lat":44.54624,"lon":34.27841,"population":8933},{"id":687826,"name":"Zalishchyky","ascii":"Zalishchyky","lat":48.64098,"lon":25.7317,"population":8928},{"id":710523,"name":"Donets","ascii":"Donets","lat":49.50829,"lon":36.56667,"population":8893},{"id":691497,"name":"Tlumach","ascii":"Tlumach","lat":48.86519,"lon":25.00385,"population":8886},{"id":693284,"name":"Sokyryany","ascii":"Sokyryany","lat":48.44913,"lon":27.41138,"population":8877},{"id":702365,"name":"Mahala","ascii":"Mahala","lat":48.29408,"lon":26.04252,"population":8876},{"id":707689,"name":"Yavornytske","ascii":"Yavornytske","lat":48.40458,"lon":35.27933,"population":8836},{"id":708380,"name":"Horodenka","ascii":"Horodenka","lat":48.669,"lon":25.5033,"population":8812},{"id":703840,"name":"Kryzhopil","ascii":"Kryzhopil","lat":48.3821,"lon":28.86766,"population":8754},{"id":696581,"name":"Pomichna","ascii":"Pomichna","lat":48.23975,"lon":31.40865,"population":8750},{"id":708784,"name":"Hlevakha","ascii":"Hlevakha","lat":50.27423,"lon":30.32706,"population":8742},{"id":700019,"name":"Nizhnegorskiy","ascii":"Nizhnegorskiy","lat":45.44789,"lon":34.73839,"population":8741},{"id":710473,"name":"Chyhyryn","ascii":"Chyhyryn","lat":49.08045,"lon":32.66082,"population":8664},{"id":700796,"name":"Monastyryshche","ascii":"Monastyryshche","lat":48.99494,"lon":29.80992,"population":8647},{"id":693176,"name":"Solotvyno","ascii":"Solotvyno","lat":47.94728,"lon":23.87433,"population":8632},{"id":712521,"name":"Bilovods'k","ascii":"Bilovods'k","lat":49.20846,"lon":39.58975,"population":8626},{"id":710409,"name":"Chop","ascii":"Chop","lat":48.4316,"lon":22.20446,"population":8626},{"id":710958,"name":"Chahor","ascii":"Chahor","lat":48.2433,"lon":25.99392,"population":8564},{"id":688365,"name":"Yasinya","ascii":"Yasinya","lat":48.2726,"lon":24.36029,"population":8559},{"id":700292,"name":"Nerubayske","ascii":"Nerubayske","lat":46.54445,"lon":30.62921,"population":8558},{"id":690629,"name":"Uspenka","ascii":"Uspenka","lat":48.39077,"lon":39.16284,"population":8550},{"id":707756,"name":"Dachne","ascii":"Dachne","lat":46.57844,"lon":30.54733,"population":8549},{"id":11183753,"name":"Nove","ascii":"Nove","lat":48.52725,"lon":32.12223,"population":8533},{"id":704764,"name":"Kosiv","ascii":"Kosiv","lat":48.32051,"lon":25.09109,"population":8522},{"id":705493,"name":"Kodyma","ascii":"Kodyma","lat":48.10306,"lon":29.12598,"population":8514},{"id":12324213,"name":"Berkovets","ascii":"Berkovets","lat":50.49449,"lon":30.37008,"population":8500},{"id":707993,"name":"Hrushovo","ascii":"Hrushovo","lat":48.00677,"lon":23.77426,"population":8500},{"id":13545883,"name":"Rakivka","ascii":"Rakivka","lat":49.02446,"lon":33.46398,"population":8500},{"id":695781,"name":"Rava-Ruska","ascii":"Rava-Ruska","lat":50.23249,"lon":23.62175,"population":8494},{"id":690648,"name":"Usatove","ascii":"Usatove","lat":46.52893,"lon":30.64951,"population":8483},{"id":697568,"name":"Pervomayskoye","ascii":"Pervomayskoye","lat":45.71744,"lon":33.85596,"population":8470},{"id":698627,"name":"Oleksandrivka","ascii":"Oleksandrivka","lat":48.968,"lon":32.23968,"population":8464},{"id":713389,"name":"Andrushivka","ascii":"Andrushivka","lat":50.02288,"lon":29.02023,"population":8458},{"id":711105,"name":"Bushtyno","ascii":"Bushtyno","lat":48.0473,"lon":23.48576,"population":8444},{"id":708296,"name":"Horokhiv","ascii":"Horokhiv","lat":50.50186,"lon":24.76149,"population":8444},{"id":703397,"name":"Lanivtsi","ascii":"Lanivtsi","lat":49.86103,"lon":26.09052,"population":8434},{"id":690279,"name":"Velyka Berezovytsya","ascii":"Velyka Berezovytsya","lat":49.49869,"lon":25.61231,"population":8391},{"id":711116,"name":"Buryn","ascii":"Buryn","lat":51.1993,"lon":33.83319,"population":8359},{"id":711103,"name":"Busk","ascii":"Busk","lat":49.96548,"lon":24.61227,"population":8355},{"id":703013,"name":"Lypovets","ascii":"Lypovets","lat":49.22776,"lon":29.05669,"population":8303},{"id":710202,"name":"Deliatyn","ascii":"Deliatyn","lat":48.5248,"lon":24.62566,"population":8276},{"id":688717,"name":"Vyshkovo","ascii":"Vyshkovo","lat":48.04885,"lon":23.41986,"population":8243},{"id":700964,"name":"Mlyniv","ascii":"Mlyniv","lat":50.51026,"lon":25.61719,"population":8228},{"id":711887,"name":"Bohorodchany","ascii":"Bohorodchany","lat":48.80812,"lon":24.53728,"population":8222},{"id":703652,"name":"Kupiansk-Vuzlovyi","ascii":"Kupiansk-Vuzlovyi","lat":49.67061,"lon":37.64319,"population":8212},{"id":698927,"name":"Novi Sanzhary","ascii":"Novi Sanzhary","lat":49.33379,"lon":34.31496,"population":8179},{"id":703460,"name":"Kvasyliv","ascii":"Kvasyliv","lat":50.5623,"lon":26.25943,"population":8117},{"id":709701,"name":"Yaremche","ascii":"Yaremche","lat":48.44886,"lon":24.55335,"population":8094},{"id":713514,"name":"Alupka","ascii":"Alupka","lat":44.41952,"lon":34.04489,"population":8087},{"id":693469,"name":"Slov`yanoserbsk","ascii":"Slov`yanoserbsk","lat":48.69779,"lon":38.98133,"population":8065},{"id":712602,"name":"Bilky","ascii":"Bilky","lat":48.32629,"lon":23.13811,"population":8064},{"id":690247,"name":"Velyka Lepetykha","ascii":"Velyka Lepetykha","lat":47.17138,"lon":33.93147,"population":8047},{"id":688345,"name":"Yasnohirka","ascii":"Yasnohirka","lat":48.77369,"lon":37.55401,"population":8030},{"id":704376,"name":"Krasnokutsk","ascii":"Krasnokutsk","lat":50.06602,"lon":35.16275,"population":8008},{"id":13545873,"name":"Pershyi Zanasyp","ascii":"Pershyi Zanasyp","lat":49.06516,"lon":33.43293,"population":8000},{"id":694992,"name":"Rzhyshchiv","ascii":"Rzhyshchiv","lat":49.96729,"lon":31.04069,"population":7993},{"id":688846,"name":"Vradiyivka","ascii":"Vradiyivka","lat":47.86425,"lon":30.58881,"population":7956},{"id":687578,"name":"Zastavna","ascii":"Zastavna","lat":48.52137,"lon":25.8426,"population":7896},{"id":812802,"name":"Podvirky","ascii":"Podvirky","lat":49.97987,"lon":36.09238,"population":7890},{"id":703555,"name":"Kushuhum","ascii":"Kushuhum","lat":47.70963,"lon":35.21644,"population":7886},{"id":703410,"name":"Lanchyn","ascii":"Lanchyn","lat":48.55173,"lon":24.74923,"population":7855},{"id":704343,"name":"Krasnopillia","ascii":"Krasnopillia","lat":50.77458,"lon":35.25965,"population":7849},{"id":696823,"name":"Pidvolochysk","ascii":"Pidvolochysk","lat":49.53131,"lon":26.14401,"population":7843},{"id":712794,"name":"Barvinkove","ascii":"Barvinkove","lat":48.90595,"lon":37.02278,"population":7840},{"id":710532,"name":"Zavodske","ascii":"Zavodske","lat":50.40065,"lon":33.40118,"population":7832},{"id":693100,"name":"Sosnytsia","ascii":"Sosnytsia","lat":51.52387,"lon":32.49985,"population":7825},{"id":695559,"name":"Rohatyn","ascii":"Rohatyn","lat":49.41043,"lon":24.61103,"population":7797},{"id":694590,"name":"Semenivka","ascii":"Semenivka","lat":52.1786,"lon":32.58181,"population":7792},{"id":713500,"name":"Ananyiv","ascii":"Ananyiv","lat":47.71975,"lon":29.95711,"population":7789},{"id":695104,"name":"Ruska Poliana","ascii":"Ruska Poliana","lat":49.417,"lon":31.92009,"population":7780},{"id":699677,"name":"Novoaidar","ascii":"Novoaidar","lat":48.96402,"lon":39.00559,"population":7773},{"id":712613,"name":"Bilytske","ascii":"Bilytske","lat":48.40642,"lon":37.18111,"population":7764},{"id":686895,"name":"Zolochiv","ascii":"Zolochiv","lat":50.27985,"lon":35.98179,"population":7744},{"id":702491,"name":"Lysyanka","ascii":"Lysyanka","lat":49.25045,"lon":30.82782,"population":7737},{"id":697613,"name":"Manhush","ascii":"Manhush","lat":47.05625,"lon":37.31193,"population":7731},{"id":690197,"name":"Velykyy Bereznyy","ascii":"Velykyy Bereznyy","lat":48.8934,"lon":22.46121,"population":7713},{"id":712569,"name":"Bilokurakyne","ascii":"Bilokurakyne","lat":49.53458,"lon":38.72723,"population":7712},{"id":688750,"name":"Vylkove","ascii":"Vylkove","lat":45.40279,"lon":29.5869,"population":7712},{"id":698929,"name":"Novi Petrivtsi","ascii":"Novi Petrivtsi","lat":50.62754,"lon":30.4431,"population":7700},{"id":697006,"name":"Pochayiv","ascii":"Pochayiv","lat":50.00412,"lon":25.5093,"population":7691},{"id":690469,"name":"Varva","ascii":"Varva","lat":50.49503,"lon":32.71968,"population":7689},{"id":688744,"name":"Vypasne","ascii":"Vypasne","lat":46.19092,"lon":30.25615,"population":7675},{"id":710041,"name":"Dykanka","ascii":"Dykanka","lat":49.82586,"lon":34.522,"population":7662},{"id":690189,"name":"Velykyi Dalnyk","ascii":"Velykyi Dalnyk","lat":46.47494,"lon":30.56099,"population":7655},{"id":704573,"name":"Kozelets","ascii":"Kozelets","lat":50.91334,"lon":31.1214,"population":7646},{"id":701894,"name":"Mankivka","ascii":"Mankivka","lat":48.96391,"lon":30.33626,"population":7634},{"id":713683,"name":"Oleksandrivka","ascii":"Oleksandrivka","lat":46.32868,"lon":30.63562,"population":7600},{"id":700835,"name":"Molodyozhnoye","ascii":"Molodyozhnoye","lat":45.00354,"lon":34.05634,"population":7597},{"id":699285,"name":"Novoselytsya","ascii":"Novoselytsya","lat":48.21812,"lon":26.26766,"population":7588},{"id":689363,"name":"Vlasivka","ascii":"Vlasivka","lat":49.11832,"lon":33.27971,"population":7587},{"id":691264,"name":"Trostyanets","ascii":"Trostyanets","lat":48.50915,"lon":29.22742,"population":7584},{"id":712430,"name":"Berehomet","ascii":"Berehomet","lat":48.17148,"lon":25.33032,"population":7583},{"id":704010,"name":"Kryve Ozero","ascii":"Kryve Ozero","lat":47.94763,"lon":30.34701,"population":7583},{"id":693231,"name":"Solone","ascii":"Solone","lat":48.20907,"lon":34.87585,"population":7557},{"id":712339,"name":"Bereznehuvate","ascii":"Bereznehuvate","lat":47.30872,"lon":32.85098,"population":7552},{"id":691663,"name":"Teresva","ascii":"Teresva","lat":47.99769,"lon":23.69904,"population":7547},{"id":793657,"name":"Malynivka","ascii":"Malynivka","lat":49.81667,"lon":36.73333,"population":7502},{"id":704363,"name":"Krasnopavlivka","ascii":"Krasnopavlivka","lat":49.13699,"lon":36.3201,"population":7495},{"id":699769,"name":"Nova Zburivka","ascii":"Nova Zburivka","lat":46.45456,"lon":32.45277,"population":7489},{"id":704118,"name":"Kripenskyi","ascii":"Kripenskyi","lat":48.07709,"lon":39.058,"population":7487},{"id":703261,"name":"Lenino","ascii":"Lenino","lat":45.29857,"lon":35.77708,"population":7426},{"id":690960,"name":"Turka","ascii":"Turka","lat":49.15355,"lon":23.02934,"population":7395},{"id":688440,"name":"Yarmolyntsi","ascii":"Yarmolyntsi","lat":49.19271,"lon":26.83437,"population":7381},{"id":689157,"name":"Volodarka","ascii":"Volodarka","lat":49.52542,"lon":29.91023,"population":7355},{"id":695205,"name":"Rudne","ascii":"Rudne","lat":49.83333,"lon":23.9,"population":7350},{"id":11778463,"name":"Khoroshiv","ascii":"Khoroshiv","lat":50.59484,"lon":28.44489,"population":7337},{"id":687652,"name":"Zarichne","ascii":"Zarichne","lat":51.81385,"lon":26.13085,"population":7336},{"id":691155,"name":"Tsarychanka","ascii":"Tsarychanka","lat":48.94186,"lon":34.48601,"population":7328},{"id":695740,"name":"Razdol’noye","ascii":"Razdol'noye","lat":45.77083,"lon":33.48777,"population":7326},{"id":697135,"name":"Pivdenne","ascii":"Pivdenne","lat":49.8832,"lon":36.06846,"population":7319},{"id":709353,"name":"Romaniv","ascii":"Romaniv","lat":50.14802,"lon":27.93124,"population":7318},{"id":690485,"name":"Vapnyarka","ascii":"Vapnyarka","lat":48.5311,"lon":28.747,"population":7316},{"id":698944,"name":"Novi Basy","ascii":"Novi Basy","lat":50.86324,"lon":34.88002,"population":7299},{"id":690822,"name":"Vuhlehirsk","ascii":"Vuhlehirsk","lat":48.31417,"lon":38.27191,"population":7294},{"id":697692,"name":"Peremyshliany","ascii":"Peremyshliany","lat":49.66929,"lon":24.55759,"population":7284},{"id":701619,"name":"Massandra","ascii":"Massandra","lat":44.50958,"lon":34.18817,"population":7280},{"id":812962,"name":"Dokuchaievske","ascii":"Dokuchaievske","lat":49.89248,"lon":36.45158,"population":7251},{"id":711621,"name":"Borova","ascii":"Borova","lat":50.17625,"lon":30.10429,"population":7241},{"id":709505,"name":"Nyzhnia Apsha","ascii":"Nyzhnia Apsha","lat":48.00365,"lon":23.83286,"population":7227},{"id":706536,"name":"Kelmentsi","ascii":"Kelmentsi","lat":48.4664,"lon":26.83277,"population":7211},{"id":702231,"name":"Mala Danylivka","ascii":"Mala Danylivka","lat":50.06354,"lon":36.16564,"population":7211},{"id":713175,"name":"Kypuche","ascii":"Kypuche","lat":48.44061,"lon":38.732,"population":7203},{"id":688501,"name":"Yampil’","ascii":"Yampil'","lat":51.94765,"lon":33.78759,"population":7200},{"id":710716,"name":"Chornobay","ascii":"Chornobay","lat":49.67074,"lon":32.3236,"population":7162},{"id":694491,"name":"Seredyna-Buda","ascii":"Seredyna-Buda","lat":52.18886,"lon":34.03613,"population":7161},{"id":697325,"name":"Petrove","ascii":"Petrove","lat":48.33809,"lon":33.2653,"population":7150},{"id":691279,"name":"Troitske","ascii":"Troitske","lat":49.91454,"lon":38.29265,"population":7144},{"id":696576,"name":"Poninka","ascii":"Poninka","lat":50.18413,"lon":27.52817,"population":7120},{"id":703061,"name":"Lymanske","ascii":"Lymanske","lat":46.67952,"lon":29.97231,"population":7119},{"id":694392,"name":"Shabo","ascii":"Shabo","lat":46.12657,"lon":30.38567,"population":7108},{"id":13580107,"name":"Kytaiv","ascii":"Kytaiv","lat":50.36975,"lon":30.5423,"population":7100},{"id":686852,"name":"Zorynsk","ascii":"Zorynsk","lat":48.41194,"lon":38.62361,"population":7096},{"id":694137,"name":"Shevchenkove","ascii":"Shevchenkove","lat":49.69524,"lon":37.17513,"population":7090},{"id":701792,"name":"Markivka","ascii":"Markivka","lat":49.52285,"lon":39.57069,"population":7087},{"id":707840,"name":"Husiatyn","ascii":"Husiatyn","lat":49.07123,"lon":26.20464,"population":7083},{"id":694350,"name":"Sharhorod","ascii":"Sharhorod","lat":48.73562,"lon":28.08459,"population":7067},{"id":705799,"name":"Kirovskoye","ascii":"Kirovskoye","lat":45.22967,"lon":35.19987,"population":7064},{"id":698003,"name":"Lymanivka","ascii":"Lymanivka","lat":48.93883,"lon":36.27828,"population":7038},{"id":701305,"name":"Mezhova","ascii":"Mezhova","lat":48.25318,"lon":36.73468,"population":7022},{"id":9983688,"name":"Chornomorske","ascii":"Chornomorske","lat":46.58405,"lon":30.93068,"population":7020},{"id":694919,"name":"Sakhnovshchyna","ascii":"Sakhnovshchyna","lat":49.14894,"lon":35.87374,"population":7010},{"id":13580124,"name":"Priorka","ascii":"Priorka","lat":50.50977,"lon":30.45773,"population":7000},{"id":706580,"name":"Kazanka","ascii":"Kazanka","lat":47.82691,"lon":32.83057,"population":6972},{"id":689595,"name":"Vilino","ascii":"Vilino","lat":44.8456,"lon":33.67161,"population":6960},{"id":697423,"name":"Petropavlivka","ascii":"Petropavlivka","lat":48.46353,"lon":36.43061,"population":6944},{"id":704968,"name":"Korets","ascii":"Korets","lat":50.61921,"lon":27.15795,"population":6914},{"id":710071,"name":"Desna","ascii":"Desna","lat":50.92731,"lon":30.76048,"population":6906},{"id":706945,"name":"Komyshany","ascii":"Komyshany","lat":46.63995,"lon":32.50343,"population":6896},{"id":697676,"name":"Peresichna","ascii":"Peresichna","lat":50.02452,"lon":35.97871,"population":6894},{"id":697489,"name":"Piskivka","ascii":"Piskivka","lat":50.69378,"lon":29.61934,"population":6889},{"id":688956,"name":"Vorzel","nameKo":"보르젤","ascii":"Vorzel","lat":50.5444,"lon":30.15305,"population":6859},{"id":705222,"name":"Dobroslav","ascii":"Dobroslav","lat":46.82095,"lon":30.94518,"population":6847},{"id":707058,"name":"Kamyanka","ascii":"Kamyanka","lat":48.02786,"lon":25.89964,"population":6847},{"id":691435,"name":"Tomakivka","ascii":"Tomakivka","lat":47.81081,"lon":34.74324,"population":6828},{"id":699823,"name":"Nova Mayachka","ascii":"Nova Mayachka","lat":46.59938,"lon":33.22429,"population":6811},{"id":688961,"name":"Vorozhba","ascii":"Vorozhba","lat":51.17334,"lon":34.21917,"population":6809},{"id":703494,"name":"Bilmak","ascii":"Bilmak","lat":47.35914,"lon":36.65331,"population":6802},{"id":8524552,"name":"Shchaslyve","ascii":"Shchaslyve","lat":50.37852,"lon":30.79582,"population":6800},{"id":712515,"name":"Bile","ascii":"Bile","lat":48.49523,"lon":39.05051,"population":6775},{"id":690166,"name":"Velyki Komiaty","ascii":"Velyki Komiaty","lat":48.23741,"lon":22.97717,"population":6772},{"id":711764,"name":"Vinnytski Khutory","ascii":"Vinnytski Khutory","lat":49.20689,"lon":28.55482,"population":6770},{"id":710463,"name":"Chynadiyovo","ascii":"Chynadiyovo","lat":48.48666,"lon":22.83368,"population":6762},{"id":708614,"name":"Holmivskyi","ascii":"Holmivskyi","lat":48.40394,"lon":38.08203,"population":6750},{"id":711268,"name":"Budy","ascii":"Budy","lat":49.89133,"lon":36.02096,"population":6742},{"id":703438,"name":"Ladan","ascii":"Ladan","lat":50.51959,"lon":32.58178,"population":6719},{"id":697396,"name":"Petrovka","ascii":"Petrovka","lat":45.49776,"lon":34.28816,"population":6714},{"id":699615,"name":"Novodruzhesk","ascii":"Novodruzhesk","lat":48.96351,"lon":38.35201,"population":6705},{"id":706271,"name":"Khorostkiv","ascii":"Khorostkiv","lat":49.21385,"lon":25.91964,"population":6703},{"id":687449,"name":"Zboriv","ascii":"Zboriv","lat":49.66493,"lon":25.14019,"population":6695},{"id":697750,"name":"Perechyn","ascii":"Perechyn","lat":48.73494,"lon":22.47718,"population":6683},{"id":698506,"name":"Vilshany","ascii":"Vilshany","lat":50.0544,"lon":35.88233,"population":6682},{"id":690288,"name":"Velyka Oleksandrivka","ascii":"Velyka Oleksandrivka","lat":47.31888,"lon":33.29059,"population":6654},{"id":702931,"name":"Lityn","ascii":"Lityn","lat":49.32711,"lon":28.08698,"population":6652},{"id":695653,"name":"Ripky","ascii":"Ripky","lat":51.80105,"lon":31.08383,"population":6643},{"id":706736,"name":"Karnaukhivka","ascii":"Karnaukhivka","lat":48.47542,"lon":34.73631,"population":6634},{"id":693325,"name":"Sofiyivka","ascii":"Sofiyivka","lat":48.04734,"lon":33.87237,"population":6601},{"id":699802,"name":"Nova Praha","ascii":"Nova Praha","lat":48.56868,"lon":32.90431,"population":6593},{"id":696332,"name":"Pryazovske","ascii":"Pryazovske","lat":46.73123,"lon":35.64082,"population":6578},{"id":8504651,"name":"Sofiyivska Borschagivka","ascii":"Sofiyivska Borschagivka","lat":50.41005,"lon":30.36724,"population":6571},{"id":689025,"name":"Voronizh","ascii":"Voronizh","lat":51.77572,"lon":33.45944,"population":6560},{"id":710560,"name":"Kubey","ascii":"Kubey","lat":45.79131,"lon":28.74455,"population":6544},{"id":693598,"name":"Slatyne","ascii":"Slatyne","lat":50.21041,"lon":36.15376,"population":6544},{"id":709808,"name":"Dovhe","ascii":"Dovhe","lat":48.36504,"lon":23.28029,"population":6541},{"id":708403,"name":"Hornostayivka","ascii":"Hornostayivka","lat":47.01171,"lon":33.72987,"population":6541},{"id":694016,"name":"Shyryayeve","ascii":"Shyryayeve","lat":47.38483,"lon":30.19065,"population":6537},{"id":695516,"name":"Rokytne","ascii":"Rokytne","lat":51.27891,"lon":27.21705,"population":6521},{"id":696218,"name":"Pryvillia","ascii":"Pryvillia","lat":49.00556,"lon":38.29883,"population":6520},{"id":689003,"name":"Voronovytsya","ascii":"Voronovytsya","lat":49.10903,"lon":28.68681,"population":6516},{"id":691715,"name":"Teofipol","ascii":"Teofipol","lat":49.83892,"lon":26.4204,"population":6509},{"id":705016,"name":"Kopychyntsi","ascii":"Kopychyntsi","lat":49.103,"lon":25.91164,"population":6502},{"id":13545868,"name":"Cherednyky","ascii":"Cherednyky","lat":49.08909,"lon":33.45354,"population":6500},{"id":13545879,"name":"Kostroma","ascii":"Kostroma","lat":49.03673,"lon":33.43905,"population":6500},{"id":693658,"name":"Skole","ascii":"Skole","lat":49.03767,"lon":23.51359,"population":6491},{"id":697418,"name":"Petropavlivska Borshchahivka","ascii":"Petropavlivska Borshchahivka","lat":50.43694,"lon":30.33747,"population":6485},{"id":692301,"name":"Sudova Vyshnia","ascii":"Sudova Vyshnia","lat":49.7868,"lon":23.37403,"population":6470},{"id":711359,"name":"Bryukhovychi","ascii":"Bryukhovychi","lat":49.90467,"lon":23.95969,"population":6440},{"id":702774,"name":"Lozuvatka","ascii":"Lozuvatka","lat":48.06017,"lon":33.28668,"population":6412},{"id":713588,"name":"Oleksandrivsk","ascii":"Oleksandrivsk","lat":48.58611,"lon":39.18946,"population":6401},{"id":709892,"name":"Dobrotvir","ascii":"Dobrotvir","lat":50.20526,"lon":24.3835,"population":6381},{"id":709643,"name":"Drabiv","ascii":"Drabiv","lat":49.95891,"lon":32.15028,"population":6358},{"id":707560,"name":"Irshansk","ascii":"Irshansk","lat":50.75095,"lon":28.72387,"population":6346},{"id":708863,"name":"Heorhiivka","ascii":"Heorhiivka","lat":48.42278,"lon":39.25278,"population":6287},{"id":690155,"name":"Velyki Mosty","ascii":"Velyki Mosty","lat":50.24318,"lon":24.14004,"population":6286},{"id":691084,"name":"Tsyrkuny","ascii":"Tsyrkuny","lat":50.09264,"lon":36.36223,"population":6284},{"id":705626,"name":"Klishkivtsi","ascii":"Klishkivtsi","lat":48.42342,"lon":26.25229,"population":6279},{"id":710552,"name":"Chervonohryhorivka","ascii":"Chervonohryhorivka","lat":47.61906,"lon":34.53778,"population":6270},{"id":713222,"name":"Arbuzynka","ascii":"Arbuzynka","lat":47.90791,"lon":31.31701,"population":6266},{"id":694745,"name":"Savran","ascii":"Savran","lat":48.1293,"lon":30.0833,"population":6264},{"id":709114,"name":"Fontanka","ascii":"Fontanka","lat":46.57016,"lon":30.85469,"population":6260},{"id":704277,"name":"Krasne","ascii":"Krasne","lat":49.91401,"lon":24.61487,"population":6250},{"id":691708,"name":"Teplyk","nameKo":"테플리크","ascii":"Teplyk","lat":48.66538,"lon":29.74482,"population":6250},{"id":708210,"name":"Hradyzk","ascii":"Hradyzk","lat":49.23943,"lon":33.13941,"population":6248},{"id":699034,"name":"Novovorontsovka","ascii":"Novovorontsovka","lat":47.50499,"lon":33.92317,"population":6248},{"id":686812,"name":"Zuya","ascii":"Zuya","lat":45.05418,"lon":34.32152,"population":6230},{"id":705735,"name":"Kitsman","ascii":"Kitsman","lat":48.43867,"lon":25.76111,"population":6229},{"id":686762,"name":"Ivano-Frankove","ascii":"Ivano-Frankove","lat":49.92167,"lon":23.72495,"population":6223},{"id":691336,"name":"Trebukhiv","ascii":"Trebukhiv","lat":50.48432,"lon":30.90304,"population":6207},{"id":695441,"name":"Rozkishne","ascii":"Rozkishne","lat":48.48959,"lon":39.27881,"population":6205},{"id":690281,"name":"Velyka Bilozerka","ascii":"Velyka Bilozerka","lat":47.27572,"lon":34.68457,"population":6200},{"id":709075,"name":"Partenit","ascii":"Partenit","lat":44.578,"lon":34.34464,"population":6193},{"id":707775,"name":"Zarichne","ascii":"Zarichne","lat":48.73251,"lon":35.30929,"population":6191},{"id":692102,"name":"Svesa","ascii":"Svesa","lat":51.95227,"lon":33.93572,"population":6186},{"id":700335,"name":"Nemishaieve","ascii":"Nemishaieve","lat":50.55939,"lon":30.08665,"population":6178},{"id":690985,"name":"Turbiv","ascii":"Turbiv","lat":49.34078,"lon":28.71831,"population":6166},{"id":688154,"name":"Yemilchyne","ascii":"Yemilchyne","lat":50.87349,"lon":27.80604,"population":6162},{"id":689567,"name":"Vinkivtsi","ascii":"Vinkivtsi","lat":49.03403,"lon":27.23135,"population":6127},{"id":695585,"name":"Rodakove","ascii":"Rodakove","lat":48.55888,"lon":39.02525,"population":6122},{"id":699680,"name":"Novoarkhanhelsk","ascii":"Novoarkhanhelsk","lat":48.66187,"lon":30.80705,"population":6121},{"id":702356,"name":"Mahdalynivka","ascii":"Mahdalynivka","lat":48.91204,"lon":34.91395,"population":6119},{"id":695099,"name":"Ruske Pole","ascii":"Ruske Pole","lat":48.05734,"lon":23.53513,"population":6112},{"id":696557,"name":"Popilnia","ascii":"Popilnia","lat":49.9532,"lon":29.45265,"population":6109},{"id":700848,"name":"Molochansk","ascii":"Molochansk","lat":47.20405,"lon":35.59789,"population":6099},{"id":694603,"name":"Semenivka","ascii":"Semenivka","lat":49.59655,"lon":33.17943,"population":6089},{"id":709034,"name":"Halych","nameKo":"할리치","ascii":"Halych","lat":49.12374,"lon":24.72748,"population":6086},{"id":710342,"name":"Chutove","ascii":"Chutove","lat":49.71414,"lon":35.15747,"population":6079},{"id":693995,"name":"Shklo","ascii":"Shklo","lat":49.95675,"lon":23.54408,"population":6069},{"id":692674,"name":"Stavyshche","ascii":"Stavyshche","lat":49.39251,"lon":30.19231,"population":6056},{"id":704773,"name":"Kosmach","ascii":"Kosmach","lat":48.33113,"lon":24.81417,"population":6054},{"id":690713,"name":"Blahovishchenske","ascii":"Blahovishchenske","lat":48.32822,"lon":30.23619,"population":6051},{"id":689401,"name":"Volodymyrivka","ascii":"Volodymyrivka","lat":47.73391,"lon":37.3882,"population":6047},{"id":692829,"name":"Starobesheve","ascii":"Starobesheve","lat":47.75069,"lon":38.03039,"population":6044},{"id":692146,"name":"Sutysky","ascii":"Sutysky","lat":49.03901,"lon":28.41956,"population":6027},{"id":13535688,"name":"Cherepanova Hora","ascii":"Cherepanova Hora","lat":50.43455,"lon":30.52094,"population":6000},{"id":13580111,"name":"Teremky-II","ascii":"Teremky-II","lat":50.38067,"lon":30.45249,"population":6000},{"id":711778,"name":"Velyka Verhunka","ascii":"Velyka Verhunka","lat":48.60966,"lon":39.38031,"population":6000},{"id":707313,"name":"Yizhivtsi","ascii":"Yizhivtsi","lat":48.02526,"lon":25.64626,"population":5987},{"id":692713,"name":"Staryi Krym","ascii":"Staryi Krym","lat":47.16105,"lon":37.48808,"population":5977},{"id":709740,"name":"Domanivka","ascii":"Domanivka","lat":47.62865,"lon":30.98648,"population":5972},{"id":701561,"name":"Mayaky","ascii":"Mayaky","lat":46.41253,"lon":30.26717,"population":5937},{"id":697018,"name":"Pobuzke","ascii":"Pobuzke","lat":48.1595,"lon":30.59247,"population":5897},{"id":699617,"name":"Novodonetske","ascii":"Novodonetske","lat":48.63604,"lon":36.98582,"population":5895},{"id":690335,"name":"Vasyshcheve","ascii":"Vasyshcheve","lat":49.83465,"lon":36.33123,"population":5862},{"id":700606,"name":"Murovani Kurylivtsi","ascii":"Murovani Kurylivtsi","lat":48.71813,"lon":27.53084,"population":5859},{"id":708585,"name":"Holovanivsk","ascii":"Holovanivsk","lat":48.3874,"lon":30.45947,"population":5857},{"id":712934,"name":"Balabyne","ascii":"Balabyne","lat":47.73686,"lon":35.21361,"population":5850},{"id":689817,"name":"Verkhovyna","ascii":"Verkhovyna","lat":48.15536,"lon":24.82986,"population":5829},{"id":699259,"name":"Mamayvtsi","ascii":"Mamayvtsi","lat":48.34722,"lon":25.8275,"population":5818},{"id":710739,"name":"Chernihivka","ascii":"Chernihivka","lat":47.19451,"lon":36.21648,"population":5813},{"id":690963,"name":"Turiisk","ascii":"Turiisk","lat":51.08644,"lon":24.52294,"population":5808},{"id":711016,"name":"Bylbasivka","ascii":"Bylbasivka","lat":48.83929,"lon":37.50185,"population":5807},{"id":689717,"name":"Veselynove","ascii":"Veselynove","lat":47.35688,"lon":31.23219,"population":5785},{"id":698102,"name":"Ozerne","ascii":"Ozerne","lat":50.17816,"lon":28.73384,"population":5777},{"id":687383,"name":"Zelenivka","ascii":"Zelenivka","lat":46.71717,"lon":32.65697,"population":5775},{"id":694278,"name":"Shchyrets","ascii":"Shchyrets","lat":49.65254,"lon":23.85793,"population":5733},{"id":712895,"name":"Balky","ascii":"Balky","lat":47.38596,"lon":34.93132,"population":5717},{"id":702246,"name":"Mala Bilozerka","ascii":"Mala Bilozerka","lat":47.24737,"lon":34.93457,"population":5717},{"id":710668,"name":"Chornukhyne","ascii":"Chornukhyne","lat":48.32281,"lon":38.51744,"population":5703},{"id":702469,"name":"Liubeshiv","ascii":"Liubeshiv","lat":51.76535,"lon":25.5142,"population":5702},{"id":691820,"name":"Bessarabske","ascii":"Bessarabske","lat":46.18757,"lon":29.14635,"population":5692},{"id":689321,"name":"Vodiane","ascii":"Vodiane","lat":47.48651,"lon":34.50422,"population":5685},{"id":699756,"name":"Novhorodka","ascii":"Novhorodka","lat":48.36089,"lon":32.65469,"population":5675},{"id":7039154,"name":"Novofedorovka","ascii":"Novofedorovka","lat":45.09473,"lon":33.57211,"population":5651},{"id":706546,"name":"Kehychivka","ascii":"Kehychivka","lat":49.28656,"lon":35.76153,"population":5628},{"id":707127,"name":"Kalyny","ascii":"Kalyny","lat":48.14403,"lon":23.87386,"population":5627},{"id":707529,"name":"Ispas","ascii":"Ispas","lat":48.29881,"lon":25.26941,"population":5625},{"id":694152,"name":"Shevchenkove","ascii":"Shevchenkove","lat":45.55487,"lon":29.33354,"population":5625},{"id":709373,"name":"Dymer","ascii":"Dymer","lat":50.78647,"lon":30.3026,"population":5624},{"id":699607,"name":"Novofedorivka","ascii":"Novofedorivka","lat":46.17477,"lon":32.31765,"population":5620},{"id":700793,"name":"Monastyryska","ascii":"Monastyryska","lat":49.09063,"lon":25.17149,"population":5618},{"id":702459,"name":"Lyubymivka","ascii":"Lyubymivka","lat":46.81048,"lon":33.56845,"population":5611},{"id":690267,"name":"Velyka Dobron","ascii":"Velyka Dobron","lat":48.41979,"lon":22.38857,"population":5607},{"id":692702,"name":"Staryi Sambir","ascii":"Staryi Sambir","lat":49.43997,"lon":23.00078,"population":5603},{"id":702302,"name":"Makiv","ascii":"Makiv","lat":48.7946,"lon":26.68143,"population":5602},{"id":702148,"name":"Mala Verhunka","ascii":"Mala Verhunka","lat":48.58429,"lon":39.38396,"population":5600},{"id":709888,"name":"Dobrovelychkivka","ascii":"Dobrovelychkivka","lat":48.38939,"lon":31.18039,"population":5575},{"id":698247,"name":"Oster","ascii":"Oster","lat":50.9506,"lon":30.88229,"population":5564},{"id":700753,"name":"Morshyn","ascii":"Morshyn","lat":49.15524,"lon":23.87061,"population":5562},{"id":9983712,"name":"Avanhard","ascii":"Avanhard","lat":46.46871,"lon":30.61551,"population":5554},{"id":709943,"name":"Dniprovske","ascii":"Dniprovske","lat":48.59042,"lon":34.41394,"population":5554},{"id":697203,"name":"Pionerskoye","ascii":"Pionerskoye","lat":44.88083,"lon":34.20194,"population":5534},{"id":708730,"name":"Hlybokyi Potik","ascii":"Hlybokyi Potik","lat":48.05774,"lon":23.89592,"population":5531},{"id":687602,"name":"Zorya","ascii":"Zorya","lat":45.99124,"lon":29.69234,"population":5528},{"id":688532,"name":"Yalta","ascii":"Yalta","lat":46.96098,"lon":37.27446,"population":5519},{"id":706634,"name":"Katerynopil","ascii":"Katerynopil","lat":48.94563,"lon":30.97187,"population":5513},{"id":699882,"name":"Nova Borova","ascii":"Nova Borova","lat":50.69296,"lon":28.63446,"population":5494},{"id":690285,"name":"Velyka Bahachka","ascii":"Velyka Bahachka","lat":49.79819,"lon":33.72013,"population":5488},{"id":701327,"name":"Mishkovo-Pohorilove","ascii":"Mishkovo-Pohorilove","lat":46.99447,"lon":32.10997,"population":5484},{"id":711400,"name":"Broshniv-Osada","ascii":"Broshniv-Osada","lat":48.99759,"lon":24.19417,"population":5482},{"id":707928,"name":"Hubynykha","ascii":"Hubynykha","lat":48.808,"lon":35.25829,"population":5471},{"id":693870,"name":"Shumsk","ascii":"Shumsk","lat":50.11775,"lon":26.11792,"population":5470},{"id":693001,"name":"Serednie Vodiane","ascii":"Serednie Vodiane","lat":47.98293,"lon":23.90904,"population":5465},{"id":690165,"name":"Velyki Kopani","ascii":"Velyki Kopani","lat":46.48818,"lon":32.97348,"population":5464},{"id":691422,"name":"Tomashpil","ascii":"Tomashpil","lat":48.53695,"lon":28.51295,"population":5463},{"id":704972,"name":"Koreiz","ascii":"Koreiz","lat":44.43149,"lon":34.08404,"population":5455},{"id":710381,"name":"Chudniv","ascii":"Chudniv","lat":50.05204,"lon":28.11745,"population":5448},{"id":698142,"name":"Otyniia","ascii":"Otyniia","lat":48.73792,"lon":24.86115,"population":5444},{"id":689190,"name":"Vilne","ascii":"Vilne","lat":47.63788,"lon":34.81667,"population":5432},{"id":712699,"name":"Bedevlya","ascii":"Bedevlya","lat":48.00503,"lon":23.66431,"population":5423},{"id":701104,"name":"Milove","ascii":"Milove","lat":49.37361,"lon":40.14641,"population":5418},{"id":689868,"name":"Verkhniy Rohachyk","ascii":"Verkhniy Rohachyk","lat":47.25208,"lon":34.33557,"population":5404},{"id":708695,"name":"Hnidyn","ascii":"Hnidyn","lat":50.32899,"lon":30.71059,"population":5400},{"id":13580122,"name":"Korchuvate","ascii":"Korchuvate","lat":50.36347,"lon":30.55502,"population":5400},{"id":704402,"name":"Teple","ascii":"Teple","lat":48.31245,"lon":39.56284,"population":5398},{"id":698107,"name":"Ozerne","ascii":"Ozerne","lat":45.40559,"lon":28.66861,"population":5370},{"id":8516167,"name":"Horenka","ascii":"Horenka","lat":50.55731,"lon":30.33217,"population":5358},{"id":701768,"name":"Marshyntsi","ascii":"Marshyntsi","lat":48.21191,"lon":26.29934,"population":5353},{"id":695320,"name":"Rozhniv","ascii":"Rozhniv","lat":48.36501,"lon":25.22838,"population":5351},{"id":709270,"name":"Eskhar","ascii":"Eskhar","lat":49.79736,"lon":36.59025,"population":5349},{"id":694467,"name":"Serhiyivka","ascii":"Serhiyivka","lat":46.0251,"lon":30.36826,"population":5343},{"id":692810,"name":"Staromykhailivka","ascii":"Staromykhailivka","lat":47.99265,"lon":37.58581,"population":5333},{"id":11817987,"name":"Tarasivtsi","ascii":"Tarasivtsi","lat":48.20557,"lon":26.36444,"population":5330},{"id":694752,"name":"Savyntsi","ascii":"Savyntsi","lat":49.40505,"lon":37.05517,"population":5326},{"id":700371,"name":"Nedryhailiv","ascii":"Nedryhailiv","lat":50.83398,"lon":33.87626,"population":5323},{"id":699238,"name":"Novosilky","ascii":"Novosilky","lat":50.31219,"lon":30.07539,"population":5316},{"id":690428,"name":"Vashkivtsi","ascii":"Vashkivtsi","lat":48.38386,"lon":25.51751,"population":5312},{"id":697537,"name":"Pishchanka","ascii":"Pishchanka","lat":48.21249,"lon":28.88056,"population":5311},{"id":692866,"name":"Stara Syniava","ascii":"Stara Syniava","lat":49.59709,"lon":27.615,"population":5311},{"id":690038,"name":"Velyka Mykhaylivka","ascii":"Velyka Mykhaylivka","lat":47.07847,"lon":29.85253,"population":5303},{"id":13580326,"name":"Aviamistechko","ascii":"Aviamistechko","lat":50.46369,"lon":30.38057,"population":5300},{"id":695365,"name":"Rivne","ascii":"Rivne","lat":48.24098,"lon":31.75845,"population":5296},{"id":860012,"name":"Okny","ascii":"Okny","lat":47.54293,"lon":29.45586,"population":5290},{"id":698462,"name":"Opishnya","ascii":"Opishnya","lat":49.95948,"lon":34.60634,"population":5278},{"id":695221,"name":"Rudky","ascii":"Rudky","lat":49.65349,"lon":23.48669,"population":5278},{"id":689891,"name":"Verkhnye Vodyane","ascii":"Verkhnye Vodyane","lat":48.00384,"lon":23.9599,"population":5272},{"id":694333,"name":"Shatsk","ascii":"Shatsk","lat":51.50208,"lon":23.93806,"population":5266},{"id":701294,"name":"Chudei","ascii":"Chudei","lat":48.05095,"lon":25.62212,"population":5265},{"id":691943,"name":"Talalaivka","ascii":"Talalaivka","lat":50.83913,"lon":33.14374,"population":5249},{"id":705459,"name":"Kolinkivtsy","ascii":"Kolinkivtsy","lat":48.41254,"lon":26.12462,"population":5245},{"id":712582,"name":"Bilohirya","ascii":"Bilohirya","lat":49.99894,"lon":26.41442,"population":5244},{"id":699554,"name":"Novohuivynske","ascii":"Novohuivynske","lat":50.20816,"lon":28.69285,"population":5240},{"id":697802,"name":"Pechenizhyn","ascii":"Pechenizhyn","lat":48.51668,"lon":24.88317,"population":5240},{"id":708324,"name":"Horodnytsia","ascii":"Horodnytsia","lat":50.80697,"lon":27.31676,"population":5238},{"id":699413,"name":"Novomykolayivka","ascii":"Novomykolayivka","lat":47.97362,"lon":35.89806,"population":5238},{"id":707317,"name":"Iza","ascii":"Iza","lat":48.21525,"lon":23.32867,"population":5237},{"id":697126,"name":"Plakhtiyivka","ascii":"Plakhtiyivka","lat":46.095,"lon":29.7189,"population":5237},{"id":690237,"name":"Velyka Novosilka","ascii":"Velyka Novosilka","lat":47.8451,"lon":36.83512,"population":5235},{"id":690230,"name":"Velyka Pysarivka","ascii":"Velyka Pysarivka","lat":50.4243,"lon":35.47989,"population":5235},{"id":709584,"name":"Khutir-Mykhailivskyi","ascii":"Khutir-Mykhailivskyi","lat":52.04769,"lon":33.94534,"population":5220},{"id":706941,"name":"Komyshuvakha","ascii":"Komyshuvakha","lat":47.71491,"lon":35.52405,"population":5211},{"id":705560,"name":"Knyazhichi","ascii":"Knyazhichi","lat":50.46275,"lon":30.78369,"population":5207},{"id":710864,"name":"Chemerivtsi","ascii":"Chemerivtsi","lat":49.00914,"lon":26.34002,"population":5200},{"id":713658,"name":"Oleksandrivka","ascii":"Oleksandrivka","lat":47.69009,"lon":31.27756,"population":5200},{"id":703015,"name":"Lypova Dolyna","ascii":"Lypova Dolyna","lat":50.56428,"lon":33.79793,"population":5199},{"id":710245,"name":"Davydiv","ascii":"Davydiv","lat":49.74688,"lon":24.13927,"population":5193},{"id":704335,"name":"Krasnosilka","ascii":"Krasnosilka","lat":46.62273,"lon":30.77148,"population":5187},{"id":691291,"name":"Troyitske","ascii":"Troyitske","lat":46.54168,"lon":30.02346,"population":5178},{"id":711623,"name":"Borova","ascii":"Borova","lat":49.37666,"lon":37.64103,"population":5174},{"id":712343,"name":"Berezna","ascii":"Berezna","lat":51.5716,"lon":31.78456,"population":5172},{"id":711460,"name":"Bratske","ascii":"Bratske","lat":47.86664,"lon":31.57525,"population":5164},{"id":709071,"name":"Zakharivka","ascii":"Zakharivka","lat":47.33134,"lon":29.754,"population":5142},{"id":710556,"name":"Pulyny","ascii":"Pulyny","lat":50.46784,"lon":28.2713,"population":5141},{"id":689106,"name":"Volovets","ascii":"Volovets","lat":48.7109,"lon":23.1851,"population":5128},{"id":710454,"name":"Chisten’koye","ascii":"Chisten'koye","lat":44.88152,"lon":34.04716,"population":5126},{"id":697803,"name":"Pechenihy","ascii":"Pechenihy","lat":49.87167,"lon":36.93472,"population":5112},{"id":692819,"name":"Starokozache","ascii":"Starokozache","lat":46.33583,"lon":29.98876,"population":5108},{"id":708330,"name":"Horodnye","ascii":"Horodnye","lat":45.89203,"lon":28.84946,"population":5104},{"id":8519952,"name":"Chabany","ascii":"Chabany","lat":50.34071,"lon":30.42356,"population":5100},{"id":708257,"name":"Hoshcha","ascii":"Hoshcha","lat":50.60246,"lon":26.68097,"population":5084},{"id":704915,"name":"Korop","ascii":"Korop","lat":51.56638,"lon":32.95861,"population":5071},{"id":692742,"name":"Stari Kuty","ascii":"Stari Kuty","lat":48.27943,"lon":25.163,"population":5068},{"id":695505,"name":"Romankivtsi","ascii":"Romankivtsi","lat":48.48421,"lon":27.2141,"population":5066},{"id":698803,"name":"Obolon","ascii":"Obolon","lat":49.60389,"lon":32.87384,"population":5063},{"id":692856,"name":"Stara Vyzhivka","ascii":"Stara Vyzhivka","lat":51.43762,"lon":24.43997,"population":5058},{"id":691942,"name":"Talalaivka","ascii":"Talalaivka","lat":50.95783,"lon":31.92085,"population":5054},{"id":686915,"name":"Znamyanka Druha","ascii":"Znamyanka Druha","lat":48.71157,"lon":32.59655,"population":5038},{"id":695106,"name":"Ruska Lozova","ascii":"Ruska Lozova","lat":50.14213,"lon":36.28612,"population":5018},{"id":711933,"name":"Bohdanivka","ascii":"Bohdanivka","lat":48.50252,"lon":36.12063,"population":5016},{"id":8519917,"name":"Shevchenka","ascii":"Shevchenka","lat":50.51891,"lon":30.4352,"population":5000},{"id":692577,"name":"Stepanivka","ascii":"Stepanivka","lat":50.95591,"lon":34.60583,"population":5000},{"id":13580101,"name":"Tsymbaliv Yar","ascii":"Tsymbaliv Yar","lat":50.39527,"lon":30.52403,"population":5000},{"id":690269,"name":"Velyka Danylivka","ascii":"Velyka Danylivka","lat":50.04465,"lon":36.33391,"population":5000},{"id":13580134,"name":"Voleykiv","ascii":"Voleykiv","lat":50.46675,"lon":30.43125,"population":5000},{"id":7025405,"name":"Novoozyornoye","ascii":"Novoozyornoye","lat":45.38314,"lon":33.11715,"population":4998},{"id":705837,"name":"Kyrnasivka","ascii":"Kyrnasivka","lat":48.59183,"lon":28.97923,"population":4997},{"id":695082,"name":"Ruzhyn","ascii":"Ruzhyn","lat":49.72175,"lon":29.21874,"population":4993},{"id":708994,"name":"Hanychi","ascii":"Hanychi","lat":48.127,"lon":23.821,"population":4986},{"id":686932,"name":"Zlynka","ascii":"Zlynka","lat":48.48529,"lon":31.54227,"population":4981},{"id":710892,"name":"Chechelnyk","nameKo":"체첼니크","ascii":"Chechelnyk","lat":48.21558,"lon":29.36469,"population":4978},{"id":11564321,"name":"Bratske","ascii":"Bratske","lat":46.35641,"lon":32.1673,"population":4953},{"id":697527,"name":"Pishchane","ascii":"Pishchane","lat":49.12376,"lon":33.39674,"population":4931},{"id":703713,"name":"Kulykivka","ascii":"Kulykivka","lat":51.37345,"lon":31.64661,"population":4928},{"id":713176,"name":"Zalizne","ascii":"Zalizne","lat":48.37083,"lon":37.8855,"population":4928},{"id":691355,"name":"Toshkivka","ascii":"Toshkivka","lat":48.78303,"lon":38.56332,"population":4926},{"id":688865,"name":"Voznesenka","ascii":"Voznesenka","lat":46.86884,"lon":35.463,"population":4917},{"id":11204631,"name":"Yarkoye Pole","ascii":"Yarkoye Pole","lat":45.20581,"lon":35.19848,"population":4914},{"id":712629,"name":"Bilyky","ascii":"Bilyky","lat":49.25147,"lon":34.2706,"population":4913},{"id":695798,"name":"Rozsypne","ascii":"Rozsypne","lat":48.14966,"lon":38.57619,"population":4911},{"id":697455,"name":"Petrykivka","ascii":"Petrykivka","lat":48.7279,"lon":34.62837,"population":4896},{"id":704881,"name":"Korotych","ascii":"Korotych","lat":49.94737,"lon":36.03736,"population":4889},{"id":711459,"name":"Bratslav","ascii":"Bratslav","lat":48.82317,"lon":28.93827,"population":4872},{"id":687277,"name":"Zghurivka","ascii":"Zghurivka","lat":50.50276,"lon":31.78492,"population":4868},{"id":687433,"name":"Zdovbytsia","ascii":"Zdovbytsia","lat":50.499,"lon":26.24715,"population":4858},{"id":692122,"name":"Svarychiv","ascii":"Svarychiv","lat":48.95907,"lon":24.18942,"population":4845},{"id":699328,"name":"Novopokrovka","ascii":"Novopokrovka","lat":49.83561,"lon":36.55704,"population":4841},{"id":696150,"name":"Prosyana","ascii":"Prosyana","lat":48.11368,"lon":36.37175,"population":4840},{"id":705433,"name":"Kolochava","ascii":"Kolochava","lat":48.42685,"lon":23.69769,"population":4839},{"id":688221,"name":"Yelanets","ascii":"Yelanets","lat":47.69521,"lon":31.85222,"population":4838},{"id":702557,"name":"Luzhany","ascii":"Luzhany","lat":48.35923,"lon":25.78292,"population":4837},{"id":702734,"name":"Lozivskyi","ascii":"Lozivskyi","lat":48.56241,"lon":38.88197,"population":4822},{"id":690193,"name":"Velykyi Burluk","ascii":"Velykyi Burluk","lat":50.0617,"lon":37.38373,"population":4821},{"id":699619,"name":"Voskhod","ascii":"Voskhod","lat":45.50999,"lon":34.39355,"population":4808},