[{"id":3441575,"name":"Montevideo","nameKo":"몬테비데오","ascii":"Montevideo","lat":-34.90328,"lon":-56.18816,"population":1270737},{"id":3440714,"name":"Salto","nameKo":"살토","ascii":"Salto","lat":-31.38811,"lon":-57.95983,"population":99823},{"id":3441243,"name":"Paysandú","nameKo":"파이산두","ascii":"Paysandu","lat":-32.3171,"lon":-58.08072,"population":73249},{"id":3442057,"name":"Las Piedras","nameKo":"라스피에드라스","ascii":"Las Piedras","lat":-34.7302,"lon":-56.21915,"population":69682},{"id":3440781,"name":"Rivera","nameKo":"리베라","ascii":"Rivera","lat":-30.90534,"lon":-55.55076,"population":64631},{"id":3441894,"name":"Maldonado","nameKo":"말도나도","ascii":"Maldonado","lat":-34.89791,"lon":-54.95021,"population":55478},{"id":3440034,"name":"Tacuarembó","nameKo":"타콰렘보","ascii":"Tacuarembo","lat":-31.71882,"lon":-55.97925,"population":51854},{"id":3441702,"name":"Melo","nameKo":"멜로","ascii":"Melo","lat":-32.3682,"lon":-54.16409,"population":51023},{"id":3441684,"name":"Mercedes","nameKo":"메르세데스","ascii":"Mercedes","lat":-33.2524,"lon":-58.03047,"population":42359},{"id":3443758,"name":"Artigas","nameKo":"아르티가스","ascii":"Artigas","lat":-30.40431,"lon":-56.46926,"population":41909},{"id":3441665,"name":"Minas","nameKo":"미나스","ascii":"Minas","lat":-34.37589,"lon":-55.23771,"population":38025},{"id":3440639,"name":"San José de Mayo","nameKo":"산호세데마요","ascii":"San Jose de Mayo","lat":-34.33898,"lon":-56.71339,"population":36529},{"id":3442727,"name":"Durazno","nameKo":"두라스노","ascii":"Durazno","lat":-33.38063,"lon":-56.52312,"population":33926},{"id":3442585,"name":"Florida","ascii":"Florida","lat":-34.10032,"lon":-56.21477,"population":32234},{"id":10098279,"name":"Barros Blancos","ascii":"Barros Blancos","lat":-34.7524,"lon":-56.00259,"population":31650},{"id":3440696,"name":"San Carlos","nameKo":"산카를로스","ascii":"San Carlos","lat":-34.79123,"lon":-54.91824,"population":27471},{"id":3439781,"name":"Treinta y Tres","nameKo":"트레인타이트레스","ascii":"Treinta y Tres","lat":-33.231,"lon":-54.38577,"population":25653},{"id":3440777,"name":"Rocha","nameKo":"로차","ascii":"Rocha","lat":-34.47995,"lon":-54.33064,"population":25515},{"id":3441354,"name":"Pando","nameKo":"판도","ascii":"Pando","lat":-34.71716,"lon":-55.9584,"population":24047},{"id":3442568,"name":"Fray Bentos","nameKo":"프라이벤토스","ascii":"Fray Bentos","lat":-33.11651,"lon":-58.31067,"population":23279},{"id":3443013,"name":"Colonia del Sacramento","nameKo":"콜로니아델사크라멘토","ascii":"Colonia del Sacramento","lat":-34.46262,"lon":-57.83976,"population":21714},{"id":3439748,"name":"Trinidad","nameKo":"트리니다드","ascii":"Trinidad","lat":-33.5165,"lon":-56.89957,"population":21429},{"id":3442098,"name":"La Paz","nameKo":"라파스","ascii":"La Paz","lat":-34.76031,"lon":-56.2259,"population":19913},{"id":3443413,"name":"Canelones","ascii":"Canelones","lat":-34.52381,"lon":-56.28215,"population":19698},{"id":3443341,"name":"Carmelo","nameKo":"카멜로","ascii":"Carmelo","lat":-34.00023,"lon":-58.28402,"population":18041},{"id":3442778,"name":"Delta del Tigre","ascii":"Delta del Tigre","lat":-34.76488,"lon":-56.3645,"population":17973},{"id":3442750,"name":"Dolores","nameKo":"도로레스","ascii":"Dolores","lat":-33.53009,"lon":-58.21701,"population":17174},{"id":3439525,"name":"Young","nameKo":"영","ascii":"Young","lat":-32.69844,"lon":-57.62693,"population":16756},{"id":3440571,"name":"Santa Lucía","nameKo":"산타루시아","ascii":"Santa Lucia","lat":-34.45333,"lon":-56.39056,"population":16438},{"id":3440963,"name":"Progreso","nameKo":"프로그레소","ascii":"Progreso","lat":-34.66737,"lon":-56.21758,"population":16244},{"id":3441292,"name":"Paso de Carrasco","ascii":"Paso de Carrasco","lat":-34.86028,"lon":-56.05222,"population":15393},{"id":3440791,"name":"Río Branco","nameKo":"리오브랑코","ascii":"Rio Branco","lat":-32.59802,"lon":-53.38583,"population":14604},{"id":3441273,"name":"Paso de los Toros","nameKo":"파소데로스토로스","ascii":"Paso de los Toros","lat":-32.81667,"lon":-56.51667,"population":12985},{"id":3442206,"name":"Juan L. Lacaze","ascii":"Juan L. Lacaze","lat":-34.41888,"lon":-57.45285,"population":12816},{"id":3443631,"name":"Bella Unión","ascii":"Bella Union","lat":-30.25966,"lon":-57.59919,"population":12200},{"id":3441988,"name":"Libertad","nameKo":"리베르타드","ascii":"Libertad","lat":-34.63459,"lon":-56.61739,"population":10166},{"id":3440747,"name":"Rosario","nameKo":"로사리오","ascii":"Rosario","lat":-34.31667,"lon":-57.35,"population":10085},{"id":3441483,"name":"Nueva Helvecia","ascii":"Nueva Helvecia","lat":-34.3,"lon":-57.23333,"population":10054},{"id":3441481,"name":"Nueva Palmira","ascii":"Nueva Palmira","lat":-33.87031,"lon":-58.41176,"population":9857},{"id":3443061,"name":"Chui","ascii":"Chui","lat":-33.69792,"lon":-53.45926,"population":9675},{"id":3440939,"name":"Punta del Este","nameKo":"푼타델에스테","ascii":"Punta del Este","lat":-34.94747,"lon":-54.93382,"population":9277},{"id":3480820,"name":"Colonia Nicolich","ascii":"Colonia Nicolich","lat":-34.81516,"lon":-56.02435,"population":8902},{"id":3440722,"name":"Salinas","ascii":"Salinas","lat":-34.77731,"lon":-55.83954,"population":8626},{"id":3441074,"name":"Piriápolis","ascii":"Piriapolis","lat":-34.86287,"lon":-55.27471,"population":7968},{"id":3443289,"name":"Castillos","ascii":"Castillos","lat":-34.19871,"lon":-53.85919,"population":7541},{"id":3439787,"name":"Tranqueras","ascii":"Tranqueras","lat":-31.2,"lon":-55.75,"population":7235},{"id":3440400,"name":"Sarandí del Yi","ascii":"Sarandi del Yi","lat":-33.35,"lon":-55.63333,"population":7176},{"id":3440596,"name":"San Ramón","ascii":"San Ramon","lat":-34.29155,"lon":-55.95571,"population":7133},{"id":3442071,"name":"Lascano","ascii":"Lascano","lat":-33.67235,"lon":-54.2065,"population":6976},{"id":3439902,"name":"Tarariras","nameKo":"타라리라스","ascii":"Tarariras","lat":-34.26555,"lon":-57.61866,"population":6632},{"id":3441358,"name":"Pan de Azúcar","ascii":"Pan de Azucar","lat":-34.7787,"lon":-55.23582,"population":6597},{"id":3442236,"name":"Joaquín Suárez","ascii":"Joaquin Suarez","lat":-34.73501,"lon":-56.0347,"population":6570},{"id":3440394,"name":"Sarandí Grande","ascii":"Sarandi Grande","lat":-33.73333,"lon":-56.33333,"population":6130},{"id":3440379,"name":"Sauce","ascii":"Sauce","lat":-34.65191,"lon":-56.06431,"population":5910},{"id":3443737,"name":"Atlántida","ascii":"Atlantida","lat":-34.7719,"lon":-55.7584,"population":5562},{"id":3480822,"name":"Barra de Carrasco","ascii":"Barra de Carrasco","lat":-34.87722,"lon":-56.02972,"population":5410},{"id":3442221,"name":"José Pedro Varela","ascii":"Jose Pedro Varela","lat":-33.45451,"lon":-54.53586,"population":5118},{"id":3442398,"name":"Guichón","ascii":"Guichon","lat":-32.35846,"lon":-57.19778,"population":5051},{"id":3440021,"name":"Tala","ascii":"Tala","lat":-34.34349,"lon":-55.76375,"population":4949},{"id":3443352,"name":"Cardona","ascii":"Cardona","lat":-33.87049,"lon":-57.36954,"population":4600},{"id":3439838,"name":"Toledo","ascii":"Toledo","lat":-34.73807,"lon":-56.09469,"population":4397},{"id":3442683,"name":"Empalme Olmos","ascii":"Empalme Olmos","lat":-34.69753,"lon":-55.89268,"population":4199},{"id":3440654,"name":"San Jacinto","ascii":"San Jacinto","lat":-34.54465,"lon":-55.87151,"population":3954},{"id":3439622,"name":"Vergara","ascii":"Vergara","lat":-32.94419,"lon":-53.9381,"population":3810},{"id":3441659,"name":"Minas de Corrales","ascii":"Minas de Corrales","lat":-31.57375,"lon":-55.47075,"population":3788},{"id":3440554,"name":"Santa Rosa","ascii":"Santa Rosa","lat":-34.49819,"lon":-56.03795,"population":3727},{"id":3442597,"name":"Florencio Sánchez","ascii":"Florencio Sanchez","lat":-33.87785,"lon":-57.37166,"population":3716},{"id":3439619,"name":"Vichadero","ascii":"Vichadero","lat":-31.77794,"lon":-54.69183,"population":3698},{"id":10861467,"name":"Marindia","ascii":"Marindia","lat":-34.77433,"lon":-55.82406,"population":3543},{"id":3442105,"name":"La Paloma","ascii":"La Paloma","lat":-34.66268,"lon":-54.16452,"population":3495},{"id":3440656,"name":"San Gregorio de Polanco","ascii":"San Gregorio de Polanco","lat":-32.61667,"lon":-55.83333,"population":3415},{"id":3441442,"name":"Ombúes de Lavalle","ascii":"Ombues de Lavalle","lat":-33.93783,"lon":-57.80959,"population":3390},{"id":3439696,"name":"Colonia Valdense","ascii":"Colonia Valdense","lat":-34.33957,"lon":-57.26246,"population":3235},{"id":3442582,"name":"Fraile Muerto","ascii":"Fraile Muerto","lat":-32.51667,"lon":-54.53333,"population":3168},{"id":3442050,"name":"Las Toscas","ascii":"Las Toscas","lat":-34.73333,"lon":-55.71667,"population":3146},{"id":3439831,"name":"Tomás Gomensoro","ascii":"Tomas Gomensoro","lat":-30.4287,"lon":-57.43609,"population":2872},{"id":3440925,"name":"Quebracho","ascii":"Quebracho","lat":-31.93526,"lon":-57.9014,"population":2853},{"id":3442939,"name":"Villa Constitución","ascii":"Villa Constitucion","lat":-31.06913,"lon":-57.84946,"population":2846},{"id":3440063,"name":"Solís de Mataojo","ascii":"Solis de Mataojo","lat":-34.59951,"lon":-55.46808,"population":2825},{"id":3439598,"name":"Villa del Carmen","ascii":"Villa del Carmen","lat":-33.23943,"lon":-56.00936,"population":2703},{"id":3440549,"name":"Santa Teresa","ascii":"Santa Teresa","lat":-34.43333,"lon":-57.71667,"population":2657},{"id":3440762,"name":"Rodríguez","ascii":"Rodriguez","lat":-34.381,"lon":-56.53797,"population":2604},{"id":3442716,"name":"Ecilda Paullier","ascii":"Ecilda Paullier","lat":-34.35778,"lon":-57.04883,"population":2585},{"id":3443697,"name":"Baltasar Brum","ascii":"Baltasar Brum","lat":-30.71905,"lon":-57.32596,"population":2531},{"id":3441954,"name":"Los Cerrillos","ascii":"Los Cerrillos","lat":-34.605,"lon":-56.35639,"population":2508},{"id":3443909,"name":"Aiguá","ascii":"Aigua","lat":-34.20498,"lon":-54.75665,"population":2465},{"id":3441476,"name":"Nuevo Berlín","ascii":"Nuevo Berlin","lat":-32.97974,"lon":-58.05858,"population":2450},{"id":3443280,"name":"Casupá","ascii":"Casupa","lat":-34.09994,"lon":-55.64811,"population":2402},{"id":3440577,"name":"Santa Clara de Olimar","ascii":"Santa Clara de Olimar","lat":-32.92254,"lon":-54.94447,"population":2341},{"id":3442299,"name":"Isidoro Noblía","ascii":"Isidoro Noblia","lat":-31.96218,"lon":-54.12309,"population":2331},{"id":3442233,"name":"José Batlle y Ordóñez","ascii":"Jose Batlle y Ordonez","lat":-33.46667,"lon":-55.11667,"population":2203},{"id":3442058,"name":"Las Piedras","ascii":"Las Piedras","lat":-30.26204,"lon":-57.58174,"population":2185},{"id":3441377,"name":"Palmitas","ascii":"Palmitas","lat":-33.50719,"lon":-57.80079,"population":2123},{"id":3442231,"name":"José Enrique Rodó","ascii":"Jose Enrique Rodo","lat":-33.69618,"lon":-57.53153,"population":2120},{"id":3441674,"name":"Migues","ascii":"Migues","lat":-34.48759,"lon":-55.62793,"population":2109},{"id":3443644,"name":"Belén","ascii":"Belen","lat":-30.78716,"lon":-57.77577,"population":2033},{"id":3480825,"name":"Pajas Blancas","ascii":"Pajas Blancas","lat":-34.80167,"lon":-56.33417,"population":2000},{"id":3440698,"name":"San Bautista","ascii":"San Bautista","lat":-34.44016,"lon":-55.95861,"population":1905},{"id":3439659,"name":"25 de Mayo","ascii":"25 de Mayo","lat":-34.18917,"lon":-56.33944,"population":1852},{"id":3439661,"name":"25 de Agosto","ascii":"25 de Agosto","lat":-34.41167,"lon":-56.40222,"population":1849},{"id":3440653,"name":"San Javier","ascii":"San Javier","lat":-32.66523,"lon":-58.1332,"population":1781},{"id":3441577,"name":"Montes","ascii":"Montes","lat":-34.49339,"lon":-55.56219,"population":1760},{"id":3440076,"name":"Soca","ascii":"Soca","lat":-34.68432,"lon":-55.702,"population":1742},{"id":3440684,"name":"San Félix","ascii":"San Felix","lat":-32.34631,"lon":-58.10094,"population":1718},{"id":3441803,"name":"Mariscala","ascii":"Mariscala","lat":-34.04085,"lon":-54.77732,"population":1626},{"id":3443256,"name":"Cebollatí","ascii":"Cebollati","lat":-33.26703,"lon":-53.79425,"population":1609},{"id":3442106,"name":"La Paloma","ascii":"La Paloma","lat":-32.72689,"lon":-55.5827,"population":1567},{"id":3439925,"name":"Tambores","ascii":"Tambores","lat":-31.87743,"lon":-56.24438,"population":1561},{"id":3443952,"name":"Aceguá","ascii":"Acegua","lat":-31.87178,"lon":-54.16351,"population":1511},{"id":3480812,"name":"Puntas de Valdéz","ascii":"Puntas de Valdez","lat":-34.5855,"lon":-56.70097,"population":1491},{"id":3440541,"name":"Santiago Vázquez","ascii":"Santiago Vazquez","lat":-34.79028,"lon":-56.35,"population":1468},{"id":3440705,"name":"San Antonio","ascii":"San Antonio","lat":-34.4513,"lon":-56.08036,"population":1453},{"id":3442528,"name":"General Enrique Martínez","ascii":"General Enrique Martinez","lat":-33.20388,"lon":-53.80524,"population":1430},{"id":3443183,"name":"Alejandro Gallinal","ascii":"Alejandro Gallinal","lat":-33.86252,"lon":-55.54264,"population":1357},{"id":10636508,"name":"Puimayen","ascii":"Puimayen","lat":-33.77411,"lon":-53.40925,"population":1346},{"id":3442238,"name":"Juanicó","ascii":"Juanico","lat":-34.59454,"lon":-56.25334,"population":1305},{"id":3443356,"name":"Cardal","ascii":"Cardal","lat":-34.29056,"lon":-56.38889,"population":1291},{"id":3440879,"name":"Rafael Perazza","ascii":"Rafael Perazza","lat":-34.52335,"lon":-56.7971,"population":1274},{"id":3439590,"name":"Villa Sara","ascii":"Villa Sara","lat":-33.2534,"lon":-54.41947,"population":1199},{"id":3440984,"name":"Porvenir","ascii":"Porvenir","lat":-32.39273,"lon":-57.96961,"population":1159},{"id":3440092,"name":"Pueblo Sequeira","ascii":"Pueblo Sequeira","lat":-30.9892,"lon":-56.87044,"population":1149},{"id":3440959,"name":"Pueblo Centenario","ascii":"Pueblo Centenario","lat":-32.86667,"lon":-56.46667,"population":1136},{"id":3440055,"name":"Villa Soriano","ascii":"Villa Soriano","lat":-33.39811,"lon":-58.32177,"population":1124},{"id":3439725,"name":"Tupambaé","ascii":"Tupambae","lat":-32.83333,"lon":-54.76667,"population":1122},{"id":3442138,"name":"La Floresta","ascii":"La Floresta","lat":-34.75572,"lon":-55.68141,"population":1107},{"id":3441114,"name":"Piedras Coloradas","ascii":"Piedras Coloradas","lat":-32.37183,"lon":-57.60901,"population":1094},{"id":3440581,"name":"Santa Bernardina","ascii":"Santa Bernardina","lat":-33.3536,"lon":-56.52498,"population":1094},{"id":7645440,"name":"Costa Azul","ascii":"Costa Azul","lat":-34.62925,"lon":-54.15307,"population":1090},{"id":3443588,"name":"Blanquillo","ascii":"Blanquillo","lat":-32.76667,"lon":-55.63333,"population":1084},{"id":3440580,"name":"Santa Catalina","ascii":"Santa Catalina","lat":-33.791,"lon":-57.48824,"population":1067},{"id":3440985,"name":"Estación Porvenir","ascii":"Estacion Porvenir","lat":-32.37085,"lon":-57.85371,"population":1055},{"id":3443928,"name":"Aguas Corrientes","ascii":"Aguas Corrientes","lat":-34.52194,"lon":-56.39361,"population":1047},{"id":3442803,"name":"Curtina","ascii":"Curtina","lat":-32.15,"lon":-56.11667,"population":1037},{"id":8358381,"name":"Cuareim","ascii":"Cuareim","lat":-30.22519,"lon":-57.56802,"population":1025},{"id":3439652,"name":"Velázquez","ascii":"Velazquez","lat":-34.03631,"lon":-54.28054,"population":1022}]