[{"id":3646738,"name":"Caracas","nameKo":"카라카스","ascii":"Caracas","lat":10.48801,"lon":-66.87919,"population":3000000},{"id":3633009,"name":"Maracaibo","nameKo":"마라카이보","ascii":"Maracaibo","lat":10.64232,"lon":-71.61089,"population":1752602},{"id":3625549,"name":"Valencia","nameKo":"발렌시아","ascii":"Valencia","lat":10.16153,"lon":-68.00044,"population":1619470},{"id":3648522,"name":"Barquisimeto","nameKo":"바르키시메토","ascii":"Barquisimeto","lat":10.0647,"lon":-69.35703,"population":1240714},{"id":3645528,"name":"Ciudad Guayana","nameKo":"시우다드과야나","ascii":"Ciudad Guayana","lat":8.35122,"lon":-62.64102,"population":978202},{"id":3648559,"name":"Barcelona","nameKo":"바르셀로나","ascii":"Barcelona","lat":10.1384,"lon":-64.68769,"population":815141},{"id":3778045,"name":"Maturín","nameKo":"마투린","ascii":"Maturin","lat":9.74569,"lon":-63.18323,"population":647459},{"id":3632998,"name":"Maracay","nameKo":"마라카이","ascii":"Maracay","lat":10.24972,"lon":-67.59475,"population":464700},{"id":3645532,"name":"Ciudad Bolívar","nameKo":"시우다드볼리바르","ascii":"Ciudad Bolivar","lat":8.12366,"lon":-63.54694,"population":412619},{"id":3644768,"name":"Cumaná","nameKo":"쿠마나","ascii":"Cumana","lat":10.4639,"lon":-64.17859,"population":405626},{"id":3648546,"name":"Barinas","nameKo":"바리나스","ascii":"Barinas","lat":8.62064,"lon":-70.23105,"population":397279},{"id":3629672,"name":"Puerto La Cruz","ascii":"Puerto La Cruz","lat":10.21382,"lon":-64.6328,"population":370000},{"id":3630297,"name":"Petare","nameKo":"페타레","ascii":"Petare","lat":10.47679,"lon":-66.80786,"population":364684},{"id":3647651,"name":"Cabimas","ascii":"Cabimas","lat":10.39907,"lon":-71.45206,"population":351736},{"id":3625829,"name":"Turmero","ascii":"Turmero","lat":10.22856,"lon":-67.47421,"population":344700},{"id":3632308,"name":"Mérida","nameKo":"메리다","ascii":"Merida","lat":8.57899,"lon":-71.16922,"population":300000},{"id":3628473,"name":"San Cristóbal","nameKo":"산크리스토발","ascii":"San Cristobal","lat":7.76593,"lon":-72.23576,"population":289852},{"id":3487903,"name":"Alto Barinas","ascii":"Alto Barinas","lat":8.5931,"lon":-70.2261,"population":284289},{"id":3627047,"name":"Santa Teresa del Tuy","ascii":"Santa Teresa del Tuy","lat":10.23291,"lon":-66.66474,"population":278890},{"id":3633622,"name":"Los Teques","nameKo":"로스테케스","ascii":"Los Teques","lat":10.34954,"lon":-67.04266,"population":252242},{"id":3640049,"name":"Guarenas","ascii":"Guarenas","lat":10.47027,"lon":-66.61934,"population":248588},{"id":3645213,"name":"Coro","nameKo":"코로","ascii":"Coro","lat":11.40769,"lon":-69.67822,"population":246657},{"id":3625542,"name":"Valera","ascii":"Valera","lat":9.31778,"lon":-70.60361,"population":244708},{"id":3648439,"name":"Baruta","ascii":"Baruta","lat":10.43424,"lon":-66.87558,"population":244216},{"id":3645527,"name":"Ciudad Ojeda","ascii":"Ciudad Ojeda","lat":10.20161,"lon":-71.3148,"population":240283},{"id":3805673,"name":"San Fernando de Apure","ascii":"San Fernando de Apure","lat":7.88963,"lon":-67.47181,"population":229197},{"id":3639898,"name":"Guatire","nameKo":"과티레","ascii":"Guatire","lat":10.474,"lon":-66.54241,"population":227666},{"id":3641351,"name":"El Tigre","nameKo":"엘티그레","ascii":"El Tigre","lat":8.88902,"lon":-64.2527,"population":222450},{"id":3629965,"name":"Porlamar","ascii":"Porlamar","lat":10.95771,"lon":-63.86971,"population":216234},{"id":3628423,"name":"San Felipe","nameKo":"산펠리페","ascii":"San Felipe","lat":10.3401,"lon":-68.74297,"population":206270},{"id":3640465,"name":"Guacara","ascii":"Guacara","lat":10.22609,"lon":-67.877,"population":198883},{"id":3649833,"name":"Acarigua","nameKo":"아카리과","ascii":"Acarigua","lat":9.55451,"lon":-69.19564,"population":188278},{"id":3644918,"name":"Cúa","ascii":"Cua","lat":10.16245,"lon":-66.88248,"population":182558},{"id":3649017,"name":"Araure","ascii":"Araure","lat":9.58144,"lon":-69.23851,"population":181820},{"id":3637012,"name":"Lander","ascii":"Lander","lat":10.18333,"lon":-66.7,"population":176346},{"id":3629706,"name":"Puerto Cabello","nameKo":"푸에르토카베요","ascii":"Puerto Cabello","lat":10.47306,"lon":-68.0125,"population":174000},{"id":3647444,"name":"Calabozo","ascii":"Calabozo","lat":8.92416,"lon":-67.42929,"population":168605},{"id":3646382,"name":"Carúpano","ascii":"Carupano","lat":10.66516,"lon":-63.25387,"population":167187},{"id":3631412,"name":"Ocumare del Tuy","ascii":"Ocumare del Tuy","lat":10.1182,"lon":-66.77513,"population":166072},{"id":3641099,"name":"El Vigía","ascii":"El Vigia","lat":8.6135,"lon":-71.65702,"population":162289},{"id":3628053,"name":"San Juan de los Morros","ascii":"San Juan de los Morros","lat":9.91246,"lon":-67.35398,"population":160868},{"id":3625515,"name":"Valle de La Pascua","ascii":"Valle de La Pascua","lat":9.21554,"lon":-66.00734,"population":153136},{"id":3642833,"name":"El Limón","ascii":"El Limon","lat":10.30589,"lon":-67.63212,"population":148247},{"id":3629576,"name":"Punto Fijo","ascii":"Punto Fijo","lat":11.69152,"lon":-70.19918,"population":141729},{"id":3486270,"name":"Anaco","ascii":"Anaco","lat":9.42958,"lon":-64.46428,"population":139397},{"id":3626402,"name":"Táriba","ascii":"Tariba","lat":7.82117,"lon":-72.22329,"population":138402},{"id":3633444,"name":"Machiques","ascii":"Machiques","lat":10.06077,"lon":-72.55212,"population":132734},{"id":3645854,"name":"Charallave","ascii":"Charallave","lat":10.24247,"lon":-66.85723,"population":129182},{"id":3630932,"name":"Palo Negro","ascii":"Palo Negro","lat":10.17389,"lon":-67.54194,"population":128875},{"id":3634922,"name":"La Victoria","ascii":"La Victoria","lat":10.22677,"lon":-67.33122,"population":126721},{"id":3628489,"name":"San Carlos del Zulia","ascii":"San Carlos del Zulia","lat":9.00098,"lon":-71.92683,"population":126353},{"id":3629710,"name":"Puerto Ayacucho","nameKo":"푸에르토아야쿠초","ascii":"Puerto Ayacucho","lat":5.66049,"lon":-67.58343,"population":125840},{"id":3646487,"name":"Carora","ascii":"Carora","lat":10.17283,"lon":-70.081,"population":121741},{"id":3644417,"name":"Ejido","ascii":"Ejido","lat":8.54665,"lon":-71.24087,"population":120978},{"id":3638371,"name":"La Concepción","ascii":"La Concepcion","lat":10.61919,"lon":-71.83814,"population":120478},{"id":3628503,"name":"San Carlos","nameKo":"산카를로스","ascii":"San Carlos","lat":9.66415,"lon":-68.58659,"population":120375},{"id":3647549,"name":"Cagua","ascii":"Cagua","lat":10.18634,"lon":-67.45935,"population":119033},{"id":3632929,"name":"Mariara","ascii":"Mariara","lat":10.29532,"lon":-67.7177,"population":116142},{"id":3626219,"name":"Tinaquillo","ascii":"Tinaquillo","lat":9.91861,"lon":-68.30472,"population":115937},{"id":3629614,"name":"Punta Cardón","ascii":"Punta Cardon","lat":11.65806,"lon":-70.215,"population":113999},{"id":3625207,"name":"Yaritagua","ascii":"Yaritagua","lat":10.08081,"lon":-69.1242,"population":113343},{"id":3625710,"name":"Upata","ascii":"Upata","lat":8.0162,"lon":-62.40561,"population":112617},{"id":3640226,"name":"Guanare","nameKo":"과나레","ascii":"Guanare","lat":9.03934,"lon":-69.73364,"population":112286},{"id":3646190,"name":"Catia La Mar","ascii":"Catia La Mar","lat":10.60545,"lon":-67.03238,"population":106822},{"id":3647637,"name":"Cabudare","ascii":"Cabudare","lat":10.02658,"lon":-69.26203,"population":102686},{"id":3649417,"name":"Los Puertos de Altagracia","ascii":"Los Puertos de Altagracia","lat":10.71492,"lon":-71.52168,"population":101527},{"id":3633677,"name":"Los Rastrojos","ascii":"Los Rastrojos","lat":10.02588,"lon":-69.24166,"population":100497},{"id":3625929,"name":"Tucupita","ascii":"Tucupita","lat":9.06263,"lon":-62.05208,"population":99778},{"id":3625341,"name":"Villa de Cura","ascii":"Villa de Cura","lat":10.03863,"lon":-67.48938,"population":99669},{"id":3628952,"name":"Rubio","ascii":"Rubio","lat":7.70156,"lon":-72.35551,"population":93197},{"id":3638374,"name":"Concepción","ascii":"Concepcion","lat":10.4119,"lon":-71.68919,"population":92463},{"id":3628066,"name":"San Juan Bautista","ascii":"San Juan Bautista","lat":11.01243,"lon":-63.94412,"population":90387},{"id":3628142,"name":"San José de Guanipa","ascii":"San Jose de Guanipa","lat":8.88724,"lon":-64.16512,"population":83092},{"id":3628966,"name":"La Villa del Rosario","ascii":"La Villa del Rosario","lat":10.3258,"lon":-72.31343,"population":82766},{"id":3627034,"name":"San Timoteo","ascii":"San Timoteo","lat":9.7901,"lon":-71.07084,"population":81017},{"id":3639747,"name":"Güigüe","ascii":"Gueiguee","lat":10.08344,"lon":-67.77799,"population":80627},{"id":3803449,"name":"El Cafetal","ascii":"El Cafetal","lat":10.46541,"lon":-66.82951,"population":80029},{"id":3648279,"name":"Biruaca","ascii":"Biruaca","lat":7.84483,"lon":-67.51679,"population":76553},{"id":3641275,"name":"El Tocuyo","ascii":"El Tocuyo","lat":9.78709,"lon":-69.79294,"population":74829},{"id":3625066,"name":"Zaraza","ascii":"Zaraza","lat":9.35029,"lon":-65.32452,"population":74017},{"id":3626764,"name":"Socopó","ascii":"Socopo","lat":8.23062,"lon":-70.82198,"population":72352},{"id":3625979,"name":"Trujillo","nameKo":"트루히요","ascii":"Trujillo","lat":9.36587,"lon":-70.43659,"population":71362},{"id":3645671,"name":"Chivacoa","ascii":"Chivacoa","lat":10.15951,"lon":-68.89453,"population":70298},{"id":3628267,"name":"San Joaquín","ascii":"San Joaquin","lat":10.26061,"lon":-67.79348,"population":69894},{"id":3627420,"name":"Santa Cruz de Mara","ascii":"Santa Cruz de Mara","lat":10.79269,"lon":-71.68505,"population":69781},{"id":3646062,"name":"Tacarigua","ascii":"Tacarigua","lat":10.08621,"lon":-67.91982,"population":69636},{"id":3648132,"name":"Boconó","ascii":"Bocono","lat":9.25385,"lon":-70.25105,"population":68990},{"id":3646869,"name":"Cantaura","ascii":"Cantaura","lat":9.30571,"lon":-64.35841,"population":68885},{"id":3649408,"name":"Altagracia de Orituco","ascii":"Altagracia de Orituco","lat":9.86005,"lon":-66.38139,"population":68207},{"id":3631878,"name":"Morón","ascii":"Moron","lat":10.48715,"lon":-68.20078,"population":68084},{"id":3647537,"name":"Caicara del Orinoco","ascii":"Caicara del Orinoco","lat":7.63501,"lon":-66.16815,"population":67277},{"id":3628549,"name":"San Antonio del Táchira","ascii":"San Antonio del Tachira","lat":7.8112,"lon":-72.44437,"population":66392},{"id":3630893,"name":"Pampatar","ascii":"Pampatar","lat":11.00085,"lon":-63.79298,"population":64983},{"id":3645981,"name":"Chacao","nameKo":"차카오 시","ascii":"Chacao","lat":10.49581,"lon":-66.85367,"population":64609},{"id":3804949,"name":"Guasdualito","ascii":"Guasdualito","lat":7.24241,"lon":-70.73235,"population":64608},{"id":3628550,"name":"San Antonio de Los Altos","ascii":"San Antonio de Los Altos","lat":10.38853,"lon":-66.95179,"population":63873},{"id":3628060,"name":"Colón","ascii":"Colon","lat":8.03125,"lon":-72.26053,"population":62513},{"id":3795152,"name":"La Fría","ascii":"La Fria","lat":8.21523,"lon":-72.24888,"population":61568},{"id":3629606,"name":"Punta de Mata","ascii":"Punta de Mata","lat":9.69131,"lon":-63.60921,"population":61080},{"id":3632399,"name":"Mene Grande","ascii":"Mene Grande","lat":9.84639,"lon":-70.92655,"population":60580},{"id":3630896,"name":"Pampán","ascii":"Pampan","lat":9.44519,"lon":-70.47556,"population":59657},{"id":3634184,"name":"Los Dos Caminos","ascii":"Los Dos Caminos","lat":10.49389,"lon":-66.82863,"population":58168},{"id":3643031,"name":"El Hatillo","nameKo":"엘아티요 시","ascii":"El Hatillo","lat":10.42411,"lon":-66.82581,"population":57591},{"id":3803651,"name":"La Dolorita","ascii":"La Dolorita","lat":10.4883,"lon":-66.78608,"population":56846},{"id":3625655,"name":"Ureña","ascii":"Urena","lat":7.92162,"lon":-72.44396,"population":56509},{"id":3627713,"name":"San Rafael","ascii":"San Rafael","lat":10.96205,"lon":-71.73034,"population":55810},{"id":3625346,"name":"Villa Bruzual","ascii":"Villa Bruzual","lat":9.33186,"lon":-69.11968,"population":55244},{"id":3758764,"name":"San Josecito","ascii":"San Josecito","lat":7.66106,"lon":-72.22009,"population":54669},{"id":3631507,"name":"Nirgua","ascii":"Nirgua","lat":10.15039,"lon":-68.56478,"population":54080},{"id":3645469,"name":"Cocorote","ascii":"Cocorote","lat":10.31954,"lon":-68.78298,"population":52803},{"id":3633341,"name":"Maiquetía","ascii":"Maiquetia","lat":10.5945,"lon":-66.95624,"population":52564},{"id":3646169,"name":"Caucagüito","ascii":"Caucagueito","lat":10.48666,"lon":-66.73799,"population":52556},{"id":3645531,"name":"Ciudad Bolivia","ascii":"Ciudad Bolivia","lat":8.35304,"lon":-70.57121,"population":52476},{"id":3645525,"name":"Ciudad Piar","ascii":"Ciudad Piar","lat":7.45209,"lon":-63.31992,"population":51967},{"id":3648540,"name":"Barinitas","ascii":"Barinitas","lat":8.76171,"lon":-70.41199,"population":51556},{"id":3629419,"name":"Quíbor","ascii":"Quibor","lat":9.92866,"lon":-69.6201,"population":51377},{"id":3627968,"name":"San Mateo","ascii":"San Mateo","lat":10.21302,"lon":-67.42365,"population":50401},{"id":3626047,"name":"Tovar","ascii":"Tovar","lat":8.33015,"lon":-71.75277,"population":48395},{"id":3630982,"name":"Palmira","ascii":"Palmira","lat":7.8375,"lon":-72.22794,"population":48087},{"id":3642497,"name":"Lecherías","ascii":"Lecherias","lat":10.19167,"lon":-64.69207,"population":47778},{"id":3627561,"name":"Santa Bárbara","ascii":"Santa Barbara","lat":7.81348,"lon":-71.17788,"population":45808},{"id":3649810,"name":"Achaguas","ascii":"Achaguas","lat":7.77917,"lon":-68.22373,"population":45311},{"id":3637623,"name":"Lagunillas","ascii":"Lagunillas","lat":10.13008,"lon":-71.25946,"population":44257},{"id":3630089,"name":"Píritu","ascii":"Piritu","lat":9.37083,"lon":-69.21028,"population":43746},{"id":3646534,"name":"Caripito","ascii":"Caripito","lat":10.11135,"lon":-63.09985,"population":43448},{"id":3635325,"name":"Las Tejerías","ascii":"Las Tejerias","lat":10.25416,"lon":-67.17333,"population":43445},{"id":3625944,"name":"Tucupido","ascii":"Tucupido","lat":9.27304,"lon":-65.77153,"population":42633},{"id":3629790,"name":"Pueblo Nuevo El Chivo","ascii":"Pueblo Nuevo El Chivo","lat":8.96249,"lon":-71.60754,"population":41740},{"id":3646581,"name":"Cariaco","ascii":"Cariaco","lat":10.49682,"lon":-63.55286,"population":41589},{"id":3639526,"name":"Higuerote","ascii":"Higuerote","lat":10.48287,"lon":-66.10096,"population":41364},{"id":3630687,"name":"Pariaguán","ascii":"Pariaguan","lat":8.84357,"lon":-64.71053,"population":40751},{"id":3646451,"name":"Carrizal","ascii":"Carrizal","lat":10.34985,"lon":-66.98632,"population":40618},{"id":3795218,"name":"Capacho Nuevo","ascii":"Capacho Nuevo","lat":7.82472,"lon":-72.3084,"population":40169},{"id":3639725,"name":"Güiria","ascii":"Gueiria","lat":10.57721,"lon":-62.29841,"population":40000},{"id":3644440,"name":"Duaca","ascii":"Duaca","lat":10.28554,"lon":-69.16244,"population":39653},{"id":3628853,"name":"Sabaneta","ascii":"Sabaneta","lat":8.75234,"lon":-69.93351,"population":39493},{"id":3626235,"name":"Tinaco","ascii":"Tinaco","lat":9.69894,"lon":-68.43273,"population":38172},{"id":3646767,"name":"Caraballeda","ascii":"Caraballeda","lat":10.61216,"lon":-66.85192,"population":37824},{"id":3629653,"name":"Puerto Píritu","ascii":"Puerto Piritu","lat":10.05896,"lon":-65.03698,"population":37745},{"id":3625892,"name":"Tumeremo","ascii":"Tumeremo","lat":7.29861,"lon":-61.50497,"population":37614},{"id":3795170,"name":"La Grita","ascii":"La Grita","lat":8.13316,"lon":-71.9839,"population":37545},{"id":3640215,"name":"Guanarito","ascii":"Guanarito","lat":8.69625,"lon":-69.20832,"population":37219},{"id":3626352,"name":"Temblador","ascii":"Temblador","lat":9.00525,"lon":-62.64493,"population":36447},{"id":3628545,"name":"Sanare","ascii":"Sanare","lat":9.75209,"lon":-69.6524,"population":35850},{"id":3630894,"name":"Pampanito","ascii":"Pampanito","lat":9.41037,"lon":-70.50116,"population":35847},{"id":3648873,"name":"Aroa","ascii":"Aroa","lat":10.43949,"lon":-68.89496,"population":35508},{"id":3627614,"name":"Santa Ana","ascii":"Santa Ana","lat":7.6429,"lon":-72.27636,"population":35452},{"id":3480908,"name":"La Asunción","ascii":"La Asuncion","lat":11.03333,"lon":-63.86278,"population":35084},{"id":3628921,"name":"Sabana de Mendoza","ascii":"Sabana de Mendoza","lat":9.43494,"lon":-70.77495,"population":34869},{"id":3480899,"name":"La Guardia","ascii":"La Guardia","lat":10.99742,"lon":-64.0181,"population":34700},{"id":3634965,"name":"La Vela de Coro","ascii":"La Vela de Coro","lat":11.46077,"lon":-69.5657,"population":34680},{"id":3648386,"name":"Bejuma","ascii":"Bejuma","lat":10.17383,"lon":-68.25892,"population":34618},{"id":3625965,"name":"Tucacas","ascii":"Tucacas","lat":10.79006,"lon":-68.32564,"population":34407},{"id":3647462,"name":"Caja Seca","ascii":"Caja Seca","lat":9.14151,"lon":-71.06741,"population":34165},{"id":3649100,"name":"Aragua de Barcelona","ascii":"Aragua de Barcelona","lat":9.45588,"lon":-64.82928,"population":34048},{"id":3631208,"name":"Ospino","ascii":"Ospino","lat":9.29572,"lon":-69.45434,"population":33547},{"id":3632198,"name":"Miranda","ascii":"Miranda","lat":10.15077,"lon":-68.39325,"population":32907},{"id":3629601,"name":"Punta de Piedras","ascii":"Punta de Piedras","lat":10.90123,"lon":-64.0969,"population":31886},{"id":3627186,"name":"Santa Rita","ascii":"Santa Rita","lat":10.53642,"lon":-71.51104,"population":31810},{"id":3646175,"name":"Caucagua","ascii":"Caucagua","lat":10.2831,"lon":-66.37591,"population":31788},{"id":3641440,"name":"El Sombrero","ascii":"El Sombrero","lat":9.3863,"lon":-67.05818,"population":31788},{"id":3629696,"name":"Puerto Cumarebo","ascii":"Puerto Cumarebo","lat":11.48614,"lon":-69.35319,"population":31644},{"id":3633248,"name":"Mamporal","ascii":"Mamporal","lat":10.36556,"lon":-66.13391,"population":30918},{"id":3627382,"name":"Santa Elena de Uairén","ascii":"Santa Elena de Uairen","lat":4.60226,"lon":-61.11025,"population":29795},{"id":3626741,"name":"Soledad","ascii":"Soledad","lat":8.16206,"lon":-63.5654,"population":29763},{"id":3632072,"name":"Montalbán","ascii":"Montalban","lat":10.21313,"lon":-68.32669,"population":29451},{"id":3639107,"name":"Juan Griego","ascii":"Juan Griego","lat":11.08172,"lon":-63.96549,"population":28256},{"id":3637624,"name":"Lagunillas","ascii":"Lagunillas","lat":8.50457,"lon":-71.3894,"population":28176},{"id":3644571,"name":"Dabajuro","ascii":"Dabajuro","lat":11.02273,"lon":-70.67769,"population":28117},{"id":3639922,"name":"Guasipati","ascii":"Guasipati","lat":7.47702,"lon":-61.89666,"population":27988},{"id":3642390,"name":"Elorza","ascii":"Elorza","lat":7.06088,"lon":-69.49765,"population":27795},{"id":3625696,"name":"Urachiche","ascii":"Urachiche","lat":10.15847,"lon":-69.00782,"population":26755},{"id":3641008,"name":"Encontrados","ascii":"Encontrados","lat":9.05983,"lon":-72.2346,"population":26121},{"id":3644767,"name":"Cumanacoa","ascii":"Cumanacoa","lat":10.25056,"lon":-63.91938,"population":25858},{"id":3631791,"name":"Motatán","ascii":"Motatan","lat":9.39182,"lon":-70.59061,"population":25437},{"id":3645360,"name":"Coloncito","ascii":"Coloncito","lat":8.32611,"lon":-72.08742,"population":25352},{"id":3637721,"name":"La Guaira","nameKo":"라과이라","ascii":"La Guaira","lat":10.60156,"lon":-66.93293,"population":25259},{"id":7909705,"name":"Santa Cruz de los Taques","ascii":"Santa Cruz de los Taques","lat":11.8235,"lon":-70.25637,"population":25047},{"id":3646296,"name":"Casigua El Cubo","ascii":"Casigua El Cubo","lat":8.74602,"lon":-72.51889,"population":24592},{"id":3640324,"name":"Guama","ascii":"Guama","lat":10.26638,"lon":-68.81986,"population":24570},{"id":3648506,"name":"Barrancas","ascii":"Barrancas","lat":8.76962,"lon":-70.11086,"population":24354},{"id":3628918,"name":"Sabana de Parra","ascii":"Sabana de Parra","lat":10.12111,"lon":-69.03639,"population":24262},{"id":3625963,"name":"Tucaní","ascii":"Tucani","lat":8.97003,"lon":-71.27277,"population":24034},{"id":3626302,"name":"Tía Juana","ascii":"Tia Juana","lat":10.25927,"lon":-71.36343,"population":23714},{"id":3649005,"name":"Araya","ascii":"Araya","lat":10.57998,"lon":-64.25548,"population":23693},{"id":3647535,"name":"Caicara","ascii":"Caicara","lat":9.81755,"lon":-63.61331,"population":23625},{"id":3626595,"name":"Tabay","ascii":"Tabay","lat":8.6317,"lon":-71.07833,"population":23539},{"id":3639086,"name":"Judibana","ascii":"Judibana","lat":11.75908,"lon":-70.18418,"population":23182},{"id":3629102,"name":"Río Chico","ascii":"Rio Chico","lat":10.31899,"lon":-65.97751,"population":22830},{"id":3628129,"name":"San José de Barlovento","ascii":"San Jose de Barlovento","lat":10.30125,"lon":-65.99053,"population":22352},{"id":3648042,"name":"Boraure","ascii":"Boraure","lat":10.24752,"lon":-68.76966,"population":21588},{"id":3645522,"name":"Clarines","ascii":"Clarines","lat":9.93991,"lon":-65.16517,"population":21582},{"id":3627418,"name":"Santa Cruz de Mora","ascii":"Santa Cruz de Mora","lat":8.39925,"lon":-71.64082,"population":21209},{"id":3647400,"name":"Camaguán","ascii":"Camaguan","lat":8.10732,"lon":-67.60738,"population":20791},{"id":3646316,"name":"Casanay","ascii":"Casanay","lat":10.5042,"lon":-63.41729,"population":20609},{"id":3632260,"name":"Michelena","ascii":"Michelena","lat":7.95642,"lon":-72.24235,"population":20539},{"id":3635260,"name":"Las Vegas","ascii":"Las Vegas","lat":9.53724,"lon":-68.63022,"population":20172},{"id":3648685,"name":"Bailadores","ascii":"Bailadores","lat":8.25347,"lon":-71.82818,"population":20113},{"id":3626237,"name":"Timotes","ascii":"Timotes","lat":8.98224,"lon":-70.73926,"population":20098},{"id":3631465,"name":"Nueva Bolivia","ascii":"Nueva Bolivia","lat":9.14007,"lon":-71.09143,"population":19885},{"id":3648507,"name":"Barrancas","ascii":"Barrancas","lat":8.6989,"lon":-62.19656,"population":19474},{"id":3643361,"name":"El Dividive","ascii":"El Dividive","lat":9.4751,"lon":-70.73493,"population":19243},{"id":3627593,"name":"Santa Ana","ascii":"Santa Ana","lat":11.06831,"lon":-63.92256,"population":19215},{"id":3632401,"name":"Mene de Mauroa","ascii":"Mene de Mauroa","lat":10.68091,"lon":-71.03609,"population":19174},{"id":3636861,"name":"La Paragua","ascii":"La Paragua","lat":6.83333,"lon":-63.33333,"population":18591},{"id":3629768,"name":"Pueblo Nuevo","ascii":"Pueblo Nuevo","lat":11.94788,"lon":-69.92306,"population":18525},{"id":3642260,"name":"El Pao","ascii":"El Pao","lat":9.63926,"lon":-68.12917,"population":18520},{"id":3640956,"name":"Escuque","ascii":"Escuque","lat":9.29687,"lon":-70.67189,"population":18128},{"id":3648127,"name":"Boconoito","ascii":"Boconoito","lat":8.84659,"lon":-69.98032,"population":18086},{"id":3645944,"name":"Chaguaramas","ascii":"Chaguaramas","lat":9.33754,"lon":-66.25282,"population":17728},{"id":3631431,"name":"Obispos","ascii":"Obispos","lat":8.60701,"lon":-70.10489,"population":17440},{"id":3627680,"name":"San Rafael de Onoto","ascii":"San Rafael de Onoto","lat":9.67813,"lon":-68.97278,"population":17402},{"id":3645727,"name":"Chiquinquirá","ascii":"Chiquinquira","lat":10.44333,"lon":-71.64722,"population":17271},{"id":3638904,"name":"La Azulita","ascii":"La Azulita","lat":8.71364,"lon":-71.44421,"population":17111},{"id":3643353,"name":"El Dorado","ascii":"El Dorado","lat":6.71581,"lon":-61.63738,"population":16100},{"id":3625155,"name":"Yumare","ascii":"Yumare","lat":10.59703,"lon":-68.67328,"population":15661},{"id":3625519,"name":"Valle de Guanape","ascii":"Valle de Guanape","lat":9.90999,"lon":-65.67405,"population":14983},{"id":3629593,"name":"Punta Gorda","ascii":"Punta Gorda","lat":10.33407,"lon":-71.41352,"population":14855},{"id":3634696,"name":"Lobatera","ascii":"Lobatera","lat":7.93005,"lon":-72.24679,"population":14041},{"id":3625239,"name":"Yaguaraparo","ascii":"Yaguaraparo","lat":10.56839,"lon":-62.82628,"population":13610},{"id":3634761,"name":"Libertad","ascii":"Libertad","lat":8.32709,"lon":-69.63093,"population":13251},{"id":3628619,"name":"San Antonio","ascii":"San Antonio","lat":10.11914,"lon":-63.72535,"population":12522},{"id":3645806,"name":"Chichiriviche","ascii":"Chichiriviche","lat":10.92872,"lon":-68.27283,"population":12500},{"id":3628394,"name":"San Fernando de Atabapo","ascii":"San Fernando de Atabapo","lat":4.04564,"lon":-67.69934,"population":11929},{"id":3627969,"name":"San Mateo","ascii":"San Mateo","lat":9.74004,"lon":-64.54937,"population":11670},{"id":3648163,"name":"Boca de Uchire","ascii":"Boca de Uchire","lat":10.13191,"lon":-65.42236,"population":10904},{"id":3644163,"name":"El Baúl","ascii":"El Baul","lat":8.96225,"lon":-68.29511,"population":10760},{"id":3648215,"name":"Boca de Aroa","ascii":"Boca de Aroa","lat":10.68229,"lon":-68.29829,"population":10033},{"id":3626150,"name":"Tocuyo de La Costa","ascii":"Tocuyo de La Costa","lat":11.0357,"lon":-68.37448,"population":9504},{"id":3648915,"name":"Aricagua","ascii":"Aricagua","lat":10.23861,"lon":-63.89761,"population":9272},{"id":3631752,"name":"Mucuchíes","ascii":"Mucuchies","lat":8.74921,"lon":-70.91978,"population":8880},{"id":3625051,"name":"Zea","ascii":"Zea","lat":8.37706,"lon":-71.78398,"population":8713},{"id":3628025,"name":"San Lorenzo","ascii":"San Lorenzo","lat":10.22301,"lon":-63.92452,"population":8343},{"id":3648231,"name":"Bobures","ascii":"Bobures","lat":9.24173,"lon":-71.17506,"population":8012},{"id":3785489,"name":"La Aguada","ascii":"La Aguada","lat":11.27667,"lon":-67.46444,"population":7261},{"id":3627798,"name":"San Pedro de Coche","ascii":"San Pedro de Coche","lat":10.78153,"lon":-63.99636,"population":6704},{"id":3648972,"name":"Arenas","ascii":"Arenas","lat":10.27931,"lon":-63.93725,"population":6312},{"id":3625644,"name":"Urica","ascii":"Urica","lat":9.71404,"lon":-64.00759,"population":4517},{"id":3486246,"name":"Aragüita","ascii":"Aragueita","lat":9.91252,"lon":-65.19197,"population":4463},{"id":3627633,"name":"San Simón","ascii":"San Simon","lat":8.35018,"lon":-71.85114,"population":2085},{"id":3639049,"name":"Kanavayén","ascii":"Kanavayen","lat":5.63333,"lon":-61.8,"population":1500},{"id":3641622,"name":"Los Roques","ascii":"Los Roques","lat":11.94836,"lon":-66.67835,"population":1471},{"id":3649859,"name":"Abejales","ascii":"Abejales","lat":7.6233,"lon":-71.51031,"population":0},{"id":3797773,"name":"Agua Blanca","ascii":"Agua Blanca","lat":9.66205,"lon":-69.10677,"population":0},{"id":3649576,"name":"Aguasay","ascii":"Aguasay","lat":9.42489,"lon":-63.73077,"population":0},{"id":3649403,"name":"Altamira","ascii":"Altamira","lat":8.82359,"lon":-70.50244,"population":0},{"id":3649099,"name":"Aragua","ascii":"Aragua","lat":9.97026,"lon":-63.48727,"population":0},{"id":3798818,"name":"Arapuey","ascii":"Arapuey","lat":9.25934,"lon":-70.95248,"population":0},{"id":3649018,"name":"Arauquita","ascii":"Arauquita","lat":8.70833,"lon":-69.65722,"population":0},{"id":3648916,"name":"Aricagua","ascii":"Aricagua","lat":8.22432,"lon":-71.13721,"population":0},{"id":3648885,"name":"Arismendi","ascii":"Arismendi","lat":8.47974,"lon":-68.36996,"population":0},{"id":3648698,"name":"Bachaquero","ascii":"Bachaquero","lat":9.96209,"lon":-71.12377,"population":0},{"id":3648580,"name":"Barbacoas","ascii":"Barbacoas","lat":9.47855,"lon":-66.97458,"population":0},{"id":3648290,"name":"Betijoque","ascii":"Betijoque","lat":9.38121,"lon":-70.73283,"population":0},{"id":3648274,"name":"Biscucuy","ascii":"Biscucuy","lat":9.36,"lon":-69.98302,"population":0},{"id":3648187,"name":"Boca de Río","ascii":"Boca de Rio","lat":10.96712,"lon":-64.17951,"population":0},{"id":3647931,"name":"Bruzual","ascii":"Bruzual","lat":8.05052,"lon":-69.33257,"population":0},{"id":3647729,"name":"Bum Bum","ascii":"Bum Bum","lat":8.27664,"lon":-70.76664,"population":0},{"id":3647636,"name":"Cabure","ascii":"Cabure","lat":11.1453,"lon":-69.61191,"population":0},{"id":3647435,"name":"Calderas","ascii":"Calderas","lat":8.91426,"lon":-70.44745,"population":0},{"id":3647382,"name":"Camatagua","ascii":"Camatagua","lat":9.78762,"lon":-66.90619,"population":0},{"id":3647197,"name":"Campo Elías","ascii":"Campo Elias","lat":9.39458,"lon":-70.05872,"population":0},{"id":3634762,"name":"Canaguá","ascii":"Canagua","lat":8.12489,"lon":-71.46041,"population":0},{"id":3646829,"name":"Canape Capatárida","ascii":"Canape Capatarida","lat":11.1755,"lon":-70.62072,"population":0},{"id":3634763,"name":"Capacho Viejo","ascii":"Capacho Viejo","lat":7.82893,"lon":-72.31942,"population":0},{"id":3646796,"name":"Capitanejo","ascii":"Capitanejo","lat":8.01171,"lon":-71.00458,"population":0},{"id":3646731,"name":"Carache","ascii":"Carache","lat":9.62857,"lon":-70.22864,"population":0},{"id":3638655,"name":"Caramuca","ascii":"Caramuca","lat":8.59708,"lon":-70.32056,"population":0},{"id":3481364,"name":"Caricuao","ascii":"Caricuao","lat":10.43337,"lon":-66.98313,"population":0},{"id":3646537,"name":"Caripe","ascii":"Caripe","lat":10.17335,"lon":-63.50048,"population":0},{"id":3627683,"name":"Carvajal","ascii":"Carvajal","lat":9.3067,"lon":-70.59042,"population":0},{"id":3638497,"name":"Chameta","ascii":"Chameta","lat":8.10023,"lon":-70.90671,"population":0},{"id":3645827,"name":"Chejendé","ascii":"Chejende","lat":9.6186,"lon":-70.35682,"population":0},{"id":3645586,"name":"Churuguara","ascii":"Churuguara","lat":10.81231,"lon":-69.53734,"population":0},{"id":3645529,"name":"Ciudad De Nutrias","ascii":"Ciudad De Nutrias","lat":8.09535,"lon":-69.30798,"population":0},{"id":3645387,"name":"Cojedes","ascii":"Cojedes","lat":9.62232,"lon":-68.91805,"population":0},{"id":3645304,"name":"Concepción","ascii":"Concepcion","lat":10.8,"lon":-71.76667,"population":0},{"id":3759212,"name":"Cordero","ascii":"Cordero","lat":7.85665,"lon":-72.18146,"population":0},{"id":3644701,"name":"Cúpira","ascii":"Cupira","lat":10.16128,"lon":-65.70013,"population":0},{"id":3644656,"name":"Curbatí","ascii":"Curbati","lat":8.45443,"lon":-70.55441,"population":0},{"id":3644646,"name":"Curiapo","ascii":"Curiapo","lat":8.58057,"lon":-60.99778,"population":0},{"id":3795119,"name":"Delicias","ascii":"Delicias","lat":7.56552,"lon":-72.4479,"population":0},{"id":3644478,"name":"Dolores","ascii":"Dolores","lat":8.28623,"lon":-69.56633,"population":0},{"id":3644022,"name":"El Callao","ascii":"El Callao","lat":7.34706,"lon":-61.82684,"population":0},{"id":3643962,"name":"El Cantón","ascii":"El Canton","lat":7.47801,"lon":-71.29693,"population":0},{"id":3485791,"name":"El Chaparro","ascii":"El Chaparro","lat":9.15204,"lon":-65.01732,"population":0},{"id":3643620,"name":"El Cobre","ascii":"El Cobre","lat":8.03431,"lon":-72.05777,"population":0},{"id":3643568,"name":"El Consejo","ascii":"El Consejo","lat":10.23777,"lon":-67.27008,"population":0},{"id":3643516,"name":"El Corozo","ascii":"El Corozo","lat":10.12061,"lon":-71.04422,"population":0},{"id":3643531,"name":"El Corozo","ascii":"El Corozo","lat":8.5675,"lon":-70.35778,"population":0},{"id":11915291,"name":"El Junko","ascii":"El Junko","lat":10.47249,"lon":-67.08361,"population":0},{"id":3642332,"name":"El Palmar","ascii":"El Palmar","lat":8.01082,"lon":-61.90713,"population":0},{"id":3642292,"name":"El Palmer","ascii":"El Palmer","lat":8.03333,"lon":-61.88333,"population":0},{"id":3642243,"name":"El Paradero","ascii":"El Paradero","lat":9.77278,"lon":-70.61541,"population":0},{"id":3642042,"name":"El Pilar","ascii":"El Pilar","lat":10.54782,"lon":-63.15424,"population":0},{"id":3798450,"name":"El Playón","ascii":"El Playon","lat":9.10049,"lon":-69.04564,"population":0},{"id":3486692,"name":"El Real","ascii":"El Real","lat":8.43525,"lon":-69.99633,"population":0},{"id":3641775,"name":"El Regalo","ascii":"El Regalo","lat":8.43455,"lon":-69.1767,"population":0},{"id":3641460,"name":"El Socorro","ascii":"El Socorro","lat":8.99352,"lon":-65.74247,"population":0},{"id":3641251,"name":"El Toro","ascii":"El Toro","lat":10.95423,"lon":-71.64843,"population":0},{"id":3641154,"name":"El Valle del Espíritu Santo","ascii":"El Valle del Espiritu Santo","lat":10.98325,"lon":-63.88346,"population":0},{"id":3640853,"name":"Farriar","ascii":"Farriar","lat":10.47016,"lon":-68.55885,"population":0},{"id":13156290,"name":"Garcia de Hevia Municipality","ascii":"Garcia de Hevia Municipality","lat":8.3172,"lon":-72.2517,"population":0},{"id":3640407,"name":"Guadarrama","ascii":"Guadarrama","lat":8.53508,"lon":-68.04923,"population":0},{"id":3640179,"name":"Guanta","ascii":"Guanta","lat":10.23453,"lon":-64.59708,"population":0},{"id":3640100,"name":"Guaraque","ascii":"Guaraque","lat":8.15405,"lon":-71.73562,"population":0},{"id":3639880,"name":"Guayabal","ascii":"Guayabal","lat":8.00077,"lon":-67.39732,"population":0},{"id":8131509,"name":"Independencia","ascii":"Independencia","lat":10.33432,"lon":-68.75512,"population":0},{"id":3639350,"name":"Irapa","ascii":"Irapa","lat":10.57006,"lon":-62.58204,"population":0},{"id":3755947,"name":"Isla Ratón","ascii":"Isla Raton","lat":5.06862,"lon":-67.81295,"population":0},{"id":3639282,"name":"Jacura","ascii":"Jacura","lat":11.07446,"lon":-68.85583,"population":0},{"id":3638264,"name":"La Cruz de Taratara","ascii":"La Cruz de Taratara","lat":11.06302,"lon":-69.71287,"population":0},{"id":3638075,"name":"La Esmeralda","ascii":"La Esmeralda","lat":3.17453,"lon":-65.54517,"population":0},{"id":3637311,"name":"La Luz","ascii":"La Luz","lat":8.39419,"lon":-69.82358,"population":0},{"id":3486930,"name":"La Mula","ascii":"La Mula","lat":8.57084,"lon":-70.37524,"population":0},{"id":3636682,"name":"La Plata","ascii":"La Plata","lat":10.32025,"lon":-71.2721,"population":0},{"id":3630778,"name":"La Plaza Paraguachi","ascii":"La Plaza Paraguachi","lat":11.10783,"lon":-63.85537,"population":0},{"id":3636565,"name":"La Quebrada","ascii":"La Quebrada","lat":9.15522,"lon":-70.57702,"population":0},{"id":3636372,"name":"La Sabana","ascii":"La Sabana","lat":10.61867,"lon":-66.38194,"population":0},{"id":3795620,"name":"La Tendida","ascii":"La Tendida","lat":8.50734,"lon":-71.83201,"population":0},{"id":3635064,"name":"La Unión","ascii":"La Union","lat":8.21573,"lon":-67.76653,"population":0},{"id":3634816,"name":"La Yuca","ascii":"La Yuca","lat":8.73109,"lon":-70.18072,"population":0},{"id":3625469,"name":"Las Casitas del Vegon de Nutrias","ascii":"Las Casitas del Vegon de Nutrias","lat":8.23704,"lon":-69.4183,"population":0},{"id":3635714,"name":"Las Mercedes","ascii":"Las Mercedes","lat":9.11037,"lon":-66.39607,"population":0},{"id":3738787,"name":"Las Mesas","ascii":"Las Mesas","lat":8.17123,"lon":-72.15948,"population":0},{"id":3634760,"name":"Libertad","ascii":"Libertad","lat":9.35654,"lon":-68.69221,"population":0},{"id":3487261,"name":"Los Guasimitos","ascii":"Los Guasimitos","lat":8.66435,"lon":-70.23216,"population":0},{"id":3634116,"name":"Los Guayos","ascii":"Los Guayos","lat":10.18932,"lon":-67.93828,"population":0},{"id":3799319,"name":"Macapo","ascii":"Macapo","lat":9.82533,"lon":-68.43866,"population":0},{"id":3633412,"name":"Macuto","ascii":"Macuto","lat":10.60508,"lon":-66.89745,"population":0},{"id":3633075,"name":"Mapire","ascii":"Mapire","lat":7.74085,"lon":-64.71047,"population":0},{"id":3633063,"name":"Maporal","ascii":"Maporal","lat":7.645,"lon":-70.41985,"population":0},{"id":3632910,"name":"Marigüitar","ascii":"Mariguitar","lat":10.44789,"lon":-63.90161,"population":0},{"id":3632890,"name":"Maripa","ascii":"Maripa","lat":7.41584,"lon":-65.19034,"population":0},{"id":3632867,"name":"Maroa","ascii":"Maroa","lat":2.7188,"lon":-67.56046,"population":0},{"id":3632836,"name":"Masparrito","ascii":"Masparrito","lat":9.00194,"lon":-70.30139,"population":0},{"id":3632186,"name":"Mirimire","ascii":"Mirimire","lat":11.1602,"lon":-68.72604,"population":0},{"id":3632051,"name":"Monte Carmelo","ascii":"Monte Carmelo","lat":9.18821,"lon":-70.81229,"population":0},{"id":3631614,"name":"Naguanagua","ascii":"Naguanagua","lat":10.25604,"lon":-68.01649,"population":0},{"id":3631612,"name":"Naiguatá","ascii":"Naiguata","lat":10.62026,"lon":-66.73833,"population":0},{"id":3631413,"name":"Ocumare de la Costa","ascii":"Ocumare de la Costa","lat":10.46127,"lon":-67.76872,"population":0},{"id":3631333,"name":"Onoto","ascii":"Onoto","lat":9.59714,"lon":-65.1935,"population":0},{"id":3631247,"name":"Ortiz","ascii":"Ortiz","lat":9.62168,"lon":-67.29047,"population":0},{"id":3630999,"name":"Palmasola","ascii":"Palmasola","lat":9.23333,"lon":-66.71667,"population":0},{"id":3784154,"name":"Palmasola","ascii":"Palmasola","lat":10.59363,"lon":-68.54422,"population":0},{"id":3630826,"name":"Papelón","ascii":"Papelon","lat":8.94109,"lon":-69.46021,"population":0},{"id":3630761,"name":"Paraíso de Chabasquén","ascii":"Paraiso de Chabasquen","lat":9.43326,"lon":-69.94728,"population":0},{"id":3630490,"name":"Pedernales","ascii":"Pedernales","lat":9.971,"lon":-62.252,"population":0},{"id":3630480,"name":"Pedraza La Vieja","ascii":"Pedraza La Vieja","lat":7.9168,"lon":-71.05934,"population":0},{"id":3630473,"name":"Pedregal","ascii":"Pedregal","lat":11.02142,"lon":-70.12106,"population":0},{"id":3630086,"name":"Píritu","ascii":"Piritu","lat":11.36648,"lon":-69.13807,"population":0},{"id":3630087,"name":"Píritu","ascii":"Piritu","lat":10.0395,"lon":-65.03037,"population":0},{"id":3629844,"name":"Pregonero","ascii":"Pregonero","lat":8.01909,"lon":-71.76595,"population":0},{"id":3629800,"name":"Pueblo Llano","ascii":"Pueblo Llano","lat":8.9152,"lon":-70.65919,"population":0},{"id":3629693,"name":"Puerto de Nutrias","ascii":"Puerto de Nutrias","lat":8.07281,"lon":-69.30246,"population":0},{"id":3486718,"name":"Puerto Vivas","ascii":"Puerto Vivas","lat":7.50005,"lon":-71.84446,"population":0},{"id":3629604,"name":"Punta de Piedra","ascii":"Punta de Piedra","lat":7.61759,"lon":-71.49164,"population":0},{"id":3629490,"name":"Quebrada Seca","ascii":"Quebrada Seca","lat":8.70015,"lon":-70.31941,"population":0},{"id":3629459,"name":"Queniquea","ascii":"Queniquea","lat":7.91849,"lon":-72.01612,"population":0},{"id":3629385,"name":"Quiriquire","ascii":"Quiriquire","lat":9.9795,"lon":-63.21991,"population":0},{"id":3629107,"name":"Río Caribe","ascii":"Rio Caribe","lat":10.6977,"lon":-63.10871,"population":0},{"id":3628904,"name":"Sabana Grande","ascii":"Sabana Grande","lat":9.4018,"lon":-70.79812,"population":0},{"id":3628657,"name":"San Antonio","ascii":"San Antonio","lat":7.96378,"lon":-68.43384,"population":0},{"id":3628552,"name":"San Antonio del Golfo","ascii":"San Antonio del Golfo","lat":10.44198,"lon":-63.78874,"population":0},{"id":3628488,"name":"San Carlos de Río Negro","ascii":"San Carlos de Rio Negro","lat":1.92027,"lon":-67.06089,"population":0},{"id":3628487,"name":"San Casimiro","ascii":"San Casimiro","lat":10.00169,"lon":-67.01464,"population":0},{"id":3628462,"name":"San Diego","ascii":"San Diego","lat":10.26057,"lon":-67.95363,"population":0},{"id":3628374,"name":"San Francisco","ascii":"San Francisco","lat":10.55363,"lon":-71.70364,"population":0},{"id":3628350,"name":"San Francisco de Yare","ascii":"San Francisco de Yare","lat":10.17793,"lon":-66.74649,"population":0},{"id":3628148,"name":"San José de Aerocuar","ascii":"San Jose de Aerocuar","lat":10.59973,"lon":-63.32852,"population":0},{"id":3739076,"name":"San José de Bolívar","ascii":"San Jose de Bolivar","lat":7.91242,"lon":-71.97251,"population":0},{"id":3774127,"name":"San José de Guaribe","ascii":"San Jose de Guaribe","lat":9.86025,"lon":-65.81306,"population":0},{"id":3628055,"name":"San Juan de los Cayos","ascii":"San Juan de los Cayos","lat":11.17203,"lon":-68.4128,"population":0},{"id":3628052,"name":"San Juan de Manapiare","ascii":"San Juan de Manapiare","lat":5.32665,"lon":-66.05402,"population":0},{"id":3805700,"name":"San Juan de Payara","ascii":"San Juan de Payara","lat":7.64636,"lon":-67.6072,"population":0},{"id":3627997,"name":"San Luis","ascii":"San Luis","lat":11.12034,"lon":-69.68397,"population":0},{"id":3627874,"name":"San Pablo","ascii":"San Pablo","lat":10.24929,"lon":-68.84427,"population":0},{"id":3627685,"name":"San Rafael de Canaguá","ascii":"San Rafael de Canagua","lat":8.02667,"lon":-70.00861,"population":0},{"id":3642031,"name":"San Rafael del Piñal","ascii":"San Rafael del Pinal","lat":7.52987,"lon":-71.95922,"population":0},{"id":3806799,"name":"San Sebastián","ascii":"San Sebastian","lat":9.94108,"lon":-67.17183,"population":0},{"id":3627635,"name":"San Silvestre","ascii":"San Silvestre","lat":8.27585,"lon":-70.11027,"population":0},{"id":3627609,"name":"Santa Ana","ascii":"Santa Ana","lat":9.3056,"lon":-64.65478,"population":0},{"id":3627611,"name":"Santa Ana","ascii":"Santa Ana","lat":8.11697,"lon":-72.02174,"population":0},{"id":3627576,"name":"Santa Apolonia","ascii":"Santa Apolonia","lat":9.47135,"lon":-71.01213,"population":0},{"id":3627549,"name":"Santa Bárbara","ascii":"Santa Barbara","lat":9.60745,"lon":-63.60938,"population":0},{"id":3627510,"name":"Santa Catalina","ascii":"Santa Catalina","lat":7.92408,"lon":-68.91745,"population":0},{"id":3627457,"name":"Santa Cruz","ascii":"Santa Cruz","lat":10.18,"lon":-67.51184,"population":0},{"id":3627423,"name":"Santa Cruz de Bucaral","ascii":"Santa Cruz de Bucaral","lat":10.81919,"lon":-69.27679,"population":0},{"id":3486577,"name":"Santa Cruz de Guacas","ascii":"Santa Cruz de Guacas","lat":7.44329,"lon":-71.30139,"population":0},{"id":3627384,"name":"Santa Elena de Arenales","ascii":"Santa Elena de Arenales","lat":8.82062,"lon":-71.46572,"population":0},{"id":3627360,"name":"Santa Inés","ascii":"Santa Ines","lat":8.26241,"lon":-69.89795,"population":0},{"id":3627334,"name":"Santa Isabel","ascii":"Santa Isabel","lat":9.63163,"lon":-70.80837,"population":0},{"id":3627296,"name":"Santa Lucía","ascii":"Santa Lucia","lat":10.30494,"lon":-66.65998,"population":0},{"id":3627304,"name":"Santa Lucía","ascii":"Santa Lucia","lat":8.10155,"lon":-69.77752,"population":0},{"id":3627240,"name":"Santa María de Caparo","ascii":"Santa Maria de Caparo","lat":7.71412,"lon":-71.46466,"population":0},{"id":3627237,"name":"Santa María de Ipire","ascii":"Santa Maria de Ipire","lat":8.81556,"lon":-65.3225,"population":0},{"id":3753107,"name":"Santa Rita","ascii":"Santa Rita","lat":10.2054,"lon":-67.55948,"population":0},{"id":3627148,"name":"Santa Rosa","ascii":"Santa Rosa","lat":8.44033,"lon":-69.70105,"population":0},{"id":3627021,"name":"Santo Domingo","ascii":"Santo Domingo","lat":8.86052,"lon":-70.6948,"population":0},{"id":3626960,"name":"Sarare","ascii":"Sarare","lat":9.78129,"lon":-69.1633,"population":0},{"id":3626921,"name":"Seboruco","ascii":"Seboruco","lat":8.14514,"lon":-72.07332,"population":0},{"id":3762895,"name":"Sierra Imataca","ascii":"Sierra Imataca","lat":8.39352,"lon":-62.45439,"population":0},{"id":3626809,"name":"Sinamaica","ascii":"Sinamaica","lat":11.08656,"lon":-71.85595,"population":0},{"id":3626785,"name":"Siquisique","ascii":"Siquisique","lat":10.57112,"lon":-69.70172,"population":0},{"id":3626168,"name":"Tocópero","ascii":"Tocopero","lat":11.49946,"lon":-69.259,"population":0},{"id":3481456,"name":"Tocuyito","ascii":"Tocuyito","lat":10.11347,"lon":-68.06783,"population":0},{"id":3626094,"name":"Torondoy","ascii":"Torondoy","lat":9.03457,"lon":-71.01412,"population":0},{"id":3626074,"name":"Torunos","ascii":"Torunos","lat":8.50015,"lon":-70.08056,"population":0},{"id":3625878,"name":"Tunapuy","ascii":"Tunapuy","lat":10.5748,"lon":-63.10751,"population":0},{"id":3625732,"name":"Umuquena","ascii":"Umuquena","lat":8.26648,"lon":-72.06432,"population":0},{"id":3625693,"name":"Uracoa","ascii":"Uracoa","lat":8.99432,"lon":-62.35202,"population":0},{"id":3625613,"name":"Urumaco","ascii":"Urumaco","lat":11.19996,"lon":-70.25543,"population":0},{"id":3634973,"name":"Veguitas","ascii":"Veguitas","lat":8.82391,"lon":-69.99581,"population":0},{"id":3625214,"name":"Yaracal","ascii":"Yaracal","lat":10.96985,"lon":-68.54648,"population":0}]