[{"id":786714,"name":"Pristina","nameKo":"프리슈티나","ascii":"Pristina","lat":42.67272,"lon":21.16688,"population":550000},{"id":786712,"name":"Prizren","nameKo":"프리즈렌","ascii":"Prizren","lat":42.21389,"lon":20.73972,"population":171464},{"id":789225,"name":"Mitrovicë","ascii":"Mitrovice","lat":42.88333,"lon":20.86667,"population":107045},{"id":791646,"name":"Gjakovë","ascii":"Gjakove","lat":42.38028,"lon":20.43083,"population":94158},{"id":785238,"name":"Suva Reka","ascii":"Suva Reka","lat":42.35861,"lon":20.825,"population":72229},{"id":784759,"name":"Ferizaj","ascii":"Ferizaj","lat":42.37056,"lon":21.15528,"population":59504},{"id":790701,"name":"Glogovac","ascii":"Glogovac","lat":42.62833,"lon":20.89389,"population":58579},{"id":790674,"name":"Gjilan","ascii":"Gjilan","lat":42.46045,"lon":21.46986,"population":51912},{"id":791580,"name":"Deçan","ascii":"Decan","lat":42.54018,"lon":20.28793,"population":50500},{"id":787157,"name":"Pejë","ascii":"Peje","lat":42.65913,"lon":20.28828,"population":48962},{"id":784372,"name":"Vitina","ascii":"Vitina","lat":42.32139,"lon":21.35833,"population":46959},{"id":789996,"name":"Istok","ascii":"Istok","lat":42.78083,"lon":20.4875,"population":40000},{"id":791122,"name":"Dragash","ascii":"Dragash","lat":42.0265,"lon":20.65333,"population":35000},{"id":786950,"name":"Podujeva","ascii":"Podujeva","lat":42.91056,"lon":21.19306,"population":35000},{"id":785485,"name":"Shtime","ascii":"Shtime","lat":42.43306,"lon":21.03972,"population":35000},{"id":784097,"name":"Vushtrri","ascii":"Vushtrri","lat":42.82306,"lon":20.9675,"population":30651},{"id":787456,"name":"Orahovac","ascii":"Orahovac","lat":42.39944,"lon":20.65472,"population":22049},{"id":788470,"name":"Llazicë","ascii":"Llazice","lat":42.55528,"lon":20.76333,"population":19863},{"id":788731,"name":"Leposaviq","ascii":"Leposaviq","lat":43.10389,"lon":20.80278,"population":19000},{"id":783770,"name":"Zvečan","ascii":"Zvecan","lat":42.9075,"lon":20.84028,"population":17000},{"id":789228,"name":"Kosovo Polje","ascii":"Kosovo Polje","lat":42.66394,"lon":21.09611,"population":16154},{"id":783802,"name":"Zubin Potok","ascii":"Zubin Potok","lat":42.91444,"lon":20.68972,"population":14900},{"id":787534,"name":"Obiliq","ascii":"Obiliq","lat":42.68694,"lon":21.07028,"population":11612},{"id":789721,"name":"Kačanik","ascii":"Kacanik","lat":42.23194,"lon":21.25944,"population":9800},{"id":791539,"name":"Hani i Elezit","ascii":"Hani i Elezit","lat":42.15,"lon":21.29667,"population":9389},{"id":789227,"name":"Kamenica","ascii":"Kamenica","lat":42.57806,"lon":21.58028,"population":9312},{"id":788652,"name":"Lipljan","ascii":"Lipljan","lat":42.52167,"lon":21.12583,"population":9047},{"id":789455,"name":"Klina","ascii":"Klina","lat":42.62167,"lon":20.57778,"population":8050},{"id":785388,"name":"Štrpce","ascii":"Strpce","lat":42.23944,"lon":21.02722,"population":6913},{"id":787589,"name":"Novo Brdo","ascii":"Novo Brdo","lat":42.6159,"lon":21.43405,"population":6720},{"id":790354,"name":"Strellc i Epërm","ascii":"Strellc i Eperm","lat":42.57843,"lon":20.29398,"population":6100},{"id":788187,"name":"Mamuša","ascii":"Mamusa","lat":42.33083,"lon":20.72694,"population":5507},{"id":790002,"name":"Isniq","ascii":"Isniq","lat":42.5575,"lon":20.30278,"population":5500},{"id":785642,"name":"Srbica","ascii":"Srbica","lat":42.74667,"lon":20.78861,"population":5089},{"id":786478,"name":"Ranilug","ascii":"Ranilug","lat":42.49222,"lon":21.59889,"population":3785},{"id":791161,"name":"Strellc i Ulët","ascii":"Strellc i Ulet","lat":42.58063,"lon":20.31619,"population":2850},{"id":792375,"name":"Bradash","ascii":"Bradash","lat":42.94028,"lon":21.13806,"population":2567},{"id":789427,"name":"Klokot","ascii":"Klokot","lat":42.37139,"lon":21.37444,"population":2551},{"id":786734,"name":"Prilep","ascii":"Prilep","lat":42.5075,"lon":20.31778,"population":2500},{"id":788239,"name":"Mališevo","ascii":"Malisevo","lat":42.48222,"lon":20.74583,"population":2300},{"id":786156,"name":"Irzniq","ascii":"Irzniq","lat":42.52,"lon":20.34722,"population":2200},{"id":791043,"name":"Dranoc","ascii":"Dranoc","lat":42.51556,"lon":20.29222,"population":2000},{"id":790704,"name":"Gllogjan","ascii":"Gllogjan","lat":42.50722,"lon":20.36278,"population":2000},{"id":787155,"name":"Peqan","ascii":"Peqan","lat":42.38361,"lon":20.82194,"population":1883},{"id":787197,"name":"Partesh","ascii":"Partesh","lat":42.40194,"lon":21.43361,"population":1787},{"id":792185,"name":"Budakovo","ascii":"Budakovo","lat":42.355,"lon":20.925,"population":1576},{"id":788726,"name":"Leshan","ascii":"Leshan","lat":42.32778,"lon":20.78111,"population":1575},{"id":791483,"name":"Gjinoc","ascii":"Gjinoc","lat":42.31833,"lon":20.81861,"population":1571},{"id":790486,"name":"Lluka e Eperme","ascii":"Lluka e Eperme","lat":42.545,"lon":20.30778,"population":1500},{"id":788536,"name":"Lumbardhi","ascii":"Lumbardhi","lat":42.54667,"lon":20.34667,"population":1500},{"id":788794,"name":"Laplje Selo","ascii":"Laplje Selo","lat":42.59667,"lon":21.14083,"population":1387},{"id":787268,"name":"Pagaruša","ascii":"Pagarusa","lat":42.42,"lon":20.74222,"population":1374},{"id":793226,"name":"Papraqan","ascii":"Papraqan","lat":42.55278,"lon":20.33111,"population":1288},{"id":788543,"name":"Lëbushë","ascii":"Lebushe","lat":42.56306,"lon":20.29083,"population":1250},{"id":789199,"name":"Kosuriq","ascii":"Kosuriq","lat":42.57028,"lon":20.46472,"population":1200},{"id":787650,"name":"Nishor","ascii":"Nishor","lat":42.42389,"lon":20.80167,"population":1154},{"id":790977,"name":"Dubova (Driloni)","ascii":"Dubova (Driloni)","lat":42.71194,"lon":20.36972,"population":1050},{"id":830410,"name":"Lloqan","ascii":"Lloqan","lat":42.52444,"lon":20.28083,"population":1050},{"id":830005,"name":"Glanica","ascii":"Glanica","lat":42.54933,"lon":21.06336,"population":243},{"id":789739,"name":"Junik","ascii":"Junik","lat":42.47583,"lon":20.27722,"population":4}]