[{"id":71137,"name":"Sanaa","nameKo":"사나","ascii":"Sanaa","lat":15.35452,"lon":44.20646,"population":1937451},{"id":415189,"name":"Aden","nameKo":"아덴","ascii":"Aden","lat":12.77957,"lon":45.03852,"population":1079670},{"id":70225,"name":"Taiz","ascii":"Taiz","lat":13.57952,"lon":44.02091,"population":940600},{"id":74477,"name":"Ibb","nameKo":"이브","ascii":"Ibb","lat":13.96667,"lon":44.18333,"population":771514},{"id":79415,"name":"Al Ḩudaydah","ascii":"Al Hudaydah","lat":14.79781,"lon":42.95452,"population":734699},{"id":78754,"name":"Mukalla","ascii":"Mukalla","lat":14.54248,"lon":49.12424,"population":594951},{"id":76184,"name":"Dhamār","ascii":"Dhamar","lat":14.54274,"lon":44.40514,"population":160114},{"id":78428,"name":"‘Amrān","ascii":"'Amran","lat":15.6594,"lon":43.94385,"population":90792},{"id":70979,"name":"Sayyān","ascii":"Sayyan","lat":15.17177,"lon":44.32442,"population":69404},{"id":69500,"name":"Zabīd","ascii":"Zabid","lat":14.1951,"lon":43.31518,"population":52590},{"id":71334,"name":"Sa'dah","ascii":"Sa'dah","lat":16.94021,"lon":43.76393,"population":51870},{"id":77408,"name":"Bājil","ascii":"Bajil","lat":15.05898,"lon":43.28731,"population":48218},{"id":75337,"name":"Ḩajjah","ascii":"Hajjah","lat":15.69425,"lon":43.60582,"population":43549},{"id":76154,"name":"Dhī as Sufāl","ascii":"Dhi as Sufal","lat":13.83446,"lon":44.11469,"population":37997},{"id":79836,"name":"Al Bayda","ascii":"Al Bayda","lat":13.98523,"lon":45.57272,"population":37821},{"id":77726,"name":"Ataq","ascii":"Ataq","lat":14.53767,"lon":46.83187,"population":37315},{"id":76991,"name":"Bayt al Faqīh","ascii":"Bayt al Faqih","lat":14.51635,"lon":43.32446,"population":34204},{"id":69559,"name":"Yarīm","ascii":"Yarim","lat":14.29804,"lon":44.37795,"population":33050},{"id":71273,"name":"Saḩar","ascii":"Sahar","lat":15.31637,"lon":44.3088,"population":31859},{"id":73560,"name":"Laḩij","ascii":"Lahij","lat":13.05667,"lon":44.88194,"population":23375},{"id":75618,"name":"Ghayl Bā Wazīr","ascii":"Ghayl Ba Wazir","lat":14.77611,"lon":49.36611,"population":21259},{"id":69426,"name":"Zinjibār","ascii":"Zinjibar","lat":13.12871,"lon":45.38073,"population":19879},{"id":79455,"name":"Al Ḩazm","ascii":"Al Hazm","lat":16.16406,"lon":44.77692,"population":18241},{"id":72968,"name":"Ma'rib","ascii":"Ma'rib","lat":15.46253,"lon":45.32581,"population":16794},{"id":78751,"name":"Mocha","nameKo":"모카","ascii":"Mocha","lat":13.31814,"lon":43.24991,"population":16794},{"id":80384,"name":"Aḑ Ḑāli‘","ascii":"Ad Dali`","lat":13.69572,"lon":44.73137,"population":14760},{"id":74219,"name":"Jawf al Maqbābah","ascii":"Jawf al Maqbabah","lat":13.83783,"lon":45.83488,"population":14175},{"id":79700,"name":"Al Ghayz̧ah","ascii":"Al Ghayzah","lat":16.20787,"lon":52.17605,"population":10948},{"id":78977,"name":"Al Maḩwīt","ascii":"Al Mahwit","lat":15.47007,"lon":43.54481,"population":10593},{"id":11776817,"name":"Jadder Cemetery","ascii":"Jadder Cemetery","lat":15.467,"lon":44.17787,"population":10000},{"id":75427,"name":"Hadibu","ascii":"Hadibu","lat":12.64881,"lon":54.01895,"population":8545},{"id":70676,"name":"Shibām","ascii":"Shibam","lat":15.92694,"lon":48.62667,"population":7000},{"id":12217890,"name":"CPF","ascii":"CPF","lat":15.59166,"lon":49.13601,"population":6000},{"id":12167139,"name":"Al Madakisha","ascii":"Al Madakisha","lat":13.23663,"lon":44.40565,"population":5000},{"id":11776813,"name":"Village of ALAMRAH","ascii":"Village of ALAMRAH","lat":13.74318,"lon":43.72992,"population":4500},{"id":71799,"name":"Qalansīyah","ascii":"Qalansiyah","lat":12.68958,"lon":53.48709,"population":3500},{"id":8308217,"name":"Khimār","ascii":"Khimar","lat":14.3198,"lon":46.73922,"population":3000},{"id":73685,"name":"Kilmia","ascii":"Kilmia","lat":12.18576,"lon":52.23332,"population":2013},{"id":12167129,"name":"Al Qabyal","ascii":"Al Qabyal","lat":13.23672,"lon":44.4061,"population":2000},{"id":11153801,"name":"Al-Medy Village, قرية المدي","ascii":"Al-Medy Village, qryt almdy","lat":14.40152,"lon":43.79178,"population":2000},{"id":79015,"name":"Al Madu","ascii":"Al Madu","lat":13.85668,"lon":44.8184,"population":1986},{"id":12097222,"name":"Ahl Mohammed bin Ahmed","ascii":"Ahl Mohammed bin Ahmed","lat":13.27733,"lon":45.39048,"population":1800},{"id":7792748,"name":"At Taḩāluf","ascii":"At Tahaluf","lat":15.93786,"lon":48.78641,"population":1281},{"id":7792745,"name":"Al Ḩamdī","ascii":"Al Hamdi","lat":15.94727,"lon":48.77965,"population":1273},{"id":11125824,"name":"AL-khashā upper","ascii":"AL-khasha upper","lat":14.34044,"lon":46.71365,"population":1100},{"id":7792750,"name":"Suḩayl Shibām","ascii":"Suhayl Shibam","lat":15.91448,"lon":48.63864,"population":645},{"id":70346,"name":"Al ‘Inān","ascii":"Al `Inan","lat":16.72189,"lon":44.31252,"population":100},{"id":7344394,"name":"Banī al ‘Awwām","ascii":"Bani al `Awwam","lat":15.58119,"lon":43.58727,"population":41},{"id":406662,"name":"Sāqayn","ascii":"Saqayn","lat":16.877,"lon":43.52499,"population":41},{"id":7683765,"name":"Ash Shawātī","ascii":"Ash Shawati","lat":16.78314,"lon":43.81265,"population":25},{"id":72430,"name":"Al Musaymīr","ascii":"Al Musaymir","lat":13.44389,"lon":44.61528,"population":3},{"id":7890531,"name":"Al Khāniq","ascii":"Al Khaniq","lat":15.50253,"lon":44.18158,"population":2},{"id":78448,"name":"‘Amd","ascii":"`Amd","lat":15.3,"lon":47.98333,"population":0},{"id":69944,"name":"‘Ubāl","ascii":"`Ubal","lat":14.98808,"lon":43.54444,"population":0},{"id":69769,"name":"‘Usaylān","ascii":"`Usaylan","lat":15.03201,"lon":45.82832,"population":0},{"id":70357,"name":"Abs","ascii":"Abs","lat":16.00295,"lon":43.19725,"population":0},{"id":80393,"name":"Aḑ Ḑaḩī","ascii":"Ad Dahi","lat":15.21518,"lon":43.0702,"population":0},{"id":80379,"name":"Ad Dann","ascii":"Ad Dann","lat":14.3518,"lon":43.85275,"population":0},{"id":30788,"name":"Aḑ Ḑil‘","ascii":"Ad Dil`","lat":14.67199,"lon":43.81827,"population":0},{"id":80336,"name":"Ad Dimnah","ascii":"Ad Dimnah","lat":13.45398,"lon":44.18168,"population":0},{"id":80331,"name":"Ad Dīs ash Sharqīyah","ascii":"Ad Dis ash Sharqiyah","lat":14.9084,"lon":49.94847,"population":0},{"id":80309,"name":"Ad Durayhimī","ascii":"Ad Durayhimi","lat":14.63702,"lon":43.05505,"population":0},{"id":80105,"name":"Aḩwar","ascii":"Ahwar","lat":13.52019,"lon":46.71367,"population":0},{"id":74785,"name":"Al ‘Abr","ascii":"Al `Abr","lat":16.1377,"lon":47.23545,"population":0},{"id":7364546,"name":"Al ‘Amūd","ascii":"Al `Amud","lat":14.72103,"lon":45.20676,"population":0},{"id":7364784,"name":"Al ‘Aqabah","ascii":"Al `Aqabah","lat":14.27179,"lon":44.78699,"population":0},{"id":79967,"name":"Al ‘Āqir","ascii":"Al `Aqir","lat":14.56816,"lon":45.91156,"population":0},{"id":407024,"name":"Al ‘Ashshah","ascii":"Al `Ashshah","lat":16.25652,"lon":43.85476,"population":0},{"id":77636,"name":"Al ‘Awābil","ascii":"Al `Awabil","lat":13.83755,"lon":44.86431,"population":0},{"id":7354697,"name":"Al ‘Ayn","ascii":"Al `Ayn","lat":13.33005,"lon":44.09208,"population":0},{"id":78543,"name":"Al ‘Udayn","ascii":"Al `Udayn","lat":13.96918,"lon":43.99673,"population":0},{"id":8308729,"name":"Al ‘Ulayb","ascii":"Al 'Ulayb","lat":15.14747,"lon":49.07325,"population":0},{"id":402753,"name":"Al ‘Urrah","ascii":"Al `Urrah","lat":15.24666,"lon":43.88834,"population":0},{"id":30777,"name":"Al Aḩad","ascii":"Al Ahad","lat":14.25833,"lon":43.64167,"population":0},{"id":7931042,"name":"Al Aqţa‘","ascii":"Al Aqta'","lat":14.66217,"lon":45.35123,"population":0},{"id":79845,"name":"Al Bāţinah","ascii":"Al Batinah","lat":15.48333,"lon":48.43333,"population":0},{"id":77803,"name":"Al Bilād","ascii":"Al Bilad","lat":16.13806,"lon":49.29167,"population":0},{"id":79799,"name":"Al Burayqah","ascii":"Al Burayqah","lat":12.73944,"lon":44.88417,"population":0},{"id":407049,"name":"Al Ghayl","ascii":"Al Ghayl","lat":16.10774,"lon":44.68005,"population":0},{"id":30543,"name":"Al Ghaylah","ascii":"Al Ghaylah","lat":14.59583,"lon":45.58333,"population":0},{"id":75508,"name":"Al Ḩabīlayn","ascii":"Al Habilayn","lat":13.52002,"lon":44.85076,"population":0},{"id":401019,"name":"Al Ḩadīyah","ascii":"Al Hadiyah","lat":14.52638,"lon":43.57045,"population":0},{"id":77594,"name":"Al Ḩajab","ascii":"Al Hajab","lat":14.85192,"lon":45.52904,"population":0},{"id":79531,"name":"Al Ḩarf","ascii":"Al Harf","lat":16.36395,"lon":44.09421,"population":0},{"id":7341563,"name":"Al Ḩarjah","ascii":"Al Harjah","lat":15.48869,"lon":44.66573,"population":0},{"id":406635,"name":"Al Ḩashwah","ascii":"Al Hashwah","lat":16.90641,"lon":44.27622,"population":0},{"id":404914,"name":"Al Ḩayfah","ascii":"Al Hayfah","lat":15.73494,"lon":44.23788,"population":0},{"id":7931041,"name":"Al Ḩazm","ascii":"Al Hazm","lat":14.68919,"lon":45.60962,"population":0},{"id":7345723,"name":"Al Hijrah","ascii":"Al Hijrah","lat":17.29788,"lon":43.38718,"population":0},{"id":406884,"name":"Al Ḩumaydāt","ascii":"Al Humaydat","lat":16.4844,"lon":44.42934,"population":0},{"id":79384,"name":"Al Ḩusayn","ascii":"Al Husayn","lat":13.79199,"lon":44.76886,"population":0},{"id":8356686,"name":"Al Ḩuşūn","ascii":"Al Husun","lat":15.4739,"lon":45.36691,"population":0},{"id":401043,"name":"Al Jabīn","ascii":"Al Jabin","lat":14.70389,"lon":43.59917,"population":0},{"id":407094,"name":"Al Jamīmah","ascii":"Al Jamimah","lat":16.01787,"lon":43.59647,"population":0},{"id":79284,"name":"Al Jarrāḩī","ascii":"Al Jarrahi","lat":14.13254,"lon":43.38845,"population":0},{"id":72855,"name":"Al Jawl","ascii":"Al Jawl","lat":14.45625,"lon":48.28066,"population":0},{"id":401000,"name":"Al Jum‘ah","ascii":"Al Jum`ah","lat":14.73779,"lon":43.96489,"population":0},{"id":79219,"name":"Al Jurbah","ascii":"Al Jurbah","lat":13.7915,"lon":45.15894,"population":0},{"id":402470,"name":"Al Khamīs","ascii":"Al Khamis","lat":15.18533,"lon":43.51122,"population":0},{"id":7346660,"name":"Al Kharāb","ascii":"Al Kharab","lat":16.99129,"lon":43.33888,"population":0},{"id":79131,"name":"Al Khawkhah","ascii":"Al Khawkhah","lat":13.8071,"lon":43.2493,"population":0},{"id":406845,"name":"Al Khirāb","ascii":"Al Khirab","lat":16.5544,"lon":44.29048,"population":0},{"id":79050,"name":"Al Luḩayyah","ascii":"Al Luhayyah","lat":15.70309,"lon":42.69093,"population":0},{"id":73422,"name":"Al Ma‘allā’","ascii":"Al Ma`alla'","lat":12.78987,"lon":45.00244,"population":0},{"id":78713,"name":"Āl Ma‘ūdah","ascii":"Al Ma`udah","lat":14.21055,"lon":45.38732,"population":0},{"id":407014,"name":"Al Madān","ascii":"Al Madan","lat":16.22413,"lon":43.64383,"population":0},{"id":73365,"name":"Al Madīd","ascii":"Al Madid","lat":15.64453,"lon":44.47337,"population":0},{"id":73325,"name":"Al Māfūd","ascii":"Al Mafud","lat":15.34264,"lon":47.25217,"population":0},{"id":403270,"name":"Al Maghrabah","ascii":"Al Maghrabah","lat":15.87722,"lon":43.66667,"population":0},{"id":79006,"name":"Al Maḩābishah","ascii":"Al Mahabishah","lat":15.94758,"lon":43.43587,"population":0},{"id":78991,"name":"Al Maḩfid","ascii":"Al Mahfid","lat":14.05847,"lon":46.91329,"population":0},{"id":406737,"name":"Al Maḩjal","ascii":"Al Mahjal","lat":16.71169,"lon":44.84769,"population":0},{"id":78964,"name":"Al Makhādir","ascii":"Al Makhadir","lat":14.12224,"lon":44.19797,"population":0},{"id":73125,"name":"Al Malāḩīţ","ascii":"Al Malahit","lat":16.76848,"lon":43.27582,"population":0},{"id":78931,"name":"Al Manşūrah","ascii":"Al Mansurah","lat":12.86019,"lon":44.98166,"population":0},{"id":78929,"name":"Al Manşūrīyah","ascii":"Al Mansuriyah","lat":14.6856,"lon":43.29922,"population":0},{"id":78909,"name":"Al Marāwi‘ah","ascii":"Al Marawi`ah","lat":14.83069,"lon":43.15391,"population":0},{"id":30740,"name":"Al Masālīyah","ascii":"Al Masaliyah","lat":13.53201,"lon":43.99564,"population":0},{"id":7346082,"name":"Al Mashāf","ascii":"Al Mashaf","lat":16.85836,"lon":43.19781,"population":0},{"id":407048,"name":"Al Maşlūb","ascii":"Al Maslub","lat":16.18271,"lon":44.62613,"population":0},{"id":407042,"name":"Al Matūn","ascii":"Al Matun","lat":16.23063,"lon":44.58476,"population":0},{"id":408801,"name":"Al Mayfa’ah","ascii":"Al Mayfa'ah","lat":14.46392,"lon":44.54866,"population":0},{"id":413170,"name":"Al Miftāḩ","ascii":"Al Miftah","lat":15.97431,"lon":43.46381,"population":0},{"id":78823,"name":"Al Mighlāf","ascii":"Al Mighlaf","lat":15.28772,"lon":43.1891,"population":0},{"id":78814,"name":"Al Milāḩ","ascii":"Al Milah","lat":13.42611,"lon":44.82556,"population":0},{"id":34860,"name":"Al Mirwāḩ","ascii":"Al Mirwah","lat":15.47223,"lon":43.42939,"population":0},{"id":78776,"name":"Al Misrākh","ascii":"Al Misrakh","lat":13.46059,"lon":44.02043,"population":0},{"id":78742,"name":"Al Munīrah","ascii":"Al Munirah","lat":15.32251,"lon":42.93005,"population":0},{"id":406072,"name":"Al Nashmah","ascii":"Al Nashmah","lat":13.39028,"lon":43.96833,"population":0},{"id":78699,"name":"Al Qaflah","ascii":"Al Qaflah","lat":16.31897,"lon":43.76792,"population":0},{"id":78675,"name":"Al Qanāwiş","ascii":"Al Qanawis","lat":15.49285,"lon":43.1343,"population":0},{"id":79478,"name":"Al Qaţan","ascii":"Al Qatan","lat":15.84056,"lon":48.45556,"population":0},{"id":7364913,"name":"Al Qurayshīyah","ascii":"Al Qurayshiyah","lat":14.5122,"lon":44.85358,"population":0},{"id":78566,"name":"Al Qurḩ","ascii":"Al Qurh","lat":16.73333,"lon":51.48333,"population":0},{"id":7931038,"name":"Al Shirūj","ascii":"Al Shiruj","lat":14.68526,"lon":47.76926,"population":0},{"id":78471,"name":"Al Wuday‘","ascii":"Al Wuday`","lat":13.7721,"lon":46.01785,"population":0},{"id":78379,"name":"An Nādirah","ascii":"An Nadirah","lat":14.09628,"lon":44.47559,"population":0},{"id":7363900,"name":"An Najd","ascii":"An Najd","lat":14.42152,"lon":45.29596,"population":0},{"id":403272,"name":"An Nāşirah","ascii":"An Nasirah","lat":15.77277,"lon":43.80902,"population":0},{"id":34888,"name":"An Naz̧īr","ascii":"An Nazir","lat":16.90916,"lon":43.26226,"population":0},{"id":408846,"name":"Ar Raḑmah","ascii":"Ar Radmah","lat":14.21973,"lon":44.58657,"population":0},{"id":30762,"name":"Ar Ramādī","ascii":"Ar Ramadi","lat":13.95641,"lon":43.78457,"population":0},{"id":407129,"name":"Ar Rawḑ","ascii":"Ar Rawd","lat":16.06145,"lon":44.81012,"population":0},{"id":78137,"name":"Ar Rawḑah","ascii":"Ar Rawdah","lat":15.43251,"lon":44.22399,"population":0},{"id":78141,"name":"Ar Rawḑah","ascii":"Ar Rawdah","lat":14.46725,"lon":47.27638,"population":0},{"id":30748,"name":"Ar Rawnah","ascii":"Ar Rawnah","lat":13.75638,"lon":43.80286,"population":0},{"id":71549,"name":"Ar Raydah","ascii":"Ar Raydah","lat":15.035,"lon":50.47917,"population":0},{"id":408342,"name":"Ar Riḑā’ī","ascii":"Ar Rida'i","lat":14.01712,"lon":44.39409,"population":0},{"id":407690,"name":"Ar Rubū‘","ascii":"Ar Rubu`","lat":13.78024,"lon":43.86901,"population":0},{"id":402074,"name":"Ar Rujum","ascii":"Ar Rujum","lat":15.45776,"lon":43.63226,"population":0},{"id":77862,"name":"Aş Şa‘īd","ascii":"As Sa`id","lat":14.33011,"lon":46.87292,"population":0},{"id":77881,"name":"As Saddah","ascii":"As Saddah","lat":14.1221,"lon":44.42139,"population":0},{"id":77872,"name":"Aş Şafaqayn","ascii":"As Safaqayn","lat":15.37922,"lon":43.42046,"population":0},{"id":74499,"name":"As Salāsil","ascii":"As Salasil","lat":16.47959,"lon":48.83153,"population":0},{"id":77843,"name":"Aş Şalīf","ascii":"As Salif","lat":15.30755,"lon":42.67107,"population":0},{"id":8357701,"name":"Aş Şalw","ascii":"As Salw","lat":13.32887,"lon":44.21708,"population":0},{"id":403271,"name":"Aş Şarārah","ascii":"As Sararah","lat":15.79449,"lon":43.86997,"population":0},{"id":77809,"name":"As Sawādīyah","ascii":"As Sawadiyah","lat":14.30113,"lon":45.22148,"population":0},{"id":77800,"name":"Aş Şawma‘ah","ascii":"As Sawma`ah","lat":14.08505,"lon":45.80101,"population":0},{"id":77791,"name":"As Sayyānī","ascii":"As Sayyani","lat":13.84266,"lon":44.17395,"population":0},{"id":77772,"name":"As Sūdah","ascii":"As Sudah","lat":15.95861,"lon":43.78083,"population":0},{"id":401672,"name":"As Sukhnah","ascii":"As Sukhnah","lat":14.79408,"lon":43.4362,"population":0},{"id":76930,"name":"As Sūq al Jadīd","ascii":"As Suq al Jadid","lat":15.82496,"lon":44.06204,"population":0},{"id":70272,"name":"As Suwaydā","ascii":"As Suwayda","lat":13.78694,"lon":45.2304,"population":0},{"id":78019,"name":"Asdās","ascii":"Asdas","lat":15.76601,"lon":45.08151,"population":0},{"id":77985,"name":"Ash Shaghādirah","ascii":"Ash Shaghadirah","lat":15.62,"lon":43.52056,"population":0},{"id":77980,"name":"Ash Shāhil","ascii":"Ash Shahil","lat":15.86656,"lon":43.40495,"population":0},{"id":70759,"name":"Ash Sharyah","ascii":"Ash Sharyah","lat":14.35659,"lon":45.02244,"population":0},{"id":77946,"name":"Ash Shaţţ","ascii":"Ash Shatt","lat":12.89357,"lon":44.03571,"population":0},{"id":77940,"name":"Ash Shaykh ‘Uthmān","ascii":"Ash Shaykh `Uthman","lat":12.87678,"lon":44.99309,"population":0},{"id":30490,"name":"Ash Shiḩr","ascii":"Ash Shihr","lat":14.76026,"lon":49.60537,"population":0},{"id":30735,"name":"Ash Shuqayrah","ascii":"Ash Shuqayrah","lat":13.13452,"lon":43.78636,"population":0},{"id":410915,"name":"Aslam","ascii":"Aslam","lat":16.05961,"lon":43.32745,"population":0},{"id":8308730,"name":"Aţ Ţalḩ","ascii":"At Talh","lat":15.156,"lon":47.39903,"population":0},{"id":77662,"name":"At Tawāhī","ascii":"At Tawahi","lat":12.78471,"lon":44.9802,"population":0},{"id":69372,"name":"Aţ Ţawīlah","ascii":"At Tawilah","lat":15.49389,"lon":43.74778,"population":0},{"id":77655,"name":"At Tuḩaytā’","ascii":"At Tuhayta'","lat":14.18356,"lon":43.22637,"population":0},{"id":77646,"name":"At Turbah","ascii":"At Turbah","lat":13.2127,"lon":44.12415,"population":0},{"id":69482,"name":"Az Zāhir","ascii":"Az Zahir","lat":13.96667,"lon":45.48333,"population":0},{"id":77529,"name":"Az Zāhir","ascii":"Az Zahir","lat":16.31733,"lon":44.49505,"population":0},{"id":80383,"name":"Az̧ Z̧alī‘ah","ascii":"Az Zali`ah","lat":15.01667,"lon":48.01667,"population":0},{"id":77515,"name":"Az Zaydīyah","ascii":"Az Zaydiyah","lat":15.33049,"lon":43.00633,"population":0},{"id":77504,"name":"Az Zuhrah","ascii":"Az Zuhrah","lat":15.72377,"lon":42.99582,"population":0},{"id":7344569,"name":"Banī an Nahārī","ascii":"Bani an Nahari","lat":15.63981,"lon":43.55633,"population":0},{"id":77307,"name":"Banī Bakr","ascii":"Bani Bakr","lat":13.93333,"lon":45.26667,"population":0},{"id":77278,"name":"Banī Ḩujjāj","ascii":"Bani Hujjaj","lat":15.41683,"lon":43.3193,"population":0},{"id":8015577,"name":"Bāqim as Sūq","ascii":"Baqim as Suq","lat":17.39713,"lon":43.47743,"population":0},{"id":77017,"name":"Bayḩān","ascii":"Bayhan","lat":14.80067,"lon":45.71889,"population":0},{"id":76927,"name":"Bayt ‘Adhāqah","ascii":"Bayt `Adhaqah","lat":15.61576,"lon":43.70228,"population":0},{"id":404915,"name":"Bayt Marrān","ascii":"Bayt Marran","lat":15.69312,"lon":44.2053,"population":0},{"id":7928383,"name":"Bi’r Ḩāt","ascii":"Bi'r Hat","lat":17.32197,"lon":52.09566,"population":0},{"id":34724,"name":"Bidbadah","ascii":"Bidbadah","lat":15.425,"lon":44.7,"population":0},{"id":76699,"name":"Burūm","ascii":"Burum","lat":14.36361,"lon":48.97972,"population":0},{"id":73656,"name":"Crater","ascii":"Crater","lat":12.77522,"lon":45.03862,"population":0},{"id":30485,"name":"Daḩasuways","ascii":"Dahasuways","lat":15.72389,"lon":50.72944,"population":0},{"id":76482,"name":"Dār an Nāşir","ascii":"Dar an Nasir","lat":13.5571,"lon":44.01521,"population":0},{"id":30689,"name":"Ḑawrān","ascii":"Dawran","lat":13.77436,"lon":44.44196,"population":0},{"id":76362,"name":"Ḑawrān ad Daydah","ascii":"Dawran ad Daydah","lat":14.73927,"lon":44.20664,"population":0},{"id":76147,"name":"Dhaybīn","ascii":"Dhaybin","lat":15.97712,"lon":44.12917,"population":0},{"id":69686,"name":"Dhī Jalāl","ascii":"Dhi Jalal","lat":13.62378,"lon":44.70754,"population":0},{"id":76125,"name":"Dhī Nā‘im","ascii":"Dhi Na`im","lat":14.10574,"lon":45.44807,"population":0},{"id":76089,"name":"Dhubāb","ascii":"Dhubab","lat":12.94305,"lon":43.41025,"population":0},{"id":75539,"name":"Ḩabābah","ascii":"Hababah","lat":15.54418,"lon":43.87563,"population":0},{"id":75518,"name":"Ḩabbān","ascii":"Habban","lat":14.35411,"lon":47.07649,"population":0},{"id":75504,"name":"Ḩabīl al Jabr","ascii":"Habil al Jabr","lat":13.60422,"lon":44.98578,"population":0},{"id":8308699,"name":"Ḩabīl ar Raydah","ascii":"Habil ar Raydah","lat":13.6444,"lon":44.85097,"population":0},{"id":407096,"name":"Ḩabūr","ascii":"Habur","lat":16.05097,"lon":43.70699,"population":0},{"id":7928384,"name":"Ḩadādah","ascii":"Hadadah","lat":13.17535,"lon":44.27461,"population":0},{"id":79609,"name":"Ḩajar al Mashā’ikh","ascii":"Hajar al Masha'ikh","lat":16.13951,"lon":47.8323,"population":0},{"id":75239,"name":"Ḩammām ‘Alī","ascii":"Hammam `Ali","lat":14.66371,"lon":44.14763,"population":0},{"id":408866,"name":"Ḩammām Damt","ascii":"Hammam Damt","lat":14.09031,"lon":44.67006,"population":0},{"id":75163,"name":"Ḩaraḑ","ascii":"Harad","lat":16.40965,"lon":43.05883,"population":0},{"id":75133,"name":"Ḩarīb","ascii":"Harib","lat":14.93156,"lon":45.50356,"population":0},{"id":75034,"name":"Ḩaşwayn","ascii":"Haswayn","lat":15.59049,"lon":52.10077,"population":0},{"id":75000,"name":"Ḩawf","ascii":"Hawf","lat":16.63383,"lon":53.03368,"population":0},{"id":7367232,"name":"Ḩawrah","ascii":"Hawrah","lat":13.35751,"lon":44.1458,"population":0},{"id":411056,"name":"Ḩaydān","ascii":"Haydan","lat":16.77899,"lon":43.43372,"population":0},{"id":74938,"name":"Ḩayfān","ascii":"Hayfan","lat":13.31778,"lon":44.28011,"population":0},{"id":74906,"name":"Ḩays","ascii":"Hays","lat":13.9317,"lon":43.4831,"population":0},{"id":7360069,"name":"Ḩazm al ‘Udayn","ascii":"Hazm al `Udayn","lat":14.02743,"lon":44.00526,"population":0},{"id":407036,"name":"Ḩişn Banī Sa‘d","ascii":"Hisn Bani Sa`d","lat":16.27293,"lon":44.47728,"population":0},{"id":79393,"name":"Ḩurayḑah","ascii":"Huraydah","lat":15.59861,"lon":48.18278,"population":0},{"id":74490,"name":"Ḩūth","ascii":"Huth","lat":16.23114,"lon":43.96854,"population":0},{"id":74368,"name":"Ja‘ār","ascii":"Ja`ar","lat":13.223,"lon":45.30559,"population":0},{"id":7931039,"name":"Jawl al Majma‘","ascii":"Jawl al Majma'","lat":14.93278,"lon":47.02763,"population":0},{"id":8357700,"name":"Jayshān","ascii":"Jayshan","lat":14.25204,"lon":46.17905,"population":0},{"id":74185,"name":"Jiblah","ascii":"Jiblah","lat":13.92162,"lon":44.14668,"population":0},{"id":74167,"name":"Jiḩānah","ascii":"Jihanah","lat":15.22628,"lon":44.48244,"population":0},{"id":74116,"name":"Juban","ascii":"Juban","lat":14.01164,"lon":44.8746,"population":0},{"id":30616,"name":"Judaydah","ascii":"Judaydah","lat":15.07512,"lon":45.29962,"population":0},{"id":73861,"name":"Khamir","ascii":"Khamir","lat":15.98792,"lon":43.95362,"population":0},{"id":73786,"name":"Khawr Maksar","ascii":"Khawr Maksar","lat":12.81227,"lon":45.03337,"population":0},{"id":73788,"name":"Khawrah","ascii":"Khawrah","lat":14.43201,"lon":46.15435,"population":0},{"id":8356282,"name":"Khayrān","ascii":"Khayran","lat":16.02191,"lon":43.37859,"population":0},{"id":79088,"name":"Kirsh","ascii":"Kirsh","lat":13.36473,"lon":44.49046,"population":0},{"id":73668,"name":"Kitāf","ascii":"Kitaf","lat":17.03165,"lon":44.10905,"population":0},{"id":73650,"name":"Ku‘aydinah","ascii":"Ku`aydinah","lat":15.82104,"lon":43.3372,"population":0},{"id":73638,"name":"Kuḩlān ‘Affār","ascii":"Kuhlan `Affar","lat":15.73309,"lon":43.71902,"population":0},{"id":410914,"name":"Kushar","ascii":"Kushar","lat":16.15523,"lon":43.42102,"population":0},{"id":401023,"name":"Kusmah","ascii":"Kusmah","lat":14.58175,"lon":43.63676,"population":0},{"id":73504,"name":"Lawdar","ascii":"Lawdar","lat":13.88282,"lon":45.86859,"population":0},{"id":73409,"name":"Ma‘bar","ascii":"Ma`bar","lat":14.79395,"lon":44.29354,"population":0},{"id":403316,"name":"Mabyan","ascii":"Mabyan","lat":15.73773,"lon":43.55701,"population":0},{"id":7341410,"name":"Madghil","ascii":"Madghil","lat":15.59858,"lon":45.04013,"population":0},{"id":75357,"name":"Madīnat Lab‘ūs","ascii":"Madinat Lab`us","lat":13.86667,"lon":45.25,"population":0},{"id":73331,"name":"Mafḩaq","ascii":"Mafhaq","lat":15.10162,"lon":43.90304,"population":0},{"id":8534038,"name":"Majz","ascii":"Majz","lat":17.06939,"lon":43.57507,"population":0},{"id":34717,"name":"Majzar","ascii":"Majzar","lat":15.85,"lon":44.775,"population":0},{"id":73091,"name":"Manākhah","ascii":"Manakhah","lat":15.07422,"lon":43.74156,"population":0},{"id":407716,"name":"Maqbanah","ascii":"Maqbanah","lat":13.66394,"lon":43.6873,"population":0},{"id":78112,"name":"Marbāţ","ascii":"Marbat","lat":14.20567,"lon":46.38811,"population":0},{"id":78905,"name":"Markaz al Marīr","ascii":"Markaz al Marir","lat":13.98178,"lon":43.59547,"population":0},{"id":400734,"name":"Markaz Bilād aţ Ţa‘ām","ascii":"Markaz Bilad at Ta`am","lat":14.83361,"lon":43.53639,"population":0},{"id":72561,"name":"Markaz Mudhaykirah","ascii":"Markaz Mudhaykirah","lat":13.88953,"lon":43.9688,"population":0},{"id":408970,"name":"Maswarah","ascii":"Maswarah","lat":14.34399,"lon":45.72623,"population":0},{"id":8308191,"name":"Maţarah","ascii":"Matarah","lat":15.52591,"lon":47.63339,"population":0},{"id":403754,"name":"Matnah","ascii":"Matnah","lat":15.25333,"lon":44.02472,"population":0},{"id":34821,"name":"Matwaḩ","ascii":"Matwah","lat":15.0676,"lon":43.64213,"population":0},{"id":72781,"name":"Māwiyah","ascii":"Mawiyah","lat":13.58295,"lon":44.34768,"population":0},{"id":72760,"name":"Mawza‘","ascii":"Mawza`","lat":13.26831,"lon":43.50993,"population":0},{"id":72746,"name":"Mayfa‘ah","ascii":"Mayfa`ah","lat":14.27533,"lon":47.58414,"population":0},{"id":72752,"name":"Mīdī","ascii":"Midi","lat":16.32101,"lon":42.81299,"population":0},{"id":73100,"name":"Milāḩ","ascii":"Milah","lat":14.41617,"lon":44.78622,"population":0},{"id":72647,"name":"Minwakh","ascii":"Minwakh","lat":16.80035,"lon":48.10854,"population":0},{"id":72557,"name":"Mūdīyah","ascii":"Mudiyah","lat":13.9284,"lon":46.08254,"population":0},{"id":72519,"name":"Mukayrās","ascii":"Mukayras","lat":13.94427,"lon":45.67074,"population":0},{"id":34886,"name":"Mustabā’","ascii":"Mustaba'","lat":16.22816,"lon":43.24895,"population":0},{"id":30696,"name":"Najd al Jamā‘ī","ascii":"Najd al Jama`i","lat":13.91577,"lon":44.32446,"population":0},{"id":72181,"name":"Nişāb","ascii":"Nisab","lat":14.50743,"lon":46.49349,"population":0},{"id":71904,"name":"Qa‘ţabah","ascii":"Qa`tabah","lat":13.85493,"lon":44.7058,"population":0},{"id":7356864,"name":"Qaryat ad Da‘īs","ascii":"Qaryat ad Da`is","lat":13.9877,"lon":44.2749,"population":0},{"id":78708,"name":"Qaryat al Qābil","ascii":"Qaryat al Qabil","lat":15.45033,"lon":44.12768,"population":0},{"id":71834,"name":"Qishn","ascii":"Qishn","lat":15.42409,"lon":51.67836,"population":0},{"id":71491,"name":"Radā‘","ascii":"Rada`","lat":14.4151,"lon":44.83709,"population":0},{"id":7364022,"name":"Raḩabah","ascii":"Rahabah","lat":14.8953,"lon":44.98893,"population":0},{"id":406761,"name":"Rajūzah","ascii":"Rajuzah","lat":16.70056,"lon":44.41454,"population":0},{"id":8357714,"name":"Raşad","ascii":"Rasad","lat":13.71215,"lon":45.30318,"population":0},{"id":71558,"name":"Raydah","ascii":"Raydah","lat":15.81421,"lon":44.04085,"population":0},{"id":71481,"name":"Riḩāb","ascii":"Rihab","lat":14.22762,"lon":44.18814,"population":0},{"id":401653,"name":"Riqāb","ascii":"Riqab","lat":14.88597,"lon":43.46491,"population":0},{"id":71687,"name":"Ruḑūm","ascii":"Rudum","lat":14.0851,"lon":47.74314,"population":0},{"id":7930439,"name":"Rumāh","ascii":"Rumah","lat":17.45532,"lon":50.57789,"population":0},{"id":71282,"name":"Sāh","ascii":"Sah","lat":15.57722,"lon":48.85056,"population":0},{"id":8357764,"name":"Saḩḩab","ascii":"Sahhab","lat":15.60223,"lon":44.0242,"population":0},{"id":71136,"name":"Şanā’","ascii":"Sana'","lat":15.4,"lon":47.76667,"population":0},{"id":71005,"name":"Sayḩūt","ascii":"Sayhut","lat":15.21056,"lon":51.24556,"population":0},{"id":70910,"name":"Shahārat al Ghīs","ascii":"Shaharat al Ghis","lat":16.18411,"lon":43.70228,"population":0},{"id":70808,"name":"Sharas","ascii":"Sharas","lat":15.71233,"lon":43.64925,"population":0},{"id":70677,"name":"Shibām","ascii":"Shibam","lat":15.50943,"lon":43.90445,"population":0},{"id":70656,"name":"Shiḩan as Suflá","ascii":"Shihan as Sufla","lat":17.76999,"lon":52.48925,"population":0},{"id":70551,"name":"Şīf","ascii":"Sif","lat":15.31389,"lon":48.33,"population":0},{"id":8308731,"name":"Sirār","ascii":"Sirar","lat":13.63778,"lon":45.31371,"population":0},{"id":7345827,"name":"Sūq al Khamīs","ascii":"Suq al Khamis","lat":17.18126,"lon":43.28811,"population":0},{"id":30729,"name":"Sūq ar Rubū‘","ascii":"Suq ar Rubu`","lat":14.51155,"lon":44.01511,"population":0},{"id":34862,"name":"Sūq Shamar","ascii":"Suq Shamar","lat":15.885,"lon":43.36806,"population":0},{"id":7931040,"name":"Sūq Sibāḩ","ascii":"Suq Sibah","lat":13.81436,"lon":45.39229,"population":0},{"id":34703,"name":"Sūq Şirwāḩ","ascii":"Suq Sirwah","lat":15.44933,"lon":45.01891,"population":0},{"id":34827,"name":"Şuwayr","ascii":"Suwayr","lat":16.1818,"lon":43.60986,"population":0},{"id":70160,"name":"Tarim","ascii":"Tarim","lat":16.05694,"lon":48.99889,"population":0},{"id":409051,"name":"Ţawr al Bāḩah","ascii":"Tawr al Bahah","lat":13.18179,"lon":44.29966,"population":0},{"id":70080,"name":"Thamūd","ascii":"Thamud","lat":17.29245,"lon":49.91947,"population":0},{"id":69684,"name":"Wa‘lān","ascii":"Wa`lan","lat":15.07021,"lon":44.27641,"population":0},{"id":34846,"name":"Waḑarah","ascii":"Wadarah","lat":15.71073,"lon":43.48321,"population":0},{"id":69640,"name":"Washḩah","ascii":"Washhah","lat":16.30774,"lon":43.41066,"population":0},{"id":69537,"name":"Yufrus","ascii":"Yufrus","lat":13.45529,"lon":43.94704,"population":0},{"id":408124,"name":"Z̧abah","ascii":"Zabah","lat":14.49052,"lon":44.13108,"population":0},{"id":408883,"name":"Zakhim","ascii":"Zakhim","lat":14.29496,"lon":44.68504,"population":0},{"id":30714,"name":"Z̧almah al ‘Ulyā","ascii":"Zalmah al `Ulya","lat":14.1023,"lon":44.09404,"population":0},{"id":69457,"name":"Zarājah","ascii":"Zarajah","lat":14.86692,"lon":44.37868,"population":0}]