[{"id":993800,"name":"Johannesburg","nameKo":"요하네스버그","ascii":"Johannesburg","lat":-26.20227,"lon":28.04363,"population":9418183},{"id":3369157,"name":"Cape Town","nameKo":"케이프타운","ascii":"Cape Town","lat":-33.92584,"lon":18.42322,"population":4772846},{"id":1007311,"name":"Durban","nameKo":"더반","ascii":"Durban","lat":-29.8579,"lon":31.0292,"population":3338026},{"id":964137,"name":"Pretoria","nameKo":"프리토리아","ascii":"Pretoria","lat":-25.74486,"lon":28.18783,"population":2112693},{"id":953781,"name":"Soweto","nameKo":"소웨토","ascii":"Soweto","lat":-26.26781,"lon":27.85849,"population":1695047},{"id":964420,"name":"Gqeberha","nameKo":"포트엘리자베스","ascii":"Gqeberha","lat":-33.96109,"lon":25.61494,"population":1050078},{"id":954013,"name":"Soshanguve","ascii":"Soshanguve","lat":-25.47288,"lon":28.09919,"population":872309},{"id":965301,"name":"Pietermaritzburg","nameKo":"피터마리츠버그","ascii":"Pietermaritzburg","lat":-29.61679,"lon":30.39278,"population":839327},{"id":1004866,"name":"Evaton","ascii":"Evaton","lat":-26.53333,"lon":27.85,"population":725468},{"id":1020098,"name":"Benoni","ascii":"Benoni","lat":-26.18848,"lon":28.32078,"population":605344},{"id":1018725,"name":"Bloemfontein","nameKo":"블룸폰테인","ascii":"Bloemfontein","lat":-29.12107,"lon":26.214,"population":556637},{"id":949880,"name":"Thembisa","ascii":"Thembisa","lat":-25.99636,"lon":28.2268,"population":511655},{"id":1006984,"name":"East London","nameKo":"이스트런던","ascii":"East London","lat":-33.01529,"lon":27.91162,"population":478676},{"id":944385,"name":"Vereeniging","nameKo":"페레이니힝","ascii":"Vereeniging","lat":-26.67313,"lon":27.92615,"population":474681},{"id":1017780,"name":"Boksburg","ascii":"Boksburg","lat":-26.21197,"lon":28.25958,"population":445168},{"id":940909,"name":"Welkom","ascii":"Welkom","lat":-27.97742,"lon":26.73506,"population":431944},{"id":971421,"name":"Newcastle","ascii":"Newcastle","lat":-27.75796,"lon":29.9318,"population":404838},{"id":986822,"name":"Krugersdorp","ascii":"Krugersdorp","lat":-26.08577,"lon":27.77515,"population":378821},{"id":958724,"name":"Rustenburg","nameKo":"루스텐버그","ascii":"Rustenburg","lat":-25.66756,"lon":27.24208,"population":373695},{"id":939270,"name":"Emalahleni","ascii":"Emalahleni","lat":-25.87133,"lon":29.23323,"population":373403},{"id":8764562,"name":"Diepsloot","ascii":"Diepsloot","lat":-25.93312,"lon":28.01213,"population":350000},{"id":963241,"name":"Randburg","nameKo":"랜드버그","ascii":"Randburg","lat":-26.0941,"lon":28.00123,"population":337053},{"id":936374,"name":"Roodepoort","nameKo":"로데포르트","ascii":"Roodepoort","lat":-26.1625,"lon":27.8725,"population":326416},{"id":1016670,"name":"Botshabelo","ascii":"Botshabelo","lat":-29.26737,"lon":26.72595,"population":309714},{"id":1016181,"name":"Brakpan","ascii":"Brakpan","lat":-26.23656,"lon":28.36938,"population":305692},{"id":946877,"name":"Kariega","ascii":"Kariega","lat":-33.75562,"lon":25.40074,"population":291052},{"id":965289,"name":"Polokwane","nameKo":"폴로콰네","ascii":"Polokwane","lat":-23.90449,"lon":29.46885,"population":272461},{"id":1002108,"name":"Germiston","ascii":"Germiston","lat":-26.23481,"lon":28.17665,"population":255863},{"id":962367,"name":"Richards Bay","ascii":"Richards Bay","lat":-28.78301,"lon":32.03768,"population":252968},{"id":944986,"name":"Vanderbijlpark","ascii":"Vanderbijlpark","lat":-26.71171,"lon":27.83795,"population":246754},{"id":3370356,"name":"Athlone","ascii":"Athlone","lat":-33.96722,"lon":18.50214,"population":237414},{"id":3363094,"name":"Paarl","ascii":"Paarl","lat":-33.73378,"lon":18.97523,"population":236910},{"id":1105777,"name":"Centurion","ascii":"Centurion","lat":-25.85891,"lon":28.18577,"population":236580},{"id":989921,"name":"Klerksdorp","ascii":"Klerksdorp","lat":-26.85213,"lon":26.66672,"population":227039},{"id":6951112,"name":"Somerset West","ascii":"Somerset West","lat":-34.08401,"lon":18.82113,"population":225289},{"id":977432,"name":"Mdantsane","ascii":"Mdantsane","lat":-32.93324,"lon":27.77656,"population":205504},{"id":976361,"name":"Middelburg","ascii":"Middelburg","lat":-25.77507,"lon":29.46482,"population":196263},{"id":1002145,"name":"George","nameKo":"조지","ascii":"George","lat":-33.963,"lon":22.46173,"population":188580},{"id":952865,"name":"Springs","ascii":"Springs","lat":-26.25,"lon":28.4,"population":186394},{"id":11204237,"name":"Ivory Park","ascii":"Ivory Park","lat":-25.9957,"lon":28.1971,"population":184383},{"id":1014073,"name":"Carletonville","ascii":"Carletonville","lat":-26.36094,"lon":27.39767,"population":182304},{"id":1023374,"name":"Alexandra","ascii":"Alexandra","lat":-26.10528,"lon":28.09884,"population":179624},{"id":964349,"name":"Potchefstroom","nameKo":"포체프스트롬","ascii":"Potchefstroom","lat":-26.71667,"lon":27.1,"population":178285},{"id":946058,"name":"Mthatha","ascii":"Mthatha","lat":-31.58893,"lon":28.78443,"population":164848},{"id":952734,"name":"KwaDukuza","ascii":"KwaDukuza","lat":-29.32816,"lon":31.28954,"population":161177},{"id":940316,"name":"Westonaria","ascii":"Westonaria","lat":-26.31905,"lon":27.6486,"population":156831},{"id":11204106,"name":"Etwatwa","ascii":"Etwatwa","lat":-26.12516,"lon":28.45472,"population":151866},{"id":942470,"name":"Vryheid","ascii":"Vryheid","lat":-27.76952,"lon":30.79165,"population":150012},{"id":965154,"name":"Pinetown","ascii":"Pinetown","lat":-29.82068,"lon":30.88674,"population":144026},{"id":984998,"name":"Ladysmith","ascii":"Ladysmith","lat":-28.55874,"lon":29.77896,"population":143446},{"id":1005646,"name":"eMbalenhle","ascii":"eMbalenhle","lat":-26.53333,"lon":29.06667,"population":142443},{"id":990930,"name":"Kimberley","nameKo":"킴벌리","ascii":"Kimberley","lat":-28.73226,"lon":24.76232,"population":142089},{"id":970566,"name":"Nigel","ascii":"Nigel","lat":-26.43138,"lon":28.47713,"population":140644},{"id":973111,"name":"Mpumalanga","ascii":"Mpumalanga","lat":-29.81292,"lon":30.63646,"population":140121},{"id":1019330,"name":"Bhisho","nameKo":"비쇼","ascii":"Bhisho","lat":-32.84721,"lon":27.44218,"population":137287},{"id":957487,"name":"Sasolburg","ascii":"Sasolburg","lat":-26.81358,"lon":27.81695,"population":135828},{"id":963230,"name":"Randfontein","ascii":"Randfontein","lat":-26.1844,"lon":27.70203,"population":133654},{"id":3359041,"name":"Worcester","ascii":"Worcester","lat":-33.64651,"lon":19.44852,"population":127597},{"id":11205667,"name":"Ntuzuma","ascii":"Ntuzuma","lat":-29.739,"lon":30.949,"population":125394},{"id":943882,"name":"Virginia","ascii":"Virginia","lat":-28.10391,"lon":26.86593,"population":122502},{"id":1015621,"name":"Brits","ascii":"Brits","lat":-25.63473,"lon":27.78022,"population":122497},{"id":1023441,"name":"Alberton","ascii":"Alberton","lat":-26.26786,"lon":28.12225,"population":121536},{"id":963516,"name":"Queenstown","ascii":"Queenstown","lat":-31.89756,"lon":26.87533,"population":118599},{"id":986846,"name":"Kroonstad","ascii":"Kroonstad","lat":-27.65036,"lon":27.23488,"population":117152},{"id":1105728,"name":"Somaroboro","ascii":"Somaroboro","lat":-25.34604,"lon":28.83431,"population":114369},{"id":998082,"name":"Hammanskraal","ascii":"Hammanskraal","lat":-25.40892,"lon":28.287,"population":112950},{"id":980921,"name":"Mabopane","ascii":"Mabopane","lat":-25.509,"lon":28.064,"population":110972},{"id":971534,"name":"Mbombela","nameKo":"넬스프루이트","ascii":"Mbombela","lat":-25.47512,"lon":30.96935,"population":110159},{"id":967476,"name":"Orkney","ascii":"Orkney","lat":-26.98023,"lon":26.67272,"population":110052},{"id":965528,"name":"Phalaborwa","ascii":"Phalaborwa","lat":-23.94299,"lon":31.14107,"population":109468},{"id":949224,"name":"Thohoyandou","ascii":"Thohoyandou","lat":-22.94564,"lon":30.48497,"population":107144},{"id":948542,"name":"Tokoza","ascii":"Tokoza","lat":-26.36,"lon":28.129,"population":106000},{"id":952747,"name":"Standerton","ascii":"Standerton","lat":-26.93366,"lon":29.24152,"population":101101},{"id":964315,"name":"Mokopane","ascii":"Mokopane","lat":-24.19436,"lon":29.00974,"population":101090},{"id":1005125,"name":"Ermelo","ascii":"Ermelo","lat":-26.53333,"lon":29.98333,"population":100324},{"id":3361025,"name":"Stellenbosch","nameKo":"스텔렌보스","ascii":"Stellenbosch","lat":-33.93462,"lon":18.86676,"population":96228},{"id":986083,"name":"Kutloanong","ascii":"Kutloanong","lat":-27.83333,"lon":26.75,"population":95008},{"id":952192,"name":"Stilfontein","ascii":"Stilfontein","lat":-26.84493,"lon":26.76829,"population":93110},{"id":990849,"name":"Qonce","ascii":"Qonce","lat":-32.88076,"lon":27.39377,"population":93072},{"id":1011031,"name":"Delmas","ascii":"Delmas","lat":-26.1466,"lon":28.68322,"population":92046},{"id":1000501,"name":"Grahamstown","nameKo":"그레이엄스타운","ascii":"Grahamstown","lat":-33.30422,"lon":26.53276,"population":91548},{"id":1019704,"name":"Bethlehem","ascii":"Bethlehem","lat":-28.23078,"lon":28.30707,"population":91075},{"id":1002851,"name":"Ga-Rankuwa","ascii":"Ga-Rankuwa","lat":-25.61692,"lon":27.99471,"population":90945},{"id":941966,"name":"Bela Bela","ascii":"Bela Bela","lat":-24.88333,"lon":28.28333,"population":90210},{"id":1105776,"name":"Midrand","ascii":"Midrand","lat":-25.976,"lon":28.118,"population":87387},{"id":981827,"name":"Louis Trichardt","ascii":"Louis Trichardt","lat":-23.04385,"lon":29.90319,"population":86854},{"id":997151,"name":"Heidelberg","ascii":"Heidelberg","lat":-26.50476,"lon":28.35921,"population":85858},{"id":1007400,"name":"Dundee","ascii":"Dundee","lat":-28.16678,"lon":30.23371,"population":84413},{"id":965241,"name":"Piet Retief","ascii":"Piet Retief","lat":-27.00706,"lon":30.81323,"population":84349},{"id":965401,"name":"Phuthaditjhaba","ascii":"Phuthaditjhaba","lat":-28.52423,"lon":28.81582,"population":84258},{"id":3370352,"name":"Atlantis","ascii":"Atlantis","lat":-33.56668,"lon":18.48335,"population":82736},{"id":973709,"name":"Mossel Bay","ascii":"Mossel Bay","lat":-34.18307,"lon":22.14605,"population":78940},{"id":980595,"name":"Mafikeng","ascii":"Mafikeng","lat":-25.86522,"lon":25.64421,"population":77110},{"id":975436,"name":"Mmabatho","ascii":"Mmabatho","lat":-25.85,"lon":25.63333,"population":76754},{"id":968477,"name":"Odendaalsrus","ascii":"Odendaalsrus","lat":-27.87394,"lon":26.69072,"population":76371},{"id":967106,"name":"Oudtshoorn","ascii":"Oudtshoorn","lat":-33.60047,"lon":22.19955,"population":73694},{"id":1019760,"name":"Bethal","ascii":"Bethal","lat":-26.45794,"lon":29.46553,"population":72821},{"id":949703,"name":"Thaba Nchu","ascii":"Thaba Nchu","lat":-29.20932,"lon":26.83898,"population":72721},{"id":1016698,"name":"Bothaville","ascii":"Bothaville","lat":-27.3887,"lon":26.61701,"population":71934},{"id":945945,"name":"Upington","nameKo":"어핑턴","ascii":"Upington","lat":-28.44776,"lon":21.25612,"population":71373},{"id":966166,"name":"Parys","ascii":"Parys","lat":-26.9033,"lon":27.45727,"population":71319},{"id":956907,"name":"Schweizer-Reneke","ascii":"Schweizer-Reneke","lat":-27.18871,"lon":25.32931,"population":70214},{"id":988698,"name":"Knysna","ascii":"Knysna","lat":-34.03627,"lon":23.04713,"population":68659},{"id":3361934,"name":"Saldanha","ascii":"Saldanha","lat":-33.01167,"lon":17.9442,"population":68284},{"id":1021086,"name":"Barberton","ascii":"Barberton","lat":-25.78842,"lon":31.05319,"population":67927},{"id":982899,"name":"Lichtenburg","ascii":"Lichtenburg","lat":-26.152,"lon":26.15968,"population":65863},{"id":948468,"name":"Tongaat","ascii":"Tongaat","lat":-29.57366,"lon":31.11552,"population":64829},{"id":1000543,"name":"Graaff Reinet","ascii":"Graaff Reinet","lat":-32.25215,"lon":24.53075,"population":62896},{"id":1004109,"name":"Fochville","ascii":"Fochville","lat":-26.48862,"lon":27.49387,"population":62416},{"id":988356,"name":"Kokstad","ascii":"Kokstad","lat":-30.54723,"lon":29.42412,"population":61751},{"id":1003953,"name":"Fort Beaufort","ascii":"Fort Beaufort","lat":-32.77477,"lon":26.63376,"population":58419},{"id":1105726,"name":"Ekangala","ascii":"Ekangala","lat":-25.668,"lon":28.73,"population":58099},{"id":3365083,"name":"Kraaifontein","ascii":"Kraaifontein","lat":-33.84808,"lon":18.71723,"population":57911},{"id":3366880,"name":"Hermanus","ascii":"Hermanus","lat":-34.4187,"lon":19.23446,"population":56139},{"id":942511,"name":"Vryburg","ascii":"Vryburg","lat":-26.95659,"lon":24.7284,"population":55879},{"id":3359510,"name":"Wellington","ascii":"Wellington","lat":-33.63981,"lon":19.0112,"population":55543},{"id":943960,"name":"Viljoenskroon","ascii":"Viljoenskroon","lat":-27.20841,"lon":26.94855,"population":54955},{"id":3368254,"name":"Durbanville","ascii":"Durbanville","lat":-33.83079,"lon":18.6486,"population":54286},{"id":985885,"name":"Kwaggafontein","ascii":"Kwaggafontein","lat":-25.32729,"lon":28.94224,"population":54040},{"id":974670,"name":"Mondlo","ascii":"Mondlo","lat":-27.98299,"lon":30.71769,"population":53892},{"id":1014489,"name":"Butterworth","ascii":"Butterworth","lat":-32.33083,"lon":28.14981,"population":53086},{"id":964406,"name":"Port Shepstone","ascii":"Port Shepstone","lat":-30.74137,"lon":30.45499,"population":52793},{"id":948130,"name":"Trichardt","ascii":"Trichardt","lat":-26.49155,"lon":29.22878,"population":52776},{"id":970341,"name":"Nkowakowa","ascii":"Nkowakowa","lat":-23.88782,"lon":30.28708,"population":51350},{"id":8030223,"name":"Musina","ascii":"Musina","lat":-22.34881,"lon":30.04074,"population":51132},{"id":968665,"name":"Modimolle","ascii":"Modimolle","lat":-24.7,"lon":28.4,"population":50306},{"id":12718846,"name":"Letlhabile","ascii":"Letlhabile","lat":-25.48238,"lon":27.83925,"population":49718},{"id":981158,"name":"Lydenburg","ascii":"Lydenburg","lat":-25.09598,"lon":30.44393,"population":49605},{"id":11204446,"name":"Mankweng","ascii":"Mankweng","lat":-23.88384,"lon":29.70557,"population":49480},{"id":1004303,"name":"Ficksburg","ascii":"Ficksburg","lat":-28.872,"lon":27.87506,"population":49420},{"id":938457,"name":"Wolmaransstad","ascii":"Wolmaransstad","lat":-27.1974,"lon":25.98311,"population":49366},{"id":1006834,"name":"Edenvale","ascii":"Edenvale","lat":-26.14095,"lon":28.15247,"population":49292},{"id":1005029,"name":"eSikhaleni","ascii":"eSikhaleni","lat":-28.87097,"lon":31.89961,"population":49265},{"id":977975,"name":"Matsulu","ascii":"Matsulu","lat":-25.52297,"lon":31.35693,"population":47306},{"id":1021396,"name":"Balfour","ascii":"Balfour","lat":-26.66331,"lon":28.59016,"population":46008},{"id":3359741,"name":"Vredenburg","ascii":"Vredenburg","lat":-32.90719,"lon":17.98997,"population":45986},{"id":1020641,"name":"Beaufort West","ascii":"Beaufort West","lat":-32.35671,"lon":22.58295,"population":44737},{"id":1023309,"name":"Aliwal North","ascii":"Aliwal North","lat":-30.69366,"lon":26.71141,"population":44436},{"id":955313,"name":"Siyabuswa","ascii":"Siyabuswa","lat":-25.11319,"lon":29.04454,"population":44189},{"id":1012600,"name":"Cradock","ascii":"Cradock","lat":-32.16422,"lon":25.61918,"population":43936},{"id":943032,"name":"Volksrust","ascii":"Volksrust","lat":-27.36541,"lon":29.88175,"population":43378},{"id":3364346,"name":"Malmesbury","ascii":"Malmesbury","lat":-33.4608,"lon":18.72714,"population":43009},{"id":11204552,"name":"Mkhuhlu","ascii":"Mkhuhlu","lat":-24.98776,"lon":31.2385,"population":42969},{"id":940424,"name":"Wesselsbron","ascii":"Wesselsbron","lat":-27.8549,"lon":26.36583,"population":42552},{"id":12718813,"name":"Lebowakgomo","ascii":"Lebowakgomo","lat":-24.31457,"lon":29.50078,"population":42040},{"id":3369129,"name":"Ceres","ascii":"Ceres","lat":-33.36889,"lon":19.31095,"population":41596},{"id":1015504,"name":"Bronkhorstspruit","ascii":"Bronkhorstspruit","lat":-25.81015,"lon":28.74248,"population":41209},{"id":956507,"name":"Senekal","ascii":"Senekal","lat":-28.31971,"lon":27.62082,"population":39584},{"id":983065,"name":"Leslie","ascii":"Leslie","lat":-26.36737,"lon":28.9189,"population":39514},{"id":11205133,"name":"Phola","ascii":"Phola","lat":-26.002,"lon":29.034,"population":38202},{"id":964712,"name":"Plettenberg Bay","ascii":"Plettenberg Bay","lat":-34.05274,"lon":23.3716,"population":38126},{"id":8063456,"name":"Mandeni","ascii":"Mandeni","lat":-29.14691,"lon":31.41403,"population":37533},{"id":3367513,"name":"Grabouw","ascii":"Grabouw","lat":-34.15152,"lon":19.01509,"population":37490},{"id":11204240,"name":"Lukwatini","ascii":"Lukwatini","lat":-26.05501,"lon":30.82292,"population":37362},{"id":1001860,"name":"Giyani","ascii":"Giyani","lat":-23.30246,"lon":30.71868,"population":37024},{"id":3363882,"name":"Muizenberg","ascii":"Muizenberg","lat":-34.09702,"lon":18.47969,"population":36857},{"id":11288103,"name":"Folweni","ascii":"Folweni","lat":-29.99569,"lon":30.80724,"population":36425},{"id":1014306,"name":"Calcutta","ascii":"Calcutta","lat":-24.98317,"lon":31.23485,"population":35864},{"id":951650,"name":"Stutterheim","ascii":"Stutterheim","lat":-32.57076,"lon":27.42396,"population":35510},{"id":1007140,"name":"Dwarsloop","ascii":"Dwarsloop","lat":-24.79456,"lon":31.10277,"population":35397},{"id":995094,"name":"Humansdorp","ascii":"Humansdorp","lat":-34.02903,"lon":24.76912,"population":34733},{"id":949282,"name":"Theunissen","ascii":"Theunissen","lat":-28.41098,"lon":26.70107,"population":34718},{"id":949683,"name":"Thabazimbi","ascii":"Thabazimbi","lat":-24.59165,"lon":27.41155,"population":34561},{"id":978895,"name":"Margate","ascii":"Margate","lat":-30.8636,"lon":30.37052,"population":34407},{"id":1012413,"name":"Cullinan","ascii":"Cullinan","lat":-25.67088,"lon":28.52364,"population":34087},{"id":940509,"name":"Wembesi","ascii":"Wembesi","lat":-29.04912,"lon":29.78232,"population":33849},{"id":940186,"name":"Whittlesea","ascii":"Whittlesea","lat":-32.17588,"lon":26.82437,"population":33844},{"id":1023713,"name":"Acornhoek","ascii":"Acornhoek","lat":-24.5878,"lon":31.09467,"population":33529},{"id":1018673,"name":"Bloemhof","ascii":"Bloemhof","lat":-27.64685,"lon":25.60697,"population":33432},{"id":997751,"name":"Harrismith","ascii":"Harrismith","lat":-28.27276,"lon":29.12946,"population":33390},{"id":3362349,"name":"Robertson","ascii":"Robertson","lat":-33.80342,"lon":19.88537,"population":33204},{"id":972803,"name":"Mtubatuba","ascii":"Mtubatuba","lat":-28.41789,"lon":32.18483,"population":33182},{"id":1005544,"name":"Empangeni","ascii":"Empangeni","lat":-28.76197,"lon":31.89329,"population":33075},{"id":997140,"name":"Heilbron","ascii":"Heilbron","lat":-27.28115,"lon":27.9709,"population":32836},{"id":993910,"name":"Jeffreys Bay","ascii":"Jeffreys Bay","lat":-34.04526,"lon":24.92146,"population":32477},{"id":995202,"name":"Howick","ascii":"Howick","lat":-29.47795,"lon":30.23057,"population":32453},{"id":962330,"name":"Richmond","ascii":"Richmond","lat":-29.87196,"lon":30.27235,"population":32445},{"id":1011632,"name":"De Aar","ascii":"De Aar","lat":-30.64966,"lon":24.0123,"population":32318},{"id":946257,"name":"Ulundi","nameKo":"울룬디","ascii":"Ulundi","lat":-28.33523,"lon":31.41617,"population":31795},{"id":1023287,"name":"Allanridge","ascii":"Allanridge","lat":-27.75431,"lon":26.64382,"population":31700},{"id":8604906,"name":"Hartbeestfontein-A","ascii":"Hartbeestfontein-A","lat":-25.44141,"lon":27.51114,"population":31554},{"id":11428880,"name":"Lebohang","ascii":"Lebohang","lat":-26.37945,"lon":28.92112,"population":31553},{"id":8629684,"name":"Marapong","ascii":"Marapong","lat":-23.65506,"lon":27.62495,"population":31424},{"id":1003763,"name":"Frankfort","ascii":"Frankfort","lat":-27.27888,"lon":28.49696,"population":31323},{"id":964432,"name":"Port Alfred","ascii":"Port Alfred","lat":-33.58601,"lon":26.88329,"population":30981},{"id":985015,"name":"Ladybrand","ascii":"Ladybrand","lat":-29.19448,"lon":27.45739,"population":30930},{"id":973139,"name":"Mpophomeni","ascii":"Mpophomeni","lat":-29.56822,"lon":30.18618,"population":30830},{"id":964363,"name":"Postmasburg","ascii":"Postmasburg","lat":-28.33392,"lon":23.06541,"population":30089},{"id":972206,"name":"Mookgophong","ascii":"Mookgophong","lat":-24.51667,"lon":28.71667,"population":29778},{"id":12750584,"name":"Nhlazatje","ascii":"Nhlazatje","lat":-26.04027,"lon":30.79268,"population":28224},{"id":1008261,"name":"Driefontein","ascii":"Driefontein","lat":-26.96501,"lon":30.43571,"population":28127},{"id":1014747,"name":"Bultfontein","ascii":"Bultfontein","lat":-28.28756,"lon":26.14996,"population":27994},{"id":1021360,"name":"Ballitoville","ascii":"Ballitoville","lat":-29.53897,"lon":31.21439,"population":27718},{"id":956232,"name":"Shakaskraal","ascii":"Shakaskraal","lat":-29.44931,"lon":31.21532,"population":27345},{"id":996930,"name":"Hendrina","ascii":"Hendrina","lat":-26.15881,"lon":29.71528,"population":27300},{"id":997678,"name":"Hartbeespoort","ascii":"Hartbeespoort","lat":-25.7287,"lon":27.87,"population":26732},{"id":12718812,"name":"Praktiseer","ascii":"Praktiseer","lat":-24.58398,"lon":30.31684,"population":26675},{"id":944531,"name":"Ventersdorp","ascii":"Ventersdorp","lat":-26.31401,"lon":26.82223,"population":26446},{"id":1004962,"name":"Estcourt","ascii":"Estcourt","lat":-29.01269,"lon":29.86619,"population":26444},{"id":1009863,"name":"Dimbaza","ascii":"Dimbaza","lat":-32.83483,"lon":27.21742,"population":26099},{"id":8604596,"name":"Retreat","ascii":"Retreat","lat":-34.05515,"lon":18.47617,"population":25745},{"id":938694,"name":"White River","ascii":"White River","lat":-25.33177,"lon":31.01166,"population":25607},{"id":1022982,"name":"Amandelbult","ascii":"Amandelbult","lat":-24.81811,"lon":27.29659,"population":25587},{"id":11204695,"name":"Kamaqhekeza","ascii":"Kamaqhekeza","lat":-25.67031,"lon":31.86288,"population":25390},{"id":985011,"name":"Lady Frere","ascii":"Lady Frere","lat":-31.70312,"lon":27.2329,"population":25041},{"id":1013550,"name":"Christiana","ascii":"Christiana","lat":-27.91402,"lon":25.16111,"population":25019},{"id":8030233,"name":"Midstream","ascii":"Midstream","lat":-25.91849,"lon":28.19881,"population":25000},{"id":12718757,"name":"Phomolong","ascii":"Phomolong","lat":-28.01274,"lon":27.08234,"population":24635},{"id":1007514,"name":"Duiwelskloof","ascii":"Duiwelskloof","lat":-23.69339,"lon":30.14002,"population":24572},{"id":962847,"name":"Reitz","ascii":"Reitz","lat":-27.80138,"lon":28.42726,"population":24181},{"id":956878,"name":"Scottburgh","ascii":"Scottburgh","lat":-30.28666,"lon":30.75316,"population":23949},{"id":994432,"name":"Itsoseng","ascii":"Itsoseng","lat":-26.08159,"lon":25.88124,"population":23913},{"id":1000937,"name":"Gonubie","ascii":"Gonubie","lat":-32.94433,"lon":28.01496,"population":23733},{"id":11204123,"name":"Marikana","ascii":"Marikana","lat":-25.699,"lon":27.47475,"population":23389},{"id":987648,"name":"Koster","ascii":"Koster","lat":-25.86301,"lon":26.89756,"population":23361},{"id":1010962,"name":"Deneysville","ascii":"Deneysville","lat":-26.8908,"lon":28.09707,"population":23337},{"id":957178,"name":"Schoemansdal","ascii":"Schoemansdal","lat":-25.70866,"lon":31.51025,"population":23257},{"id":12718837,"name":"Redhill","ascii":"Redhill","lat":-26.26074,"lon":30.82545,"population":23153},{"id":1000006,"name":"Greytown","ascii":"Greytown","lat":-29.06415,"lon":30.59279,"population":23139},{"id":996918,"name":"Hennenman","ascii":"Hennenman","lat":-27.97654,"lon":27.02423,"population":22847},{"id":954161,"name":"Somerset East","ascii":"Somerset East","lat":-32.72173,"lon":25.58804,"population":22553},{"id":976358,"name":"Middelburg","ascii":"Middelburg","lat":-31.49285,"lon":25.00633,"population":22380},{"id":997718,"name":"Hartbeesfontein","ascii":"Hartbeesfontein","lat":-26.76566,"lon":26.42024,"population":22294},{"id":974738,"name":"Moloto South","ascii":"Moloto South","lat":-25.46279,"lon":28.65041,"population":22076},{"id":967238,"name":"Ottosdal","ascii":"Ottosdal","lat":-26.80908,"lon":26.00538,"population":22011},{"id":3359736,"name":"Vredendal","ascii":"Vredendal","lat":-31.66833,"lon":18.50119,"population":21769},{"id":974222,"name":"Mooi River","ascii":"Mooi River","lat":-29.20824,"lon":29.9946,"population":21730},{"id":966380,"name":"Pampierstad","ascii":"Pampierstad","lat":-27.78324,"lon":24.68768,"population":21707},{"id":1023366,"name":"Hlanganani","ascii":"Hlanganani","lat":-24.95911,"lon":31.17025,"population":21506},{"id":944380,"name":"Verena","ascii":"Verena","lat":-25.48251,"lon":29.02763,"population":21252},{"id":942701,"name":"Vrede","ascii":"Vrede","lat":-27.42573,"lon":29.16585,"population":21193},{"id":7730334,"name":"Lephalale","ascii":"Lephalale","lat":-23.66607,"lon":27.74477,"population":21133},{"id":1013266,"name":"Hlohlolwane","ascii":"Hlohlolwane","lat":-28.91588,"lon":27.56957,"population":21089},{"id":1001736,"name":"Glencoe","ascii":"Glencoe","lat":-28.17827,"lon":30.14702,"population":21024},{"id":950709,"name":"Swellendam","ascii":"Swellendam","lat":-34.02262,"lon":20.44171,"population":20993},{"id":943937,"name":"Villiers","ascii":"Villiers","lat":-27.03026,"lon":28.60061,"population":20745},{"id":1013067,"name":"Coligny","ascii":"Coligny","lat":-26.33172,"lon":26.32065,"population":20701},{"id":988290,"name":"Komatipoort","ascii":"Komatipoort","lat":-25.43321,"lon":31.95478,"population":20508},{"id":956767,"name":"Secunda","ascii":"Secunda","lat":-26.55,"lon":29.16667,"population":20418},{"id":946128,"name":"eMkhomazi","ascii":"eMkhomazi","lat":-30.20672,"lon":30.79641,"population":20410},{"id":13527189,"name":"Mafemani","ascii":"Mafemani","lat":-24.78864,"lon":31.07938,"population":20389},{"id":1014012,"name":"Carolina","ascii":"Carolina","lat":-26.06927,"lon":30.11489,"population":20184},{"id":1020340,"name":"Belfast","ascii":"Belfast","lat":-25.68991,"lon":30.03504,"population":20036},{"id":963525,"name":"Queensdale","ascii":"Queensdale","lat":-31.87101,"lon":26.97862,"population":20009},{"id":3367877,"name":"Franschhoek","ascii":"Franschhoek","lat":-33.91075,"lon":19.1198,"population":20000},{"id":945141,"name":"Vaalwater","ascii":"Vaalwater","lat":-24.2957,"lon":28.11415,"population":19723},{"id":11205753,"name":"Ncotshane","ascii":"Ncotshane","lat":-27.342,"lon":31.58,"population":19562},{"id":12718836,"name":"Vaalbank","ascii":"Vaalbank","lat":-25.15226,"lon":28.85563,"population":19517},{"id":946010,"name":"eMuziwezinto","ascii":"eMuziwezinto","lat":-30.31002,"lon":30.66275,"population":19415},{"id":961152,"name":"Riversdale","ascii":"Riversdale","lat":-34.09345,"lon":21.25725,"population":19382},{"id":995573,"name":"Hoopstad","ascii":"Hoopstad","lat":-27.83273,"lon":25.90833,"population":19209},{"id":1014653,"name":"Burgersdorp","ascii":"Burgersdorp","lat":-30.99766,"lon":26.32862,"population":19159},{"id":937136,"name":"Zeerust","ascii":"Zeerust","lat":-25.53695,"lon":26.07512,"population":19154},{"id":12718811,"name":"Tshitereke","ascii":"Tshitereke","lat":-22.88416,"lon":30.49358,"population":19092},{"id":986717,"name":"Kruisfontein","ascii":"Kruisfontein","lat":-34.00333,"lon":24.73142,"population":18991},{"id":958441,"name":"Sabie","ascii":"Sabie","lat":-25.0999,"lon":30.78001,"population":18903},{"id":937246,"name":"Zastron","ascii":"Zastron","lat":-30.30225,"lon":27.08395,"population":18699},{"id":1015776,"name":"Bredasdorp","ascii":"Bredasdorp","lat":-34.53215,"lon":20.04031,"population":18599},{"id":978677,"name":"Marquard","ascii":"Marquard","lat":-28.66449,"lon":27.43048,"population":18573},{"id":1008064,"name":"Driekoppies","ascii":"Driekoppies","lat":-25.69776,"lon":31.564,"population":18498},{"id":1013199,"name":"Clydesdale","ascii":"Clydesdale","lat":-30.29831,"lon":29.93772,"population":18357},{"id":990825,"name":"Kinross","ascii":"Kinross","lat":-26.41663,"lon":29.08668,"population":18266},{"id":987202,"name":"Kriel","ascii":"Kriel","lat":-26.25,"lon":29.26,"population":18255},{"id":974611,"name":"Montagu","ascii":"Montagu","lat":-33.78664,"lon":20.12106,"population":18182},{"id":12718754,"name":"Ndevana","ascii":"Ndevana","lat":-32.90769,"lon":27.50973,"population":18151},{"id":1023332,"name":"Alice","ascii":"Alice","lat":-32.78749,"lon":26.8344,"population":18141},{"id":999602,"name":"Groot-Brakrivier","ascii":"Groot-Brakrivier","lat":-34.04368,"lon":22.22574,"population":18008},{"id":941931,"name":"Warrenton","ascii":"Warrenton","lat":-28.11396,"lon":24.84753,"population":17946},{"id":12718835,"name":"Tekwane","ascii":"Tekwane","lat":-25.47776,"lon":31.14559,"population":17846},{"id":12718756,"name":"Tshiame","ascii":"Tshiame","lat":-28.33057,"lon":28.99087,"population":17800},{"id":1005040,"name":"Eshowe","ascii":"Eshowe","lat":-28.88649,"lon":31.4699,"population":17663},{"id":942683,"name":"Vredefort","ascii":"Vredefort","lat":-27.00805,"lon":27.3646,"population":17515},{"id":946973,"name":"Tzaneen","ascii":"Tzaneen","lat":-23.83322,"lon":30.16351,"population":17457},{"id":12718868,"name":"Le Roux","ascii":"Le Roux","lat":-33.89058,"lon":19.10328,"population":17432},{"id":3364682,"name":"Lansdowne","ascii":"Lansdowne","lat":-33.98735,"lon":18.49746,"population":17399},{"id":1005781,"name":"Khowa","ascii":"Khowa","lat":-31.33306,"lon":27.85,"population":17224},{"id":1015694,"name":"Breyten","ascii":"Breyten","lat":-26.30176,"lon":29.98696,"population":17189},{"id":11204214,"name":"Ga-Malakhe","ascii":"Ga-Malakhe","lat":-30.8063,"lon":30.33484,"population":16891},{"id":939608,"name":"Winburg","ascii":"Winburg","lat":-28.51805,"lon":27.00933,"population":16862},{"id":3369179,"name":"Caledon","ascii":"Caledon","lat":-34.22997,"lon":19.4265,"population":16752},{"id":987875,"name":"Koppies","ascii":"Koppies","lat":-27.24179,"lon":27.57422,"population":16537},{"id":12718789,"name":"Frischgewaagd","ascii":"Frischgewaagd","lat":-27.38985,"lon":30.95469,"population":16192},{"id":946932,"name":"Ugie","ascii":"Ugie","lat":-31.19809,"lon":28.23351,"population":16133},{"id":12718768,"name":"Bagale","ascii":"Bagale","lat":-26.06566,"lon":27.64765,"population":16087},{"id":984012,"name":"Leeudoringstad","ascii":"Leeudoringstad","lat":-27.23712,"lon":26.23514,"population":16042},{"id":979910,"name":"Makwassie","ascii":"Makwassie","lat":-27.31564,"lon":25.99497,"population":15996},{"id":949026,"name":"Thulamahashi","ascii":"Thulamahashi","lat":-24.72459,"lon":31.19939,"population":15974},{"id":1022145,"name":"Ashton","ascii":"Ashton","lat":-33.83136,"lon":20.05595,"population":15964},{"id":3367804,"name":"Gansbaai","ascii":"Gansbaai","lat":-34.58301,"lon":19.35048,"population":15957},{"id":973527,"name":"Tlokoeng","ascii":"Tlokoeng","lat":-30.69268,"lon":28.5061,"population":15884},{"id":12718834,"name":"Thubelihle","ascii":"Thubelihle","lat":-26.21551,"lon":29.29164,"population":15876},{"id":12718833,"name":"Daggakraal","ascii":"Daggakraal","lat":-27.13246,"lon":29.97635,"population":15793},{"id":1014322,"name":"Cala","ascii":"Cala","lat":-31.52356,"lon":27.6952,"population":15764},{"id":12750601,"name":"Fernie","ascii":"Fernie","lat":-26.39015,"lon":30.78742,"population":15693},{"id":11282157,"name":"Malamulele","ascii":"Malamulele","lat":-22.97111,"lon":30.67361,"population":15659},{"id":969698,"name":"Northam","ascii":"Northam","lat":-24.95775,"lon":27.26543,"population":15598},{"id":1003843,"name":"Fouriesburg","ascii":"Fouriesburg","lat":-28.61961,"lon":28.20966,"population":15544},{"id":1015969,"name":"Winnie Mandela","ascii":"Winnie Mandela","lat":-28.70025,"lon":26.4581,"population":15454},{"id":965571,"name":"Mamafubedu","ascii":"Mamafubedu","lat":-27.66606,"lon":28.13132,"population":15447},{"id":3363957,"name":"Moorreesburg","ascii":"Moorreesburg","lat":-33.15388,"lon":18.66031,"population":15428},{"id":7302802,"name":"Rondebosch","ascii":"Rondebosch","lat":-33.96333,"lon":18.47639,"population":15158},{"id":1007061,"name":"Dysselsdorp","ascii":"Dysselsdorp","lat":-33.57565,"lon":22.44391,"population":15029},{"id":12718832,"name":"Empuluzu","ascii":"Empuluzu","lat":-26.30497,"lon":30.77365,"population":15008},{"id":1020066,"name":"Berea","ascii":"Berea","lat":-29.85185,"lon":30.99337,"population":15000},{"id":978327,"name":"Matatiele","ascii":"Matatiele","lat":-30.34357,"lon":28.81161,"population":14935},{"id":994418,"name":"Ixopo","ascii":"Ixopo","lat":-30.15,"lon":30.08333,"population":14929},{"id":3362870,"name":"Piketberg","ascii":"Piketberg","lat":-32.90323,"lon":18.75704,"population":14862},{"id":12718867,"name":"Fisantekraal","ascii":"Fisantekraal","lat":-33.78545,"lon":18.71406,"population":14819},{"id":1022912,"name":"Amersfoort","ascii":"Amersfoort","lat":-27.00941,"lon":29.86643,"population":14778},{"id":1023656,"name":"Adelaide","ascii":"Adelaide","lat":-32.70747,"lon":26.29564,"population":14606},{"id":972147,"name":"Namakgale","ascii":"Namakgale","lat":-23.93399,"lon":31.03119,"population":14588},{"id":3359094,"name":"Wolseley","ascii":"Wolseley","lat":-33.41403,"lon":19.20052,"population":14533},{"id":3369098,"name":"Claremont","ascii":"Claremont","lat":-33.98056,"lon":18.46528,"population":14531},{"id":983151,"name":"Lenyenye","ascii":"Lenyenye","lat":-23.97056,"lon":30.26965,"population":14496},{"id":982701,"name":"Lindley","ascii":"Lindley","lat":-27.8791,"lon":27.91348,"population":14377},{"id":1006420,"name":"Ekuvukeni","ascii":"Ekuvukeni","lat":-28.46752,"lon":30.15513,"population":14331},{"id":998001,"name":"Hankey","ascii":"Hankey","lat":-33.83308,"lon":24.88359,"population":14091},{"id":974719,"name":"Molteno","ascii":"Molteno","lat":-31.39675,"lon":26.36246,"population":13840},{"id":3361943,"name":"Saint Helena Bay","ascii":"Saint Helena Bay","lat":-32.76667,"lon":18.03333,"population":13813},{"id":12718788,"name":"Craigieburn","ascii":"Craigieburn","lat":-30.19709,"lon":30.75222,"population":13543},{"id":3364208,"name":"Melkbosstrand","ascii":"Melkbosstrand","lat":-33.72614,"lon":18.44286,"population":13542},{"id":991353,"name":"Kenton","ascii":"Kenton","lat":-33.66667,"lon":26.65,"population":13539},{"id":944540,"name":"Ventersburg","ascii":"Ventersburg","lat":-28.08561,"lon":27.13814,"population":13490},{"id":994023,"name":"Jan Kempdorp","ascii":"Jan Kempdorp","lat":-27.92246,"lon":24.83051,"population":13485},{"id":11287518,"name":"Tukakgomo","ascii":"Tukakgomo","lat":-24.74334,"lon":30.10764,"population":13472},{"id":11287980,"name":"Poortje","ascii":"Poortje","lat":-26.45951,"lon":27.76726,"population":13362},{"id":13527156,"name":"Thulamahashe","ascii":"Thulamahashe","lat":-24.72455,"lon":31.21181,"population":13333},{"id":13527164,"name":"Xikhusese","ascii":"Xikhusese","lat":-24.60238,"lon":31.13456,"population":13324},{"id":995469,"name":"Hopewell","ascii":"Hopewell","lat":-29.79171,"lon":30.39588,"population":13321},{"id":994978,"name":"Dutywa","ascii":"Dutywa","lat":-32.09618,"lon":28.30489,"population":13270},{"id":3360020,"name":"Velddrif","ascii":"Velddrif","lat":-32.78518,"lon":18.17859,"population":13199},{"id":957592,"name":"Sannieshof","ascii":"Sannieshof","lat":-26.52946,"lon":25.80894,"population":13198},{"id":941976,"name":"Warden","ascii":"Warden","lat":-27.85452,"lon":28.9653,"population":13152},{"id":964078,"name":"Prince Albert","ascii":"Prince Albert","lat":-33.22476,"lon":22.02673,"population":13136},{"id":12718767,"name":"Rethabiseng","ascii":"Rethabiseng","lat":-25.72286,"lon":28.71689,"population":13136},{"id":966060,"name":"Paulpietersburg","ascii":"Paulpietersburg","lat":-27.42426,"lon":30.81689,"population":13123},{"id":1003462,"name":"Ga-Kgapane","ascii":"Ga-Kgapane","lat":-23.64378,"lon":30.22324,"population":13000},{"id":974933,"name":"Mogwase","ascii":"Mogwase","lat":-25.18505,"lon":27.26654,"population":12871},{"id":12718753,"name":"Nomathamasanqa","ascii":"Nomathamasanqa","lat":-33.52276,"lon":25.71044,"population":12815},{"id":994939,"name":"Ilinge","ascii":"Ilinge","lat":-31.97676,"lon":27.04267,"population":12806},{"id":13527180,"name":"Maboke","ascii":"Maboke","lat":-24.7254,"lon":31.01826,"population":12752},{"id":1011062,"name":"Delareyville","ascii":"Delareyville","lat":-26.68638,"lon":25.45907,"population":12736},{"id":11204017,"name":"Tjakastad","ascii":"Tjakastad","lat":-25.989,"lon":30.823,"population":12711},{"id":13527163,"name":"Bolla-Tau","ascii":"Bolla-Tau","lat":-24.63276,"lon":31.13108,"population":12703},{"id":3368906,"name":"De Doorns","ascii":"De Doorns","lat":-33.47709,"lon":19.66625,"population":12679},{"id":1105730,"name":"Allemansdrif","ascii":"Allemansdrif","lat":-25.11399,"lon":28.90949,"population":12670},{"id":950833,"name":"Swartruggens","ascii":"Swartruggens","lat":-25.65021,"lon":26.68856,"population":12639},{"id":992385,"name":"Ka-Mhinga","ascii":"Ka-Mhinga","lat":-22.7577,"lon":30.89983,"population":12609},{"id":980798,"name":"Maclear","ascii":"Maclear","lat":-31.07104,"lon":28.35183,"population":12604},{"id":993894,"name":"Embhojeni","ascii":"Embhojeni","lat":-25.71794,"lon":31.4793,"population":12589},{"id":979365,"name":"Mankoeng","ascii":"Mankoeng","lat":-23.9,"lon":29.81667,"population":12499},{"id":3368962,"name":"Darling","ascii":"Darling","lat":-33.37817,"lon":18.37938,"population":12484},{"id":988429,"name":"Koffiefontein","ascii":"Koffiefontein","lat":-29.40661,"lon":25.00309,"population":12464},{"id":951441,"name":"Sundumbili","ascii":"Sundumbili","lat":-29.13371,"lon":31.39752,"population":12455},{"id":1013076,"name":"Colesberg","ascii":"Colesberg","lat":-30.71999,"lon":25.09718,"population":12423},{"id":1008858,"name":"Dordrecht","ascii":"Dordrecht","lat":-31.372,"lon":27.04878,"population":12292},{"id":1004210,"name":"Flagstaff","ascii":"Flagstaff","lat":-31.08042,"lon":29.49522,"population":12280},{"id":1004875,"name":"Evander","ascii":"Evander","lat":-26.47056,"lon":29.10973,"population":12180},{"id":1023365,"name":"Alexandria","ascii":"Alexandria","lat":-33.65346,"lon":26.41268,"population":12084},{"id":968562,"name":"Oakley","ascii":"Oakley","lat":-24.92682,"lon":31.22888,"population":12064},{"id":1018148,"name":"Bochum","ascii":"Bochum","lat":-23.28609,"lon":29.13964,"population":12000},{"id":3359957,"name":"Villiersdorp","ascii":"Villiersdorp","lat":-33.99121,"lon":19.29219,"population":11986},{"id":1021046,"name":"Barkly East","ascii":"Barkly East","lat":-30.9683,"lon":27.59567,"population":11965},{"id":973525,"name":"Mount Frere","ascii":"Mount Frere","lat":-30.90173,"lon":28.99238,"population":11842},{"id":1005470,"name":"Ngcobo","ascii":"Ngcobo","lat":-31.6754,"lon":27.99664,"population":11783},{"id":1001642,"name":"Glenharvie","ascii":"Glenharvie","lat":-26.38989,"lon":27.61592,"population":11763},{"id":1021040,"name":"Barkly West","ascii":"Barkly West","lat":-28.53537,"lon":24.52151,"population":11621},{"id":12718787,"name":"Kgwaripe","ascii":"Kgwaripe","lat":-28.37007,"lon":32.34879,"population":11519},{"id":1010627,"name":"Devon","ascii":"Devon","lat":-26.35576,"lon":28.77837,"population":11476},{"id":940477,"name":"Wepener","ascii":"Wepener","lat":-29.72866,"lon":27.03805,"population":11446},{"id":997861,"name":"Harding","ascii":"Harding","lat":-30.57643,"lon":29.88401,"population":11434},{"id":1010586,"name":"Dewetsdorp","ascii":"Dewetsdorp","lat":-29.58274,"lon":26.66511,"population":11379},{"id":984655,"name":"Emtfuntini","ascii":"Emtfuntini","lat":-25.68406,"lon":31.637,"population":11323},{"id":996800,"name":"Hertzogville","ascii":"Hertzogville","lat":-28.12759,"lon":25.50387,"population":11289},{"id":964090,"name":"Prieska","ascii":"Prieska","lat":-29.66803,"lon":22.74251,"population":11236},{"id":3368033,"name":"eNduli","ascii":"eNduli","lat":-33.35637,"lon":19.34097,"population":11203},{"id":956806,"name":"Sebayeng","ascii":"Sebayeng","lat":-23.75827,"lon":29.66707,"population":10917},{"id":952224,"name":"Steynsrus","ascii":"Steynsrus","lat":-27.95333,"lon":27.56394,"population":10910},{"id":1017620,"name":"Bonnievale","ascii":"Bonnievale","lat":-33.93224,"lon":20.09924,"population":10893},{"id":3364343,"name":"Mamre","ascii":"Mamre","lat":-33.51273,"lon":18.47374,"population":10840},{"id":3360396,"name":"Tulbagh","ascii":"Tulbagh","lat":-33.28596,"lon":19.14116,"population":10745},{"id":980845,"name":"Machadodorp","ascii":"Machadodorp","lat":-25.6688,"lon":30.2497,"population":10712},{"id":12718786,"name":"Hazelmere","ascii":"Hazelmere","lat":-29.59665,"lon":31.04358,"population":10605},{"id":1013125,"name":"Cofimvaba","ascii":"Cofimvaba","lat":-32.00115,"lon":27.58045,"population":10523},{"id":1020592,"name":"Bedford","ascii":"Bedford","lat":-32.67903,"lon":26.08686,"population":10506},{"id":994304,"name":"Jacobsdal","ascii":"Jacobsdal","lat":-29.12792,"lon":24.77382,"population":10497},{"id":13527192,"name":"Buyisonto","ascii":"Buyisonto","lat":-24.79013,"lon":31.13034,"population":10472},{"id":3361142,"name":"Springbok","ascii":"Springbok","lat":-29.66434,"lon":17.8865,"population":10438},{"id":1011881,"name":"Dannhauser","ascii":"Dannhauser","lat":-28.0151,"lon":30.05658,"population":10378},{"id":1017048,"name":"Boshof","ascii":"Boshof","lat":-28.53914,"lon":25.23965,"population":10194},{"id":990802,"name":"Kirkwood","ascii":"Kirkwood","lat":-33.39829,"lon":25.44279,"population":10148},{"id":1011918,"name":"Daniëlskuil","ascii":"Danielskuil","lat":-28.18873,"lon":23.53951,"population":10123},{"id":1011824,"name":"Darnall","ascii":"Darnall","lat":-29.26679,"lon":31.35755,"population":10106},{"id":965581,"name":"Petrusburg","ascii":"Petrusburg","lat":-29.11597,"lon":25.41435,"population":10106},{"id":973676,"name":"Motetema","ascii":"Motetema","lat":-25.09468,"lon":29.46186,"population":10090},{"id":956754,"name":"Sedgefield","ascii":"Sedgefield","lat":-34.0211,"lon":22.8055,"population":10069},{"id":1017565,"name":"Bontrug","ascii":"Bontrug","lat":-33.39786,"lon":25.48283,"population":10057},{"id":994860,"name":"Inanda","ascii":"Inanda","lat":-29.61392,"lon":30.92816,"population":10032},{"id":980213,"name":"Maile","ascii":"Maile","lat":-25.44152,"lon":27.28165,"population":10000},{"id":967580,"name":"Orange Farm","ascii":"Orange Farm","lat":-26.48333,"lon":27.86667,"population":10000},{"id":3362024,"name":"Rosebank","ascii":"Rosebank","lat":-33.95556,"lon":18.47417,"population":10000},{"id":961226,"name":"Ritchie","ascii":"Ritchie","lat":-29.03801,"lon":24.60278,"population":9960},{"id":3364795,"name":"Langebaan","ascii":"Langebaan","lat":-33.09751,"lon":18.0315,"population":9940},{"id":991310,"name":"Kestell","ascii":"Kestell","lat":-28.31094,"lon":28.7036,"population":9907},{"id":997150,"name":"Heidelberg","ascii":"Heidelberg","lat":-34.09127,"lon":20.95661,"population":9895},{"id":11204092,"name":"Leeuwfontein-C","ascii":"Leeuwfontein-C","lat":-25.17046,"lon":28.90361,"population":9773},{"id":12718752,"name":"Ilitha","ascii":"Ilitha","lat":-32.89243,"lon":27.5305,"population":9757},{"id":948293,"name":"Touwsrivier","ascii":"Touwsrivier","lat":-33.33826,"lon":20.03092,"population":9735},{"id":988265,"name":"Komga","ascii":"Komga","lat":-32.57704,"lon":27.892,"population":9692},{"id":974648,"name":"Monnakato","ascii":"Monnakato","lat":-25.35128,"lon":27.27377,"population":9676},{"id":996236,"name":"Hluvukani","ascii":"Hluvukani","lat":-24.64528,"lon":31.34103,"population":9631},{"id":1019264,"name":"Bizana","ascii":"Bizana","lat":-30.85907,"lon":29.85384,"population":9553},{"id":993014,"name":"Kakamas","ascii":"Kakamas","lat":-28.77341,"lon":20.6147,"population":9538},{"id":994804,"name":"Indwe","ascii":"Indwe","lat":-31.46667,"lon":27.33333,"population":9505},{"id":13527209,"name":"Khokhamoya","ascii":"Khokhamoya","lat":-24.95375,"lon":31.32135,"population":9466},{"id":975404,"name":"Mmametlhake","ascii":"Mmametlhake","lat":-25.11222,"lon":28.55278,"population":9450},{"id":3361777,"name":"Saron","ascii":"Saron","lat":-33.18078,"lon":19.00892,"population":9396},{"id":977135,"name":"Melmoth","ascii":"Melmoth","lat":-28.58664,"lon":31.39783,"population":9362},{"id":8555959,"name":"Klapmuts","ascii":"Klapmuts","lat":-33.8111,"lon":18.86421,"population":9229},{"id":991664,"name":"Kathu","ascii":"Kathu","lat":-27.69569,"lon":23.04929,"population":9219},{"id":1014994,"name":"Mhlambanyatsi","ascii":"Mhlambanyatsi","lat":-25.66205,"lon":31.5159,"population":9219},{"id":939676,"name":"Willowmore","ascii":"Willowmore","lat":-33.29265,"lon":23.48954,"population":9199},{"id":3369100,"name":"Clanwilliam","ascii":"Clanwilliam","lat":-32.18173,"lon":18.89217,"population":9194},{"id":973873,"name":"Morgenzon","ascii":"Morgenzon","lat":-26.737,"lon":29.61774,"population":9162},{"id":11395710,"name":"Shatale","ascii":"Shatale","lat":-24.79571,"lon":31.04708,"population":9155},{"id":970133,"name":"Nongoma","ascii":"Nongoma","lat":-27.90968,"lon":31.64817,"population":9140},{"id":986134,"name":"Kuruman","ascii":"Kuruman","lat":-27.46353,"lon":23.43552,"population":9093},{"id":13527167,"name":"Tsakani","ascii":"Tsakani","lat":-24.61933,"lon":31.05133,"population":8907},{"id":12718845,"name":"Carousel View","ascii":"Carousel View","lat":-25.32264,"lon":28.28964,"population":8875},{"id":1013911,"name":"Cathcart","ascii":"Cathcart","lat":-32.2985,"lon":27.14362,"population":8818},{"id":12718751,"name":"Phakamisa","ascii":"Phakamisa","lat":-32.93328,"lon":27.4571,"population":8806},{"id":11204546,"name":"Phatsima","ascii":"Phatsima","lat":-25.3946,"lon":27.0149,"population":8796},{"id":13527210,"name":"Kamalamule","ascii":"Kamalamule","lat":-24.87576,"lon":31.31181,"population":8766},{"id":959018,"name":"Rouxville","ascii":"Rouxville","lat":-30.41827,"lon":26.83656,"population":8759},{"id":978786,"name":"Marite","ascii":"Marite","lat":-24.97161,"lon":31.11249,"population":8657},{"id":11287120,"name":"Maluti","ascii":"Maluti","lat":-30.26207,"lon":28.79242,"population":8654},{"id":952249,"name":"Steynsburg","ascii":"Steynsburg","lat":-31.29565,"lon":25.82338,"population":8642},{"id":3369103,"name":"Citrusdal","ascii":"Citrusdal","lat":-32.59215,"lon":19.01516,"population":8598},{"id":952301,"name":"Sterkstroom","ascii":"Sterkstroom","lat":-31.55714,"lon":26.55417,"population":8584},{"id":1023790,"name":"Aberdeen","ascii":"Aberdeen","lat":-32.47588,"lon":24.06525,"population":8580},{"id":977086,"name":"Memel","ascii":"Memel","lat":-27.68159,"lon":29.56686,"population":8556},{"id":985020,"name":"Ladismith","ascii":"Ladismith","lat":-33.49331,"lon":21.26755,"population":8539},{"id":1105727,"name":"Kwamhlanga","ascii":"Kwamhlanga","lat":-25.43001,"lon":28.71218,"population":8535},{"id":12718856,"name":"Nuwerus NC","ascii":"Nuwerus NC","lat":-28.47438,"lon":21.27042,"population":8531},{"id":945813,"name":"Utrecht","ascii":"Utrecht","lat":-27.65862,"lon":30.32166,"population":8486},{"id":3362714,"name":"Porterville","ascii":"Porterville","lat":-33.01816,"lon":18.99279,"population":8455},{"id":985004,"name":"Lady Grey","ascii":"Lady Grey","lat":-30.71084,"lon":27.21613,"population":8414},{"id":1000023,"name":"Nthrowane","ascii":"Nthrowane","lat":-26.74777,"lon":28.75015,"population":8336},{"id":1021770,"name":"eManzana","ascii":"eManzana","lat":-25.95414,"lon":30.5627,"population":8293},{"id":944024,"name":"Victoria West","ascii":"Victoria West","lat":-31.40364,"lon":23.11461,"population":8254},{"id":11258592,"name":"Lehurutshe","ascii":"Lehurutshe","lat":-25.4812,"lon":25.96508,"population":8252},{"id":942136,"name":"Wakkerstroom","ascii":"Wakkerstroom","lat":-27.35493,"lon":30.14384,"population":8209},{"id":941335,"name":"Weenen","ascii":"Weenen","lat":-28.84918,"lon":30.07722,"population":8183},{"id":3362675,"name":"Prince Alfred Hamlet","ascii":"Prince Alfred Hamlet","lat":-33.30392,"lon":19.32468,"population":8159},{"id":3369174,"name":"Calvinia","ascii":"Calvinia","lat":-31.47069,"lon":19.77601,"population":8146},{"id":12718831,"name":"Gemsbokspruit","ascii":"Gemsbokspruit","lat":-25.40339,"lon":28.87862,"population":8138},{"id":1022857,"name":"eMvelo","ascii":"eMvelo","lat":-26.62455,"lon":30.66234,"population":8110},{"id":952200,"name":"Stilbaai","ascii":"Stilbaai","lat":-34.3693,"lon":21.40748,"population":8000},{"id":942097,"name":"Walkerville","ascii":"Walkerville","lat":-26.42093,"lon":27.95251,"population":7981},{"id":3365754,"name":"Kleinmond","ascii":"Kleinmond","lat":-34.3394,"lon":19.03407,"population":7948},{"id":12718830,"name":"Kamhlushwa","ascii":"Kamhlushwa","lat":-25.66365,"lon":31.68337,"population":7917},{"id":1017076,"name":"Bosfontein","ascii":"Bosfontein","lat":-25.74237,"lon":31.61798,"population":7811},{"id":1019700,"name":"Bethulie","ascii":"Bethulie","lat":-30.49864,"lon":25.97458,"population":7783},{"id":947267,"name":"Tweeling","ascii":"Tweeling","lat":-27.55513,"lon":28.51609,"population":7745},{"id":1006852,"name":"Edenburg","ascii":"Edenburg","lat":-29.73661,"lon":25.9364,"population":7739},{"id":1013081,"name":"Colenso","ascii":"Colenso","lat":-28.73933,"lon":29.82582,"population":7653},{"id":1013397,"name":"Clarens","ascii":"Clarens","lat":-28.5154,"lon":28.41985,"population":7644},{"id":1023445,"name":"Albertina","ascii":"Albertina","lat":-34.20544,"lon":21.58001,"population":7634},{"id":1020854,"name":"Bathurst","ascii":"Bathurst","lat":-33.4998,"lon":26.8294,"population":7630},{"id":1014650,"name":"Burgersfort","ascii":"Burgersfort","lat":-24.67554,"lon":30.32877,"population":7630},{"id":980557,"name":"Magaliesburg","ascii":"Magaliesburg","lat":-25.9936,"lon":27.55619,"population":7623},{"id":12718810,"name":"Elandskraal","ascii":"Elandskraal","lat":-24.7209,"lon":29.40783,"population":7621},{"id":940524,"name":"Welverdiend","ascii":"Welverdiend","lat":-24.58007,"lon":31.32559,"population":7601},{"id":1004763,"name":"Excelsior","ascii":"Excelsior","lat":-28.94089,"lon":27.06069,"population":7594},{"id":1006831,"name":"Edenville","ascii":"Edenville","lat":-27.5518,"lon":27.67632,"population":7540},{"id":3360078,"name":"Vanrhynsdorp","ascii":"Vanrhynsdorp","lat":-31.60889,"lon":18.73968,"population":7515},{"id":1023672,"name":"Addo","ascii":"Addo","lat":-33.54833,"lon":25.6899,"population":7475},{"id":993612,"name":"Joubertina","ascii":"Joubertina","lat":-33.82547,"lon":23.85618,"population":7472},{"id":3365921,"name":"Klawer","ascii":"Klawer","lat":-31.77593,"lon":18.62497,"population":7469},{"id":3366695,"name":"Hopefield","ascii":"Hopefield","lat":-33.06255,"lon":18.34907,"population":7457},{"id":12718829,"name":"Emgwenya","ascii":"Emgwenya","lat":-25.63684,"lon":30.32404,"population":7410},{"id":981294,"name":"Lusikisiki","ascii":"Lusikisiki","lat":-31.36199,"lon":29.57328,"population":7396},{"id":980457,"name":"Magogeni","ascii":"Magogeni","lat":-25.78841,"lon":31.60758,"population":7396},{"id":939930,"name":"Wilderness","ascii":"Wilderness","lat":-33.99385,"lon":22.57574,"population":7385},{"id":966058,"name":"Paul Roux","ascii":"Paul Roux","lat":-28.29747,"lon":27.95042,"population":7370},{"id":12718844,"name":"Umzimhle","ascii":"Umzimhle","lat":-26.935,"lon":26.73074,"population":7352},{"id":7302797,"name":"Eden Glen","ascii":"Eden Glen","lat":-26.1323,"lon":28.16859,"population":7345},{"id":3364847,"name":"Lamberts Bay","ascii":"Lamberts Bay","lat":-32.09694,"lon":18.3085,"population":7332},{"id":981906,"name":"Lothair","ascii":"Lothair","lat":-26.38939,"lon":30.43526,"population":7306},{"id":13527151,"name":"Edinburgh A","ascii":"Edinburgh A","lat":-24.68985,"lon":31.17964,"population":7305},{"id":12808666,"name":"KwaThandeka","ascii":"KwaThandeka","lat":-26.65372,"lon":30.678,"population":7289},{"id":950037,"name":"Tarkastad","ascii":"Tarkastad","lat":-32.00893,"lon":26.25935,"population":7260},{"id":939340,"name":"Winterton","ascii":"Winterton","lat":-28.81229,"lon":29.54123,"population":7224},{"id":980632,"name":"Madyembeni","ascii":"Madyembeni","lat":-24.76969,"lon":31.02818,"population":7210},{"id":12750587,"name":"Glenmore","ascii":"Glenmore","lat":-26.26469,"lon":30.84358,"population":7180},{"id":11204670,"name":"Eastleigh","ascii":"Eastleigh","lat":-26.12965,"lon":28.15541,"population":6988},{"id":11495909,"name":"Mathibela","ascii":"Mathibela","lat":-24.31249,"lon":29.31245,"population":6943},{"id":947187,"name":"Tweespruit","ascii":"Tweespruit","lat":-29.18521,"lon":27.03189,"population":6939},{"id":3369056,"name":"Constantia","ascii":"Constantia","lat":-34.03139,"lon":18.41833,"population":6922},{"id":976922,"name":"Merry Pebble Stream","ascii":"Merry Pebble Stream","lat":-24.76647,"lon":31.21869,"population":6905},{"id":11204578,"name":"Trust Feed","ascii":"Trust Feed","lat":-29.39967,"lon":30.54276,"population":6901},{"id":964424,"name":"Port Edward","ascii":"Port Edward","lat":-31.05067,"lon":30.22799,"population":6872},{"id":994257,"name":"Jagersfontein","ascii":"Jagersfontein","lat":-29.76126,"lon":25.42706,"population":6865},{"id":947739,"name":"Tsolo","ascii":"Tsolo","lat":-31.30781,"lon":28.75541,"population":6860},{"id":1012807,"name":"Cookhouse","ascii":"Cookhouse","lat":-32.74322,"lon":25.80037,"population":6837},{"id":977907,"name":"Maviljan A","ascii":"Maviljan A","lat":-24.84822,"lon":31.08832,"population":6829},{"id":982806,"name":"Lillydale","ascii":"Lillydale","lat":-24.86638,"lon":31.36893,"population":6799},{"id":984962,"name":"Laingsburg","ascii":"Laingsburg","lat":-33.19495,"lon":20.85872,"population":6789},{"id":3367707,"name":"Genadendal","ascii":"Genadendal","lat":-34.03779,"lon":19.56224,"population":6784},{"id":12718843,"name":"Itekeng","ascii":"Itekeng","lat":-26.35931,"lon":25.90688,"population":6740},{"id":993993,"name":"Jansenville","ascii":"Jansenville","lat":-32.94306,"lon":24.67218,"population":6723},{"id":12718866,"name":"Kranshoek","ascii":"Kranshoek","lat":-34.0878,"lon":23.28333,"population":6705},{"id":970148,"name":"Nondweni","ascii":"Nondweni","lat":-28.19228,"lon":30.81955,"population":6691},{"id":966134,"name":"Paterson","ascii":"Paterson","lat":-33.44064,"lon":25.9741,"population":6687},{"id":980661,"name":"Madras A","ascii":"Madras A","lat":-24.99106,"lon":31.14838,"population":6635},{"id":3369569,"name":"Botrivier","ascii":"Botrivier","lat":-34.22568,"lon":19.20313,"population":6594},{"id":3361618,"name":"Simon's Town","ascii":"Simon's Town","lat":-34.1934,"lon":18.43585,"population":6569},{"id":1023003,"name":"Amalia","ascii":"Amalia","lat":-27.24836,"lon":25.04581,"population":6566},{"id":969454,"name":"Nqutu","ascii":"Nqutu","lat":-28.21216,"lon":30.67542,"population":6533},{"id":1011624,"name":"Dealesville","ascii":"Dealesville","lat":-28.67486,"lon":25.76681,"population":6524},{"id":998836,"name":"Grootvlei","ascii":"Grootvlei","lat":-26.76247,"lon":28.48382,"population":6487},{"id":973551,"name":"Mount Ayliff","ascii":"Mount Ayliff","lat":-30.80821,"lon":29.36644,"population":6431},{"id":948099,"name":"Trompsburg","ascii":"Trompsburg","lat":-30.03363,"lon":25.78041,"population":6395},{"id":966137,"name":"Patensie","ascii":"Patensie","lat":-33.76007,"lon":24.81383,"population":6304},{"id":13527157,"name":"Godide","ascii":"Godide","lat":-24.72898,"lon":31.23695,"population":6291},{"id":3362360,"name":"Riviersonderend","ascii":"Riviersonderend","lat":-34.14981,"lon":19.91429,"population":6284},{"id":3364403,"name":"Lutzville","ascii":"Lutzville","lat":-31.55993,"lon":18.344,"population":6268},{"id":1007476,"name":"Dullstroom","ascii":"Dullstroom","lat":-25.41672,"lon":30.10609,"population":6256},{"id":993507,"name":"Justicia","ascii":"Justicia","lat":-24.88002,"lon":31.41316,"population":6221},{"id":967511,"name":"Oranjeville","ascii":"Oranjeville","lat":-26.99379,"lon":28.20967,"population":6189},{"id":13527208,"name":"eMakhazeni B","ascii":"eMakhazeni B","lat":-24.9512,"lon":31.37171,"population":6118},{"id":965722,"name":"Perdekop","ascii":"Perdekop","lat":-27.16575,"lon":29.62364,"population":6087},{"id":972549,"name":"Murraysburg","ascii":"Murraysburg","lat":-31.96046,"lon":23.76204,"population":6073},{"id":12718828,"name":"Doornkop","ascii":"Doornkop","lat":-25.60828,"lon":29.43117,"population":6037},{"id":944480,"name":"Venterstad","ascii":"Venterstad","lat":-30.77619,"lon":25.79923,"population":5977},{"id":992071,"name":"Kareedouw","ascii":"Kareedouw","lat":-33.9528,"lon":24.29053,"population":5972},{"id":12718809,"name":"Nthabalala","ascii":"Nthabalala","lat":-23.21959,"lon":29.99269,"population":5969},{"id":964408,"name":"Port Saint John’s","ascii":"Port Saint John's","lat":-31.62291,"lon":29.54477,"population":5939},{"id":13527188,"name":"Thabakgolo","ascii":"Thabakgolo","lat":-24.8005,"lon":31.03186,"population":5939},{"id":8063467,"name":"St Francis Bay","ascii":"St Francis Bay","lat":-34.16026,"lon":24.82618,"population":5910},{"id":980579,"name":"Magabeni","ascii":"Magabeni","lat":-30.17242,"lon":30.76566,"population":5904},{"id":963488,"name":"Qumbu","ascii":"Qumbu","lat":-31.16304,"lon":28.87056,"population":5904},{"id":13527185,"name":"Orinoco A","ascii":"Orinoco A","lat":-24.76259,"lon":31.06516,"population":5884},{"id":962994,"name":"Reddersburg","ascii":"Reddersburg","lat":-29.65301,"lon":26.16773,"population":5854},{"id":947962,"name":"Tshandama","ascii":"Tshandama","lat":-22.74567,"lon":30.50933,"population":5842},{"id":1014034,"name":"Carnarvon","ascii":"Carnarvon","lat":-30.96827,"lon":22.13303,"population":5785},{"id":981802,"name":"Louterwater","ascii":"Louterwater","lat":-33.80009,"lon":23.66382,"population":5785},{"id":981517,"name":"Ludlow","ascii":"Ludlow","lat":-24.66921,"lon":31.27929,"population":5766},{"id":3361084,"name":"Stanford","ascii":"Stanford","lat":-34.4394,"lon":19.45615,"population":5747},{"id":954486,"name":"Smithfield","ascii":"Smithfield","lat":-30.21366,"lon":26.5307,"population":5725},{"id":3362485,"name":"Riebeek-Kasteel","ascii":"Riebeek-Kasteel","lat":-33.38445,"lon":18.89953,"population":5704},{"id":974331,"name":"Mooinooi","ascii":"Mooinooi","lat":-25.74892,"lon":27.55564,"population":5670},{"id":952523,"name":"Stella","ascii":"Stella","lat":-26.55298,"lon":24.86683,"population":5620},{"id":994060,"name":"James Calata","ascii":"James Calata","lat":-31.12139,"lon":26.80667,"population":5590},{"id":12808668,"name":"Ngema Tribal Trust","ascii":"Ngema Tribal Trust","lat":-27.07309,"lon":30.54204,"population":5590},{"id":936953,"name":"Zoar","ascii":"Zoar","lat":-33.4956,"lon":21.44373,"population":5582},{"id":966007,"name":"Peddie","ascii":"Peddie","lat":-33.20059,"lon":27.11385,"population":5580},{"id":979405,"name":"Manguzi","ascii":"Manguzi","lat":-26.99096,"lon":32.75102,"population":5534},{"id":12718855,"name":"Oakglen","ascii":"Oakglen","lat":-31.05073,"lon":24.4326,"population":5504},{"id":12420903,"name":"Khaya Mnandi","ascii":"Khaya Mnandi","lat":-33.82628,"lon":25.45378,"population":5500},{"id":11427405,"name":"Eden Glen Ext 60","ascii":"Eden Glen Ext 60","lat":-26.12593,"lon":28.165,"population":5494},{"id":982906,"name":"Libode","ascii":"Libode","lat":-31.54331,"lon":29.0164,"population":5464},{"id":1023454,"name":"Albert Falls","ascii":"Albert Falls","lat":-29.44039,"lon":30.43344,"population":5434},{"id":945970,"name":"Uniondale","ascii":"Uniondale","lat":-33.65895,"lon":23.12317,"population":5421},{"id":12718827,"name":"Ekulindeni","ascii":"Ekulindeni","lat":-26.04605,"lon":31.02317,"population":5416},{"id":982891,"name":"Lidgetton","ascii":"Lidgetton","lat":-29.44047,"lon":30.09997,"population":5416},{"id":966012,"name":"Pearston","ascii":"Pearston","lat":-32.5822,"lon":25.13832,"population":5410},{"id":3363848,"name":"Nababeep","ascii":"Nababeep","lat":-29.59169,"lon":17.78623,"population":5374},{"id":7506857,"name":"Newlands","ascii":"Newlands","lat":-33.97846,"lon":18.4481,"population":5343},{"id":12718808,"name":"Senwamokgope","ascii":"Senwamokgope","lat":-23.40924,"lon":30.16038,"population":5328},{"id":951787,"name":"Struisbaai","ascii":"Struisbaai","lat":-34.80365,"lon":20.05474,"population":5301},{"id":975509,"name":"eMkhuze","ascii":"eMkhuze","lat":-27.62051,"lon":32.03385,"population":5288},{"id":1013835,"name":"Cedarville","ascii":"Cedarville","lat":-30.38419,"lon":29.04164,"population":5286},{"id":1013706,"name":"Charlestown","ascii":"Charlestown","lat":-27.41112,"lon":29.87375,"population":5262},{"id":13527155,"name":"Kumana","ascii":"Kumana","lat":-24.75034,"lon":31.22105,"population":5235},{"id":12718807,"name":"GaSekhaolelo","ascii":"GaSekhaolelo","lat":-23.95524,"lon":28.98335,"population":5232},{"id":3362482,"name":"Riebeek West","ascii":"Riebeek West","lat":-33.35045,"lon":18.87019,"population":5211},{"id":3364872,"name":"Kylemore","ascii":"Kylemore","lat":-33.91515,"lon":18.95025,"population":5185},{"id":1013886,"name":"Cato Ridge","ascii":"Cato Ridge","lat":-29.73333,"lon":30.58333,"population":5168},{"id":13527196,"name":"Matsavana","ascii":"Matsavana","lat":-24.82188,"lon":31.26,"population":5157},{"id":12718865,"name":"Languedoc","ascii":"Languedoc","lat":-33.8973,"lon":18.96726,"population":5138},{"id":1014257,"name":"Calitzdorp","ascii":"Calitzdorp","lat":-33.52755,"lon":21.6762,"population":5133},{"id":997255,"name":"Hazyview","ascii":"Hazyview","lat":-25.04398,"lon":31.12767,"population":5074},{"id":13527168,"name":"Kgapamadi","ascii":"Kgapamadi","lat":-24.60858,"lon":31.01772,"population":5049},{"id":3363792,"name":"Napier","ascii":"Napier","lat":-34.47451,"lon":19.89812,"population":5048},{"id":12718842,"name":"Boipelo","ascii":"Boipelo","lat":-27.56543,"lon":24.18493,"population":5010},{"id":12718806,"name":"Babirwa","ascii":"Babirwa","lat":-23.42968,"lon":28.60902,"population":5006},{"id":12104196,"name":"Thornhill","ascii":"Thornhill","lat":-33.89511,"lon":25.13914,"population":5000},{"id":13527213,"name":"Tiyimeleni A","ascii":"Tiyimeleni A","lat":-24.89844,"lon":31.20793,"population":4989},{"id":1020992,"name":"Barrydale","ascii":"Barrydale","lat":-33.9053,"lon":20.72439,"population":4979},{"id":959172,"name":"Rosendal","ascii":"Rosendal","lat":-28.50481,"lon":27.93293,"population":4950},{"id":999964,"name":"Groblersdal","ascii":"Groblersdal","lat":-25.16843,"lon":29.39412,"population":4925},{"id":981782,"name":"Louwsburg","ascii":"Louwsburg","lat":-27.57857,"lon":31.2894,"population":4865},{"id":3369115,"name":"Chatsworth","ascii":"Chatsworth","lat":-33.54778,"lon":18.58201,"population":4854},{"id":1010967,"name":"Dendron","ascii":"Dendron","lat":-23.36669,"lon":29.32371,"population":4846},{"id":991396,"name":"Kenhardt","ascii":"Kenhardt","lat":-29.34574,"lon":21.15786,"population":4842},{"id":11203982,"name":"Kurland","ascii":"Kurland","lat":-33.94489,"lon":23.49272,"population":4832},{"id":963049,"name":"Rayton","ascii":"Rayton","lat":-25.73917,"lon":28.53338,"population":4812},{"id":952213,"name":"Steytlerville","ascii":"Steytlerville","lat":-33.33274,"lon":24.34539,"population":4812},{"id":12718826,"name":"Masakhane","ascii":"Masakhane","lat":-25.95354,"lon":29.33068,"population":4811},{"id":1013563,"name":"Chrissiesmeer","ascii":"Chrissiesmeer","lat":-26.27953,"lon":30.2137,"population":4806},{"id":1000352,"name":"Graskop","ascii":"Graskop","lat":-24.93144,"lon":30.84191,"population":4788},{"id":996223,"name":"Hobhouse","ascii":"Hobhouse","lat":-29.5272,"lon":27.14472,"population":4768},{"id":12750588,"name":"Dundonald","ascii":"Dundonald","lat":-26.24656,"lon":30.81802,"population":4764},{"id":1005753,"name":"Eloff","ascii":"Eloff","lat":-26.16619,"lon":28.60704,"population":4755},{"id":13527193,"name":"Maviljan B","ascii":"Maviljan B","lat":-24.81994,"lon":31.08675,"population":4717},{"id":962529,"name":"Rheenendal","ascii":"Rheenendal","lat":-33.95,"lon":22.95,"population":4715},{"id":1022283,"name":"Arlington","ascii":"Arlington","lat":-28.02881,"lon":27.85335,"population":4714},{"id":13527179,"name":"Motlamogale","ascii":"Motlamogale","lat":-24.69669,"lon":30.99934,"population":4702},{"id":1023319,"name":"Alicedale","ascii":"Alicedale","lat":-33.31905,"lon":26.09139,"population":4639},{"id":12718825,"name":"Mapulaneng View","ascii":"Mapulaneng View","lat":-24.85009,"lon":31.07125,"population":4600},{"id":996256,"name":"Hluhluwe","ascii":"Hluhluwe","lat":-28.01895,"lon":32.26762,"population":4588},{"id":13527148,"name":"Islington","ascii":"Islington","lat":-24.62412,"lon":31.26708,"population":4560},{"id":13527197,"name":"Manyakatana","ascii":"Manyakatana","lat":-24.81173,"lon":31.28049,"population":4532},{"id":12718824,"name":"KwaDela","ascii":"KwaDela","lat":-26.46389,"lon":29.66585,"population":4530},{"id":12718864,"name":"Abbotsdale","ascii":"Abbotsdale","lat":-33.48694,"lon":18.67583,"population":4507},{"id":996289,"name":"Hlobane","ascii":"Hlobane","lat":-27.71656,"lon":31.00112,"population":4502},{"id":12718805,"name":"Ka-Mahonisi","ascii":"Ka-Mahonisi","lat":-23.05613,"lon":30.63581,"population":4490},{"id":999775,"name":"Groenpunt","ascii":"Groenpunt","lat":-26.82634,"lon":28.03844,"population":4466},{"id":12718804,"name":"Saselamani","ascii":"Saselamani","lat":-22.85611,"lon":30.83353,"population":4465},{"id":952906,"name":"Springfontein","ascii":"Springfontein","lat":-30.26391,"lon":25.70401,"population":4431},{"id":981554,"name":"Luckhoff","ascii":"Luckhoff","lat":-29.75023,"lon":24.78794,"population":4430},{"id":1012688,"name":"Coronation","ascii":"Coronation","lat":-27.66667,"lon":31.05,"population":4422},{"id":996072,"name":"Hofmeyr","ascii":"Hofmeyr","lat":-31.65349,"lon":25.80366,"population":4410},{"id":13527158,"name":"New Forest B","ascii":"New Forest B","lat":-24.72473,"lon":31.15417,"population":4386},{"id":965478,"name":"Philippolis","ascii":"Philippolis","lat":-30.26556,"lon":25.27427,"population":4370},{"id":976197,"name":"Middelplaas","ascii":"Middelplaas","lat":-25.71808,"lon":31.55094,"population":4365},{"id":961712,"name":"Rietkuil","ascii":"Rietkuil","lat":-25.93401,"lon":29.81168,"population":4355},{"id":1004406,"name":"Fauresmith","ascii":"Fauresmith","lat":-29.74893,"lon":25.31505,"population":4346},{"id":980703,"name":"Madikwe","ascii":"Madikwe","lat":-25.35397,"lon":26.53009,"population":4340},{"id":13527176,"name":"Ga-Josepha","ascii":"Ga-Josepha","lat":-24.66797,"lon":31.02554,"population":4329},{"id":13527121,"name":"Sidlamafa","ascii":"Sidlamafa","lat":-25.67045,"lon":31.69017,"population":4316},{"id":1010728,"name":"De Rust","ascii":"De Rust","lat":-33.49035,"lon":22.53523,"population":4272},{"id":968442,"name":"Ogies","ascii":"Ogies","lat":-26.04877,"lon":29.06391,"population":4265},{"id":970480,"name":"Nkandla","ascii":"Nkandla","lat":-28.6207,"lon":31.09067,"population":4261},{"id":12718750,"name":"Ducats","ascii":"Ducats","lat":-32.92795,"lon":27.90373,"population":4248},{"id":6942527,"name":"Century City","ascii":"Century City","lat":-33.89115,"lon":18.51274,"population":4239},{"id":975903,"name":"Migdol","ascii":"Migdol","lat":-26.90414,"lon":25.45243,"population":4224},{"id":951046,"name":"Swartklip","ascii":"Swartklip","lat":-24.93603,"lon":27.15838,"population":4213},{"id":12750585,"name":"Mooiplaas","ascii":"Mooiplaas","lat":-26.06282,"lon":30.87868,"population":4196},{"id":979837,"name":"Malelane","ascii":"Malelane","lat":-25.49489,"lon":31.50891,"population":4176},{"id":12718823,"name":"Ngodwana","ascii":"Ngodwana","lat":-25.56923,"lon":30.67895,"population":4173},{"id":1010821,"name":"Derby","ascii":"Derby","lat":-25.90913,"lon":27.04157,"population":4157},{"id":13527149,"name":"Burlington","ascii":"Burlington","lat":-24.62456,"lon":31.21988,"population":4154},{"id":3367553,"name":"Gouda","ascii":"Gouda","lat":-33.30034,"lon":19.04006,"population":4122},{"id":12718822,"name":"Pullens Hope","ascii":"Pullens Hope","lat":-26.02036,"lon":29.59486,"population":4120},{"id":957995,"name":"Sanddrif","ascii":"Sanddrif","lat":-33.98298,"lon":23.99581,"population":4065},{"id":973816,"name":"Morolaneng","ascii":"Morolaneng","lat":-24.75609,"lon":30.97452,"population":4055},{"id":999121,"name":"Groot-Marico","ascii":"Groot-Marico","lat":-25.597,"lon":26.41724,"population":4054},{"id":956945,"name":"Hlengesha","ascii":"Hlengesha","lat":-25.74932,"lon":31.54034,"population":3966},{"id":11427426,"name":"Tongaat Beach","ascii":"Tongaat Beach","lat":-29.61376,"lon":31.15281,"population":3962},{"id":969582,"name":"Noupoort","ascii":"Noupoort","lat":-31.18736,"lon":24.94991,"population":3924},{"id":950468,"name":"Ntabankulu","ascii":"Ntabankulu","lat":-30.95901,"lon":29.30297,"population":3913},{"id":13527205,"name":"Mahlobyanini","ascii":"Mahlobyanini","lat":-24.90107,"lon":31.39389,"population":3908},{"id":3370105,"name":"Bergvliet","ascii":"Bergvliet","lat":-34.04746,"lon":18.4525,"population":3902},{"id":12718755,"name":"Ikgomotseng","ascii":"Ikgomotseng","lat":-28.73477,"lon":26.10788,"population":3897},{"id":1003297,"name":"Ga-Maotole","ascii":"Ga-Maotole","lat":-24.60516,"lon":30.9919,"population":3834},{"id":13527181,"name":"Violetbank D","ascii":"Violetbank D","lat":-24.73697,"lon":31.01595,"population":3815},{"id":971377,"name":"New Hanover","ascii":"New Hanover","lat":-29.35519,"lon":30.52801,"population":3804},{"id":996195,"name":"Hoedspruit","ascii":"Hoedspruit","lat":-24.35122,"lon":30.95332,"population":3782},{"id":3364246,"name":"McGregor","ascii":"McGregor","lat":-33.94725,"lon":19.82906,"population":3744},{"id":3362555,"name":"Rawsonville","ascii":"Rawsonville","lat":-33.68622,"lon":19.31382,"population":3712},{"id":997184,"name":"Hectorspruit","ascii":"Hectorspruit","lat":-25.44115,"lon":31.68382,"population":3709},{"id":1003508,"name":"Ga-Boelang","ascii":"Ga-Boelang","lat":-24.59852,"lon":30.96818,"population":3696},{"id":12718821,"name":"Wolfenkop","ascii":"Wolfenkop","lat":-25.52121,"lon":28.99197,"population":3660},{"id":1019883,"name":"Ntabozuko","ascii":"Ntabozuko","lat":-32.88304,"lon":27.58186,"population":3650},{"id":960109,"name":"Rooiboklaagte B","ascii":"Rooiboklaagte B","lat":-24.66173,"lon":31.05886,"population":3650},{"id":1022038,"name":"Augrabies","ascii":"Augrabies","lat":-28.63333,"lon":20.35,"population":3627},{"id":13527169,"name":"Mamelodi","ascii":"Mamelodi","lat":-24.59764,"lon":31.02379,"population":3619},{"id":937796,"name":"Xanthia","ascii":"Xanthia","lat":-24.83429,"lon":31.14858,"population":3615},{"id":12718863,"name":"Slangrivier","ascii":"Slangrivier","lat":-34.13722,"lon":20.86167,"population":3607},{"id":1023281,"name":"Alldays","ascii":"Alldays","lat":-22.66392,"lon":29.09336,"population":3578},{"id":947679,"name":"Tugela","ascii":"Tugela","lat":-29.17949,"lon":31.41695,"population":3572},{"id":12718785,"name":"Ibisikululwa","ascii":"Ibisikululwa","lat":-30.41119,"lon":29.89194,"population":3554},{"id":989173,"name":"Klipplaat","ascii":"Klipplaat","lat":-33.01907,"lon":24.34077,"population":3554},{"id":1012724,"name":"Cornelia","ascii":"Cornelia","lat":-27.23227,"lon":28.85226,"population":3551},{"id":981331,"name":"Luphisi","ascii":"Luphisi","lat":-25.40637,"lon":31.27893,"population":3487},{"id":982494,"name":"eMbangweni","ascii":"eMbangweni","lat":-26.1401,"lon":30.78316,"population":3449},{"id":985609,"name":"KwaMbonambi","ascii":"KwaMbonambi","lat":-28.59827,"lon":32.0894,"population":3441},{"id":12718820,"name":"Warburton","ascii":"Warburton","lat":-26.22909,"lon":30.47643,"population":3411},{"id":13527161,"name":"Dingleydale A","ascii":"Dingleydale A","lat":-24.70122,"lon":31.11743,"population":3401},{"id":12718819,"name":"Iswepe","ascii":"Iswepe","lat":-26.8406,"lon":30.53511,"population":3394},{"id":12718862,"name":"Victor Verster","ascii":"Victor Verster","lat":-33.84088,"lon":18.99893,"population":3387},{"id":965925,"name":"Penge","ascii":"Penge","lat":-24.38689,"lon":30.2884,"population":3377},{"id":939702,"name":"Williston","ascii":"Williston","lat":-31.34048,"lon":20.91544,"population":3368},{"id":965471,"name":"Philipstown","ascii":"Philipstown","lat":-30.43733,"lon":24.47261,"population":3365},{"id":12718854,"name":"Raaswater","ascii":"Raaswater","lat":-28.59337,"lon":21.1906,"population":3352},{"id":12718803,"name":"Vuwani","ascii":"Vuwani","lat":-23.13524,"lon":30.42136,"population":3343},{"id":12718749,"name":"Loerieheuwel","ascii":"Loerieheuwel","lat":-33.87596,"lon":25.02064,"population":3339},{"id":6692734,"name":"Pennington","ascii":"Pennington","lat":-30.36847,"lon":30.7025,"population":3337},{"id":3367442,"name":"Greyton","ascii":"Greyton","lat":-34.05048,"lon":19.60884,"population":3329},{"id":3362755,"name":"Pofadder","ascii":"Pofadder","lat":-29.1283,"lon":19.39492,"population":3287},{"id":991478,"name":"Keiskammahoek","ascii":"Keiskammahoek","lat":-32.68248,"lon":27.15027,"population":3276},{"id":13527201,"name":"Khomanani","ascii":"Khomanani","lat":-24.83782,"lon":31.30996,"population":3276},{"id":983988,"name":"Leeu-Gamka","ascii":"Leeu-Gamka","lat":-32.77423,"lon":21.9786,"population":3267},{"id":956128,"name":"Sheepmoor","ascii":"Sheepmoor","lat":-26.71738,"lon":30.29916,"population":3267},{"id":940522,"name":"Welverdiend","ascii":"Welverdiend","lat":-26.38752,"lon":27.27789,"population":3244},{"id":945995,"name":"Underberg","ascii":"Underberg","lat":-29.79084,"lon":29.49448,"population":3227},{"id":978944,"name":"Marble Hall","ascii":"Marble Hall","lat":-24.96627,"lon":29.29068,"population":3219},{"id":12718784,"name":"Nkongolwane","ascii":"Nkongolwane","lat":-27.68858,"lon":31.03867,"population":3213},{"id":12718802,"name":"Nthabiseng","ascii":"Nthabiseng","lat":-23.48258,"lon":29.91478,"population":3210},{"id":947486,"name":"Tutuka","ascii":"Tutuka","lat":-26.77695,"lon":29.35266,"population":3191},{"id":1021395,"name":"Balfour","ascii":"Balfour","lat":-32.5404,"lon":26.67944,"population":3187},{"id":973061,"name":"Mqanduli","ascii":"Mqanduli","lat":-31.81919,"lon":28.76175,"population":3171},{"id":12718853,"name":"Grootdrink","ascii":"Grootdrink","lat":-28.56402,"lon":21.74656,"population":3169},{"id":971016,"name":"Ngqeleni","ascii":"Ngqeleni","lat":-31.67315,"lon":29.03327,"population":3151},{"id":959290,"name":"Roossenekal","ascii":"Roossenekal","lat":-25.19311,"lon":29.92544,"population":3145},{"id":11428969,"name":"Cool Air","ascii":"Cool Air","lat":-29.36365,"lon":30.63398,"population":3079},{"id":13527187,"name":"Shata","ascii":"Shata","lat":-24.77186,"lon":31.0394,"population":3073},{"id":996490,"name":"Hillshaven","ascii":"Hillshaven","lat":-26.36447,"lon":27.65808,"population":3068},{"id":12718801,"name":"Mokgoba","ascii":"Mokgoba","lat":-23.71188,"lon":30.1345,"population":3063},{"id":984896,"name":"La Mercy","ascii":"La Mercy","lat":-29.63918,"lon":31.13106,"population":3061},{"id":12718800,"name":"Ka-Xihosana","ascii":"Ka-Xihosana","lat":-23.16436,"lon":30.58221,"population":3050},{"id":977169,"name":"Melkhoutfontein","ascii":"Melkhoutfontein","lat":-34.32673,"lon":21.42093,"population":3034},{"id":1003702,"name":"Fraserburg","ascii":"Fraserburg","lat":-31.91566,"lon":21.51335,"population":3029},{"id":939658,"name":"Willowvale","ascii":"Willowvale","lat":-32.26588,"lon":28.50727,"population":3021},{"id":961327,"name":"Rietvlei","ascii":"Rietvlei","lat":-30.5105,"lon":29.82637,"population":3006},{"id":975144,"name":"Modderfontein","ascii":"Modderfontein","lat":-26.08909,"lon":28.16534,"population":3000},{"id":952869,"name":"Springs","ascii":"Springs","lat":-26.25837,"lon":28.47173,"population":2996},{"id":13527212,"name":"Tiyimeleni B","ascii":"Tiyimeleni B","lat":-24.89151,"lon":31.2614,"population":2992},{"id":13527150,"name":"Edinburgh B","ascii":"Edinburgh B","lat":-24.68134,"lon":31.22759,"population":2978},{"id":996377,"name":"Hlabisa","ascii":"Hlabisa","lat":-28.14519,"lon":31.87719,"population":2958},{"id":956254,"name":"Seymour","ascii":"Seymour","lat":-32.55571,"lon":26.76534,"population":2954},{"id":942112,"name":"Wales","ascii":"Wales","lat":-24.7,"lon":30.98333,"population":2949},{"id":995061,"name":"Hundzukani","ascii":"Hundzukani","lat":-24.91919,"lon":31.41489,"population":2947},{"id":1009781,"name":"Dirkiesdorp","ascii":"Dirkiesdorp","lat":-27.17445,"lon":30.40476,"population":2913},{"id":12718783,"name":"Ezibomvu","ascii":"Ezibomvu","lat":-28.09016,"lon":30.77948,"population":2893},{"id":3366317,"name":"Kalbaskraal","ascii":"Kalbaskraal","lat":-33.57316,"lon":18.64887,"population":2888},{"id":1015850,"name":"Brandvlei","ascii":"Brandvlei","lat":-30.46532,"lon":20.48659,"population":2859},{"id":13527191,"name":"Orinoco C","ascii":"Orinoco C","lat":-24.73987,"lon":31.10057,"population":2858},{"id":998360,"name":"Haarlem","ascii":"Haarlem","lat":-33.73302,"lon":23.34263,"population":2846},{"id":12718799,"name":"Morbeng","ascii":"Morbeng","lat":-23.49265,"lon":29.93865,"population":2841},{"id":1001817,"name":"Glaudina","ascii":"Glaudina","lat":-27.03679,"lon":25.63026,"population":2837},{"id":12718748,"name":"Ngabangu","ascii":"Ngabangu","lat":-32.62924,"lon":27.39823,"population":2826},{"id":13527199,"name":"Croquet Lawn A","ascii":"Croquet Lawn A","lat":-24.84745,"lon":31.28932,"population":2816},{"id":960144,"name":"Rooiberg","ascii":"Rooiberg","lat":-24.77777,"lon":27.73337,"population":2767},{"id":11256886,"name":"Skoonplaas","ascii":"Skoonplaas","lat":-25.75694,"lon":31.63611,"population":2757},{"id":3365533,"name":"Klipheuwel","ascii":"Klipheuwel","lat":-33.70096,"lon":18.69886,"population":2748},{"id":1023291,"name":"Allandale A","ascii":"Allandale A","lat":-24.71019,"lon":31.27612,"population":2743},{"id":12718782,"name":"Emaqeleni","ascii":"Emaqeleni","lat":-28.92643,"lon":31.70659,"population":2741},{"id":12718747,"name":"Clarendon Marine","ascii":"Clarendon Marine","lat":-34.01235,"lon":25.36577,"population":2730},{"id":1005779,"name":"Elliotdale","ascii":"Elliotdale","lat":-31.96292,"lon":28.68401,"population":2716},{"id":3367527,"name":"Graafwater","ascii":"Graafwater","lat":-32.15466,"lon":18.60319,"population":2708},{"id":12718798,"name":"Thabo Mbeki","ascii":"Thabo Mbeki","lat":-23.34099,"lon":28.01422,"population":2700},{"id":951242,"name":"Suurbraak","ascii":"Suurbraak","lat":-34.00442,"lon":20.65432,"population":2698},{"id":13527143,"name":"Humulani","ascii":"Humulani","lat":-24.70959,"lon":31.34667,"population":2694},{"id":12718781,"name":"Ashburton","ascii":"Ashburton","lat":-29.66664,"lon":30.45502,"population":2659},{"id":12718797,"name":"Laersdrift","ascii":"Laersdrift","lat":-25.36529,"lon":29.8569,"population":2657},{"id":972787,"name":"Mtunzini","ascii":"Mtunzini","lat":-28.95657,"lon":31.75431,"population":2635},{"id":1016747,"name":"Botha’s Hill","ascii":"Botha's Hill","lat":-29.7181,"lon":30.73331,"population":2623},{"id":12718852,"name":"Wegdraai","ascii":"Wegdraai","lat":-28.8413,"lon":21.8747,"population":2622},{"id":12718780,"name":"Greylands","ascii":"Greylands","lat":-29.52848,"lon":31.15385,"population":2617},{"id":12718779,"name":"Emona","ascii":"Emona","lat":-29.55376,"lon":31.09656,"population":2590},{"id":1005342,"name":"Enon","ascii":"Enon","lat":-33.39608,"lon":25.54653,"population":2587},{"id":13527141,"name":"Hlavekisa","ascii":"Hlavekisa","lat":-24.62923,"lon":31.38002,"population":2563},{"id":976009,"name":"Middledrift","ascii":"Middledrift","lat":-32.81851,"lon":26.98812,"population":2563},{"id":944263,"name":"Verkeerdevlei","ascii":"Verkeerdevlei","lat":-28.83264,"lon":26.7777,"population":2557},{"id":13527220,"name":"Jim Brown","ascii":"Jim Brown","lat":-24.98016,"lon":31.08813,"population":2552},{"id":947730,"name":"Tsomo","ascii":"Tsomo","lat":-32.03679,"lon":27.81994,"population":2525},{"id":12750586,"name":"Swalluwnest","ascii":"Swalluwnest","lat":-26.23218,"lon":30.87115,"population":2520},{"id":13527146,"name":"Clare A","ascii":"Clare A","lat":-24.63293,"lon":31.30041,"population":2518},{"id":1014180,"name":"Camperdown","ascii":"Camperdown","lat":-29.72868,"lon":30.54256,"population":2517},{"id":13527203,"name":"Rulani","ascii":"Rulani","lat":-24.88407,"lon":31.37773,"population":2485},{"id":8643436,"name":"Colchester","ascii":"Colchester","lat":-33.69135,"lon":25.82199,"population":2483},{"id":1003761,"name":"Frankfort","ascii":"Frankfort","lat":-32.72985,"lon":27.46644,"population":2447},{"id":991488,"name":"Kei Mouth","ascii":"Kei Mouth","lat":-32.68197,"lon":28.37632,"population":2439},{"id":13527219,"name":"Mahukule B","ascii":"Mahukule B","lat":-25.01486,"lon":31.18172,"population":2432},{"id":1003753,"name":"Franklin","ascii":"Franklin","lat":-30.31655,"lon":29.45216,"population":2417},{"id":12718778,"name":"Cibelichle","ascii":"Cibelichle","lat":-29.63451,"lon":29.78891,"population":2409},{"id":3367594,"name":"Goedverwag","ascii":"Goedverwag","lat":-32.86752,"lon":18.69433,"population":2371},{"id":3362762,"name":"Pniel","ascii":"Pniel","lat":-33.89314,"lon":18.95931,"population":2366},{"id":3363003,"name":"Paternoster","ascii":"Paternoster","lat":-32.81016,"lon":17.89118,"population":2360},{"id":12718851,"name":"Cillie","ascii":"Cillie","lat":-28.73997,"lon":20.58895,"population":2359},{"id":964596,"name":"Pomfret","ascii":"Pomfret","lat":-25.8156,"lon":23.52442,"population":2323},{"id":987452,"name":"Krakeelrivier","ascii":"Krakeelrivier","lat":-33.81706,"lon":23.73596,"population":2313},{"id":13527216,"name":"Teka Mahala","ascii":"Teka Mahala","lat":-24.96277,"lon":31.21438,"population":2301},{"id":13527123,"name":"Matsamo","ascii":"Matsamo","lat":-25.71869,"lon":31.61362,"population":2289},{"id":996643,"name":"Hibberdene","ascii":"Hibberdene","lat":-30.57201,"lon":30.57361,"population":2280},{"id":965330,"name":"Pienaarsrivier","ascii":"Pienaarsrivier","lat":-25.20417,"lon":28.30111,"population":2272},{"id":940364,"name":"Western Areas","ascii":"Western Areas","lat":-26.35,"lon":27.7,"population":2270},{"id":1021844,"name":"Babanango","ascii":"Babanango","lat":-28.37734,"lon":31.08508,"population":2259},{"id":12718746,"name":"Woodlands","ascii":"Woodlands","lat":-34.00208,"lon":24.17132,"population":2254},{"id":13527170,"name":"Mapaleng A","ascii":"Mapaleng A","lat":-24.5976,"lon":31.01104,"population":2206},{"id":13527204,"name":"Mabharule","ascii":"Mabharule","lat":-24.90109,"lon":31.39344,"population":2200},{"id":1019847,"name":"Bertha Shaft Village","ascii":"Bertha Shaft Village","lat":-26.75488,"lon":27.93914,"population":2193},{"id":1013386,"name":"Clarkson","ascii":"Clarkson","lat":-34.01521,"lon":24.34291,"population":2185},{"id":938640,"name":"Wittedrif","ascii":"Wittedrif","lat":-34.00422,"lon":23.33175,"population":2182},{"id":988295,"name":"Komati","ascii":"Komati","lat":-26.09548,"lon":29.4608,"population":2181},{"id":13527175,"name":"Motlamogatsane","ascii":"Motlamogatsane","lat":-24.63826,"lon":31.02226,"population":2169},{"id":12718766,"name":"Thembisile","ascii":"Thembisile","lat":-25.60362,"lon":28.88795,"population":2167},{"id":12718777,"name":"Mpungamhlophe","ascii":"Mpungamhlophe","lat":-28.26748,"lon":31.25298,"population":2161},{"id":13527195,"name":"Mphenyatsatsi","ascii":"Mphenyatsatsi","lat":-24.83786,"lon":31.04432,"population":2159},{"id":12718765,"name":"Elsburg Gold Mine","ascii":"Elsburg Gold Mine","lat":-26.40967,"lon":27.68114,"population":2141},{"id":946218,"name":"eMdloti","ascii":"eMdloti","lat":-29.66319,"lon":31.12103,"population":2130},{"id":998149,"name":"Ha-Mavhunga","ascii":"Ha-Mavhunga","lat":-22.92493,"lon":30.11682,"population":2124},{"id":938753,"name":"Witpoort","ascii":"Witpoort","lat":-27.17179,"lon":26.12699,"population":2120},{"id":12718745,"name":"Msobomvu","ascii":"Msobomvu","lat":-32.69854,"lon":26.85864,"population":2114},{"id":1017354,"name":"Bosbokrand","ascii":"Bosbokrand","lat":-24.83599,"lon":31.06718,"population":2109},{"id":12718776,"name":"Glen Mill","ascii":"Glen Mill","lat":-29.29371,"lon":31.1397,"population":2106},{"id":944840,"name":"Van Stadensrus","ascii":"Van Stadensrus","lat":-29.98737,"lon":27.0163,"population":2090},{"id":1013464,"name":"Cintsa Mouth West","ascii":"Cintsa Mouth West","lat":-32.84522,"lon":28.11598,"population":2084},{"id":12718796,"name":"Phaweni","ascii":"Phaweni","lat":-22.88181,"lon":30.77882,"population":2077},{"id":12718861,"name":"Wiesiesdraai","ascii":"Wiesiesdraai","lat":-33.89498,"lon":19.07536,"population":2069},{"id":967542,"name":"Orania","ascii":"Orania","lat":-29.81381,"lon":24.41205,"population":2066},{"id":13527190,"name":"Orinoco B","ascii":"Orinoco B","lat":-24.73137,"lon":31.06501,"population":2062},{"id":965179,"name":"Pilgrim’s Rest","ascii":"Pilgrim's Rest","lat":-24.90502,"lon":30.75333,"population":2061},{"id":12718764,"name":"Seberuberung","ascii":"Seberuberung","lat":-26.41447,"lon":27.6991,"population":2059},{"id":974742,"name":"Moloro","ascii":"Moloro","lat":-24.61183,"lon":30.98003,"population":2053},{"id":12718763,"name":"Randvaal","ascii":"Randvaal","lat":-26.43358,"lon":28.09267,"population":2049},{"id":12718762,"name":"Leeudoorn Mine","ascii":"Leeudoorn Mine","lat":-26.44244,"lon":27.57278,"population":2043},{"id":12718761,"name":"Orient Hills","ascii":"Orient Hills","lat":-26.03137,"lon":27.60266,"population":2043},{"id":947846,"name":"Tshituni","ascii":"Tshituni","lat":-22.90384,"lon":30.03487,"population":2039},{"id":971541,"name":"Nelspoort","ascii":"Nelspoort","lat":-32.093,"lon":23.007,"population":2035},{"id":996409,"name":"Himeville","ascii":"Himeville","lat":-29.74675,"lon":29.51361,"population":2033},{"id":13527221,"name":"Sekrepeng","ascii":"Sekrepeng","lat":-24.96414,"lon":31.09429,"population":2024},{"id":984118,"name":"Thuli","ascii":"Thuli","lat":-26.37087,"lon":28.91521,"population":2023},{"id":12718860,"name":"Pella WC","ascii":"Pella WC","lat":-33.53957,"lon":18.52149,"population":2014},{"id":951910,"name":"Stormsrivier","ascii":"Stormsrivier","lat":-33.97041,"lon":23.88247,"population":2000},{"id":6942529,"name":"Sunset Beach","ascii":"Sunset Beach","lat":-33.85395,"lon":18.49231,"population":2000},{"id":13527186,"name":"Relani","ascii":"Relani","lat":-24.77478,"lon":31.05966,"population":1989},{"id":1013092,"name":"Coldstream","ascii":"Coldstream","lat":-33.96462,"lon":23.71516,"population":1985},{"id":965245,"name":"Piet Plessis","ascii":"Piet Plessis","lat":-26.16353,"lon":24.41192,"population":1982},{"id":12718850,"name":"Swartkop","ascii":"Swartkop","lat":-28.51852,"lon":21.2043,"population":1979},{"id":12718744,"name":"Mkukwini","ascii":"Mkukwini","lat":-31.97144,"lon":27.43361,"population":1970},{"id":940438,"name":"Wesley","ascii":"Wesley","lat":-33.31949,"lon":27.33962,"population":1957},{"id":13527153,"name":"Dumfries A","ascii":"Dumfries A","lat":-24.77052,"lon":31.32178,"population":1950},{"id":942245,"name":"Waay Hoek","ascii":"Waay Hoek","lat":-28.53333,"lon":30.1,"population":1944},{"id":964599,"name":"Solomon Linda","ascii":"Solomon Linda","lat":-28.55393,"lon":30.42642,"population":1942},{"id":12718818,"name":"Kriel Power Station","ascii":"Kriel Power Station","lat":-26.27466,"lon":29.1715,"population":1939},{"id":953979,"name":"Southbroom","ascii":"Southbroom","lat":-30.91414,"lon":30.32701,"population":1934},{"id":976901,"name":"Merweville","ascii":"Merweville","lat":-32.66756,"lon":21.51554,"population":1907},{"id":949923,"name":"Teko Springs","ascii":"Teko Springs","lat":-32.37664,"lon":28.30316,"population":1905},{"id":12718775,"name":"Randgate","ascii":"Randgate","lat":-28.39885,"lon":32.21782,"population":1903},{"id":12626041,"name":"Gariep Dam","ascii":"Gariep Dam","lat":-30.60093,"lon":25.49501,"population":1878},{"id":12718795,"name":"Mvelaphanda","ascii":"Mvelaphanda","lat":-23.0703,"lon":30.40252,"population":1872},{"id":969515,"name":"Ngqamakhwe","ascii":"Ngqamakhwe","lat":-32.19648,"lon":27.93807,"population":1866},{"id":3365354,"name":"Koekenaap","ascii":"Koekenaap","lat":-31.52689,"lon":18.29128,"population":1858},{"id":970641,"name":"Nieu-Bethesda","ascii":"Nieu-Bethesda","lat":-31.867,"lon":24.55499,"population":1845},{"id":13527174,"name":"New Line","ascii":"New Line","lat":-24.63881,"lon":31.00509,"population":1843},{"id":12718794,"name":"Moshate","ascii":"Moshate","lat":-23.85685,"lon":29.83668,"population":1834},{"id":3363273,"name":"Op-die-Berg","ascii":"Op-die-Berg","lat":-33.01726,"lon":19.3107,"population":1834},{"id":3368187,"name":"Eendekuil","ascii":"Eendekuil","lat":-32.68709,"lon":18.88363,"population":1833},{"id":940394,"name":"Westbrook","ascii":"Westbrook","lat":-29.59215,"lon":31.16549,"population":1828},{"id":3368118,"name":"Elandsbaai","ascii":"Elandsbaai","lat":-32.31401,"lon":18.34413,"population":1827},{"id":12718774,"name":"Drummond","ascii":"Drummond","lat":-29.75575,"lon":30.68977,"population":1823},{"id":12718760,"name":"Onverwacht","ascii":"Onverwacht","lat":-25.60233,"lon":28.59898,"population":1818},{"id":987298,"name":"Kranskop","ascii":"Kranskop","lat":-28.96667,"lon":30.86667,"population":1813},{"id":980322,"name":"Mahlabatini","ascii":"Mahlabatini","lat":-28.25856,"lon":31.44052,"population":1810},{"id":977302,"name":"Meetse","ascii":"Meetse","lat":-24.85346,"lon":31.3416,"population":1809},{"id":13527154,"name":"Dumfries B","ascii":"Dumfries B","lat":-24.76579,"lon":31.29522,"population":1804},{"id":1012080,"name":"Dalton","ascii":"Dalton","lat":-29.34093,"lon":30.63119,"population":1788},{"id":996419,"name":"Hilton","ascii":"Hilton","lat":-29.55453,"lon":30.301,"population":1787},{"id":12718817,"name":"Betty's Goed","ascii":"Betty's Goed","lat":-26.25394,"lon":30.91187,"population":1784},{"id":13527171,"name":"Pelindaba","ascii":"Pelindaba","lat":-24.60752,"lon":31.01168,"population":1768},{"id":1015837,"name":"Brandwag","ascii":"Brandwag","lat":-34.06501,"lon":22.06257,"population":1761},{"id":991359,"name":"Centane","ascii":"Centane","lat":-32.50598,"lon":28.31578,"population":1744},{"id":3370511,"name":"Alexander Bay","ascii":"Alexander Bay","lat":-28.59608,"lon":16.48535,"population":1736},{"id":971393,"name":"New Forest A","ascii":"New Forest A","lat":-24.74512,"lon":31.11911,"population":1731},{"id":1015228,"name":"Buffeljagsrivier","ascii":"Buffeljagsrivier","lat":-34.04605,"lon":20.52687,"population":1724},{"id":13527166,"name":"Rooiboklaagte A","ascii":"Rooiboklaagte A","lat":-24.62853,"lon":31.08247,"population":1723},{"id":13527214,"name":"Fayini","ascii":"Fayini","lat":-24.922,"lon":31.29931,"population":1722},{"id":944774,"name":"Van Wyksvlei","ascii":"Van Wyksvlei","lat":-30.35101,"lon":21.82498,"population":1721},{"id":1019995,"name":"Bergnek","ascii":"Bergnek","lat":-24.18674,"lon":29.33533,"population":1698},{"id":3368057,"name":"Elim","ascii":"Elim","lat":-34.58972,"lon":19.75788,"population":1691},{"id":964574,"name":"Pongola","ascii":"Pongola","lat":-27.37808,"lon":31.61904,"population":1680},{"id":12718849,"name":"Gannaput","ascii":"Gannaput","lat":-28.7526,"lon":21.84764,"population":1674},{"id":941458,"name":"Waterval","ascii":"Waterval","lat":-27.78333,"lon":30.26667,"population":1674},{"id":973350,"name":"Mpakeni","ascii":"Mpakeni","lat":-25.48562,"lon":31.26075,"population":1670},{"id":12808734,"name":"Palmietfontein","ascii":"Palmietfontein","lat":-27.10565,"lon":29.94074,"population":1670},{"id":947723,"name":"Tswafeng","ascii":"Tswafeng","lat":-24.77028,"lon":30.97528,"population":1660},{"id":12718848,"name":"Leerkrans","ascii":"Leerkrans","lat":-28.406,"lon":21.52342,"population":1657},{"id":3370086,"name":"Betty’s Bay","ascii":"Betty's Bay","lat":-34.3535,"lon":18.91268,"population":1653},{"id":13527200,"name":"Matshaye","ascii":"Matshaye","lat":-24.8101,"lon":31.31361,"population":1640},{"id":1002044,"name":"Geysdorp","ascii":"Geysdorp","lat":-26.537,"lon":25.30251,"population":1635},{"id":12718841,"name":"Bray","ascii":"Bray","lat":-25.46145,"lon":23.69713,"population":1625},{"id":13527194,"name":"Masana","ascii":"Masana","lat":-24.84993,"lon":31.0575,"population":1616},{"id":998131,"name":"Hamburg","ascii":"Hamburg","lat":-33.29042,"lon":27.4747,"population":1615},{"id":991485,"name":"Kei Road","ascii":"Kei Road","lat":-32.70548,"lon":27.54697,"population":1605},{"id":12718840,"name":"Sun Village","ascii":"Sun Village","lat":-25.35916,"lon":27.10296,"population":1592},{"id":941914,"name":"Wasbank","ascii":"Wasbank","lat":-28.31314,"lon":30.10652,"population":1585},{"id":1022210,"name":"Arthur’s Seat","ascii":"Arthur's Seat","lat":-24.65076,"lon":31.02247,"population":1569},{"id":3368195,"name":"Ebenhaeser","ascii":"Ebenhaeser","lat":-31.58239,"lon":18.22527,"population":1563},{"id":994758,"name":"Ingwavuma","ascii":"Ingwavuma","lat":-27.13313,"lon":31.99705,"population":1561},{"id":12718793,"name":"Lwamondo","ascii":"Lwamondo","lat":-23.03847,"lon":30.40458,"population":1557},{"id":12718839,"name":"Sun City","ascii":"Sun City","lat":-25.33997,"lon":27.09738,"population":1556},{"id":949023,"name":"Thulani","ascii":"Thulani","lat":-24.63847,"lon":31.41237,"population":1551},{"id":946981,"name":"Tyusha","ascii":"Tyusha","lat":-32.76494,"lon":27.318,"population":1544},{"id":972572,"name":"Murchison","ascii":"Murchison","lat":-23.90209,"lon":30.69097,"population":1543},{"id":969619,"name":"Nottingham Road","ascii":"Nottingham Road","lat":-29.35,"lon":29.98333,"population":1530},{"id":12718773,"name":"Hambanathi","ascii":"Hambanathi","lat":-29.55416,"lon":31.10513,"population":1520},{"id":942206,"name":"Arniston","ascii":"Arniston","lat":-34.66739,"lon":20.23086,"population":1518},{"id":3368507,"name":"Doringbaai","ascii":"Doringbaai","lat":-31.8171,"lon":18.23659,"population":1509},{"id":972673,"name":"Muldersdriseloop","ascii":"Muldersdriseloop","lat":-26.03673,"lon":27.83798,"population":1500},{"id":3360605,"name":"Tesselaarsdal","ascii":"Tesselaarsdal","lat":-34.33333,"lon":19.53333,"population":1500},{"id":12718743,"name":"Glenmore","ascii":"Glenmore","lat":-33.13235,"lon":26.87483,"population":1491},{"id":12718859,"name":"Friemersheim","ascii":"Friemersheim","lat":-33.95528,"lon":22.1425,"population":1479},{"id":12718772,"name":"Thembalethu","ascii":"Thembalethu","lat":-27.61748,"lon":32.02791,"population":1471},{"id":12718759,"name":"Kameelkraal","ascii":"Kameelkraal","lat":-25.9009,"lon":28.53333,"population":1464},{"id":13527142,"name":"Eglington A","ascii":"Eglington A","lat":-24.65698,"lon":31.36365,"population":1457},{"id":3365182,"name":"Koringberg","ascii":"Koringberg","lat":-33.01806,"lon":18.67806,"population":1454},{"id":972870,"name":"Mtititi","ascii":"Mtititi","lat":-23.09269,"lon":30.89928,"population":1450},{"id":1018838,"name":"Blinkpan","ascii":"Blinkpan","lat":-26.08266,"lon":29.43314,"population":1446},{"id":13527162,"name":"Dingleydale B","ascii":"Dingleydale B","lat":-24.6768,"lon":31.13601,"population":1444},{"id":956253,"name":"Sezela","ascii":"Sezela","lat":-30.40605,"lon":30.68094,"population":1441},{"id":997971,"name":"Hanover","ascii":"Hanover","lat":-32.81899,"lon":27.4806,"population":1437},{"id":1011708,"name":"Davel","ascii":"Davel","lat":-26.44477,"lon":29.66537,"population":1429},{"id":13527182,"name":"Rivoni","ascii":"Rivoni","lat":-24.7375,"lon":31.0298,"population":1424},{"id":962251,"name":"Rietbron","ascii":"Rietbron","lat":-32.90194,"lon":23.15084,"population":1418},{"id":1006204,"name":"Elandshoek","ascii":"Elandshoek","lat":-25.49851,"lon":30.71189,"population":1410},{"id":12718758,"name":"Mamello","ascii":"Mamello","lat":-26.87212,"lon":28.2534,"population":1407},{"id":1019933,"name":"Bergville","ascii":"Bergville","lat":-28.73122,"lon":29.35187,"population":1405},{"id":13527178,"name":"Graigieburn","ascii":"Graigieburn","lat":-24.66984,"lon":30.99611,"population":1394},{"id":12718816,"name":"Sizanane","ascii":"Sizanane","lat":-26.11447,"lon":29.4086,"population":1383},{"id":3358975,"name":"Yzerfontein","ascii":"Yzerfontein","lat":-33.34438,"lon":18.16157,"population":1365},{"id":13527126,"name":"Louieville","ascii":"Louieville","lat":-25.67704,"lon":31.30575,"population":1364},{"id":12718815,"name":"Bosoord","ascii":"Bosoord","lat":-25.23237,"lon":30.33051,"population":1353},{"id":12718792,"name":"Louis Trichardt Airforce Base","ascii":"Louis Trichardt Airforce Base","lat":-23.15265,"lon":29.70407,"population":1345},{"id":1001869,"name":"KwaGingindlovu","ascii":"KwaGingindlovu","lat":-29.02671,"lon":31.58152,"population":1328},{"id":952681,"name":"Steelpoort","ascii":"Steelpoort","lat":-24.73118,"lon":30.20584,"population":1323},{"id":958273,"name":"Saint Lucia","ascii":"Saint Lucia","lat":-28.37622,"lon":32.41181,"population":1322},{"id":971233,"name":"Ngagane","ascii":"Ngagane","lat":-27.84017,"lon":29.99771,"population":1321},{"id":1000162,"name":"Gravelotte","ascii":"Gravelotte","lat":-23.95307,"lon":30.61895,"population":1315},{"id":12718771,"name":"Ocean Drive-In","ascii":"Ocean Drive-In","lat":-29.58971,"lon":31.14713,"population":1299},{"id":12718742,"name":"Santombe","ascii":"Santombe","lat":-30.81595,"lon":29.36159,"population":1299},{"id":12718791,"name":"Thusang","ascii":"Thusang","lat":-24.62123,"lon":29.04054,"population":1299},{"id":12718847,"name":"Philandersbron","ascii":"Philandersbron","lat":-26.81168,"lon":20.09484,"population":1295},{"id":12718770,"name":"Loss","ascii":"Loss","lat":-28.10478,"lon":30.82101,"population":1290},{"id":1014709,"name":"Bulwer","ascii":"Bulwer","lat":-29.80593,"lon":29.76729,"population":1285},{"id":12718769,"name":"Hlalanathi","ascii":"Hlalanathi","lat":-27.49124,"lon":32.18304,"population":1281},{"id":12718858,"name":"Hugenote","ascii":"Hugenote","lat":-33.90673,"lon":19.11792,"population":1277},{"id":7304422,"name":"Herolds Bay","ascii":"Herolds Bay","lat":-34.04832,"lon":22.39709,"population":1268},{"id":987458,"name":"Kragbron","ascii":"Kragbron","lat":-26.90782,"lon":27.88731,"population":1268},{"id":12718790,"name":"KaNdengeza","ascii":"KaNdengeza","lat":-23.26352,"lon":30.39554,"population":1267},{"id":3362976,"name":"Pearly Beach","ascii":"Pearly Beach","lat":-34.66277,"lon":19.49647,"population":1248},{"id":13527202,"name":"Sabi-Sand Game Reserve","ascii":"Sabi-Sand Game Reserve","lat":-24.79855,"lon":31.49851,"population":1242},{"id":12718857,"name":"Wemmershoek","ascii":"Wemmershoek","lat":-33.87286,"lon":19.04329,"population":1238},{"id":996060,"name":"Hogsback","ascii":"Hogsback","lat":-32.59527,"lon":26.94019,"population":1232},{"id":1004380,"name":"Felixton","ascii":"Felixton","lat":-28.82957,"lon":31.89125,"population":1225},{"id":983857,"name":"Leeupoort","ascii":"Leeupoort","lat":-24.91651,"lon":27.73154,"population":1214},{"id":7289237,"name":"Marloth Park","ascii":"Marloth Park","lat":-25.36512,"lon":31.78465,"population":1198},{"id":3369367,"name":"Brandvlei","ascii":"Brandvlei","lat":-33.73333,"lon":19.4,"population":1171},{"id":8184439,"name":"Vierlanden","ascii":"Vierlanden","lat":-33.81229,"lon":18.65727,"population":1157},{"id":13527138,"name":"Seville B","ascii":"Seville B","lat":-24.67663,"lon":31.44538,"population":1149},{"id":13527147,"name":"Eglington B","ascii":"Eglington B","lat":-24.67424,"lon":31.31677,"population":1054},{"id":982298,"name":"Masakeng","ascii":"Masakeng","lat":-24.81927,"lon":31.04765,"population":1051},{"id":12808667,"name":"KwaNgema","ascii":"KwaNgema","lat":-27.01067,"lon":30.48566,"population":1006},{"id":1022508,"name":"Apel","ascii":"Apel","lat":-24.41445,"lon":29.74991,"population":0},{"id":7576313,"name":"Bela-Bela","ascii":"Bela-Bela","lat":-24.885,"lon":28.29417,"population":0},{"id":1012528,"name":"Creighton","ascii":"Creighton","lat":-30.0272,"lon":29.83955,"population":0},{"id":1008612,"name":"Douglas","ascii":"Douglas","lat":-29.05531,"lon":23.7743,"population":0},{"id":1002917,"name":"Ganyesa","ascii":"Ganyesa","lat":-26.59613,"lon":24.17612,"population":0},{"id":3367786,"name":"Garies","ascii":"Garies","lat":-30.56223,"lon":17.98905,"population":0},{"id":999962,"name":"Groblershoop","ascii":"Groblershoop","lat":-28.89531,"lon":21.98378,"population":0},{"id":997373,"name":"Hartswater","ascii":"Hartswater","lat":-27.74964,"lon":24.79712,"population":0},{"id":995508,"name":"Hopetown","ascii":"Hopetown","lat":-29.62464,"lon":24.08518,"population":0},{"id":994883,"name":"Impendle","ascii":"Impendle","lat":-29.60049,"lon":29.86561,"population":0},{"id":994408,"name":"Izingolweni","ascii":"Izingolweni","lat":-30.78409,"lon":30.12294,"population":0},{"id":994037,"name":"Jane Furse","ascii":"Jane Furse","lat":-24.76021,"lon":29.86993,"population":0},{"id":993568,"name":"Jozini","ascii":"Jozini","lat":-27.4296,"lon":32.06658,"population":0},{"id":980101,"name":"Makapanstad","ascii":"Makapanstad","lat":-25.24373,"lon":28.1262,"population":0},{"id":976764,"name":"Meyerton","ascii":"Meyerton","lat":-26.55987,"lon":28.0195,"population":0},{"id":975511,"name":"Mkuze","ascii":"Mkuze","lat":-27.61641,"lon":32.03861,"population":0},{"id":974932,"name":"Mogwase","ascii":"Mogwase","lat":-25.27748,"lon":27.21605,"population":0},