[{"id":909137,"name":"Lusaka","nameKo":"루사카","ascii":"Lusaka","lat":-15.40669,"lon":28.28713,"population":2212301},{"id":911148,"name":"Kitwe","nameKo":"키트웨","ascii":"Kitwe","lat":-12.80243,"lon":28.21323,"population":665961},{"id":901344,"name":"Ndola","nameKo":"은돌라","ascii":"Ndola","lat":-12.95867,"lon":28.63659,"population":627503},{"id":918702,"name":"Chipata","nameKo":"치파타","ascii":"Chipata","lat":-13.63333,"lon":32.65,"population":327059},{"id":897045,"name":"Solwezi","nameKo":"솔웨지","ascii":"Solwezi","lat":-12.1688,"lon":26.38938,"population":301370},{"id":916095,"name":"Kabwe","nameKo":"카브웨","ascii":"Kabwe","lat":-14.4469,"lon":28.44644,"population":288598},{"id":919009,"name":"Chingola","nameKo":"칭골라","ascii":"Chingola","lat":-12.52897,"lon":27.88382,"population":256560},{"id":909863,"name":"Luanshya","nameKo":"루안샤","ascii":"Luanshya","lat":-13.13667,"lon":28.41661,"population":193293},{"id":912764,"name":"Kasama","nameKo":"카사마","ascii":"Kasama","lat":-10.21289,"lon":31.18084,"population":179636},{"id":910111,"name":"Livingstone","nameKo":"리빙스턴","ascii":"Livingstone","lat":-17.84194,"lon":25.85425,"population":178361},{"id":907770,"name":"Mansa","nameKo":"만사","ascii":"Mansa","lat":-11.19976,"lon":28.89431,"population":170965},{"id":905395,"name":"Mufulira","ascii":"Mufulira","lat":-12.54982,"lon":28.24071,"population":169136},{"id":13132725,"name":"Chunga","ascii":"Chunga","lat":-15.31737,"lon":28.26868,"population":115539},{"id":919544,"name":"Chililabombwe","ascii":"Chililabombwe","lat":-12.36475,"lon":27.82286,"population":113876},{"id":906054,"name":"Mongu","ascii":"Mongu","lat":-15.24835,"lon":23.12741,"population":111450},{"id":907111,"name":"Mazabuka","ascii":"Mazabuka","lat":-15.85601,"lon":27.748,"population":104412},{"id":915883,"name":"Kafue","ascii":"Kafue","lat":-15.76911,"lon":28.18136,"population":104174},{"id":914959,"name":"Kalulushi","ascii":"Kalulushi","lat":-12.84151,"lon":28.09479,"population":104046},{"id":917748,"name":"Choma","ascii":"Choma","lat":-16.80889,"lon":26.9875,"population":98974},{"id":13132732,"name":"Namalombwe","ascii":"Namalombwe","lat":-15.39053,"lon":28.18986,"population":97758},{"id":175555,"name":"Nakonde","ascii":"Nakonde","lat":-9.34213,"lon":32.745,"population":91107},{"id":913029,"name":"Kapiri Mposhi","ascii":"Kapiri Mposhi","lat":-13.97147,"lon":28.66985,"population":83211},{"id":13132727,"name":"Madido","ascii":"Madido","lat":-15.35454,"lon":28.37416,"population":80782},{"id":175499,"name":"Nchelenge","ascii":"Nchelenge","lat":-9.34506,"lon":28.73396,"population":77746},{"id":905846,"name":"Mpika","ascii":"Mpika","lat":-11.83431,"lon":31.45287,"population":63740},{"id":906043,"name":"Monze","ascii":"Monze","lat":-16.27149,"lon":27.47724,"population":60281},{"id":899825,"name":"Petauke","ascii":"Petauke","lat":-14.24117,"lon":31.31975,"population":58156},{"id":917688,"name":"Chongwe","ascii":"Chongwe","lat":-15.32916,"lon":28.68204,"population":57443},{"id":175961,"name":"Mpulungu","ascii":"Mpulungu","lat":-8.76234,"lon":31.11405,"population":55405},{"id":7932530,"name":"Chilanga Township","ascii":"Chilanga Township","lat":-15.57079,"lon":28.2701,"population":54046},{"id":899274,"name":"Samfya","ascii":"Samfya","lat":-11.36491,"lon":29.55652,"population":51309},{"id":904422,"name":"Mumbwa","ascii":"Mumbwa","lat":-14.98293,"lon":27.0619,"population":49461},{"id":906221,"name":"Mkushi","ascii":"Mkushi","lat":-13.62015,"lon":29.3939,"population":45927},{"id":912072,"name":"Katete","ascii":"Katete","lat":-14.05,"lon":32.08333,"population":45402},{"id":909299,"name":"Lundazi","ascii":"Lundazi","lat":-12.29292,"lon":33.1782,"population":45149},{"id":176146,"name":"Mbala","ascii":"Mbala","lat":-8.84024,"lon":31.36587,"population":42424},{"id":13132724,"name":"Chisankane","ascii":"Chisankane","lat":-15.48211,"lon":28.35099,"population":41014},{"id":913613,"name":"Kansanshi","ascii":"Kansanshi","lat":-12.09514,"lon":26.42727,"population":40705},{"id":918905,"name":"Chinsali","ascii":"Chinsali","lat":-10.54142,"lon":32.08162,"population":38805},{"id":176758,"name":"Kaputa","ascii":"Kaputa","lat":-8.46887,"lon":29.66193,"population":35663},{"id":918488,"name":"Chirundu","ascii":"Chirundu","lat":-16.03577,"lon":28.84311,"population":35403},{"id":920820,"name":"Chambishi","ascii":"Chambishi","lat":-12.63247,"lon":28.05367,"population":34888},{"id":913323,"name":"Kaoma","ascii":"Kaoma","lat":-14.78333,"lon":24.8,"population":34347},{"id":916668,"name":"Isoka","ascii":"Isoka","lat":-10.16062,"lon":32.63353,"population":31739},{"id":176555,"name":"Kawambwa","ascii":"Kawambwa","lat":-9.7915,"lon":29.07913,"population":31161},{"id":915086,"name":"Kalomo","ascii":"Kalomo","lat":-17.02581,"lon":26.48369,"population":30781},{"id":175967,"name":"Mporokoso","ascii":"Mporokoso","lat":-9.37273,"lon":30.12501,"population":30381},{"id":898912,"name":"Serenje","ascii":"Serenje","lat":-13.23251,"lon":30.23522,"population":30217},{"id":898905,"name":"Sesheke","ascii":"Sesheke","lat":-17.47593,"lon":24.29684,"population":29922},{"id":912628,"name":"Kasempa","ascii":"Kasempa","lat":-13.45836,"lon":25.8338,"population":28894},{"id":13132728,"name":"Manyama","ascii":"Manyama","lat":-12.31477,"lon":25.84862,"population":28825},{"id":908913,"name":"Luwingu","ascii":"Luwingu","lat":-10.2621,"lon":29.92712,"population":28436},{"id":13132729,"name":"Mapalo","ascii":"Mapalo","lat":-12.93688,"lon":28.67206,"population":26986},{"id":898188,"name":"Siavonga","ascii":"Siavonga","lat":-16.53818,"lon":28.70876,"population":26951},{"id":895953,"name":"Zambezi","ascii":"Zambezi","lat":-13.54323,"lon":23.10467,"population":26885},{"id":13132730,"name":"Mufumbwe","ascii":"Mufumbwe","lat":-13.13701,"lon":25.00653,"population":25667},{"id":902620,"name":"Mwinilunga","ascii":"Mwinilunga","lat":-11.73584,"lon":24.42926,"population":25425},{"id":905789,"name":"Mpongwe","ascii":"Mpongwe","lat":-13.50914,"lon":28.15504,"population":25388},{"id":6695527,"name":"Itezhi-Tezhi","ascii":"Itezhi-Tezhi","lat":-15.73691,"lon":26.04155,"population":22449},{"id":908718,"name":"Maamba","ascii":"Maamba","lat":-17.36667,"lon":27.15,"population":21676},{"id":13132726,"name":"Lusaka West","ascii":"Lusaka West","lat":-15.31864,"lon":28.11026,"population":21655},{"id":898947,"name":"Senanga","ascii":"Senanga","lat":-16.11667,"lon":23.26667,"population":20878},{"id":13132733,"name":"Ntandabale","ascii":"Ntandabale","lat":-15.38958,"lon":28.42201,"population":20254},{"id":13132734,"name":"Palabana","ascii":"Palabana","lat":-15.44623,"lon":28.53436,"population":19769},{"id":909488,"name":"Lukulu","ascii":"Lukulu","lat":-14.37067,"lon":23.24196,"population":19344},{"id":907705,"name":"Manyinga","ascii":"Manyinga","lat":-13.41646,"lon":24.33532,"population":19317},{"id":900056,"name":"Nyimba","ascii":"Nyimba","lat":-14.55656,"lon":30.8149,"population":19252},{"id":920470,"name":"Chavuma","ascii":"Chavuma","lat":-13.06667,"lon":22.68333,"population":18902},{"id":897454,"name":"Sinda","ascii":"Sinda","lat":-14.21004,"lon":31.7629,"population":18716},{"id":915471,"name":"Kalabo","ascii":"Kalabo","lat":-14.99307,"lon":22.67926,"population":18477},{"id":918398,"name":"Chisasa","ascii":"Chisasa","lat":-12.10932,"lon":25.49613,"population":17169},{"id":8298600,"name":"Nampundwe","ascii":"Nampundwe","lat":-15.50819,"lon":27.92441,"population":16396},{"id":13132731,"name":"Mwansabombwe","ascii":"Mwansabombwe","lat":-9.82202,"lon":28.76038,"population":16077},{"id":901766,"name":"Namwala","ascii":"Namwala","lat":-15.75042,"lon":26.43839,"population":15614},{"id":897456,"name":"Sinazongwe","ascii":"Sinazongwe","lat":-17.2614,"lon":27.46179,"population":15191},{"id":177748,"name":"Chiengi","ascii":"Chiengi","lat":-8.66043,"lon":29.16142,"population":15165},{"id":916246,"name":"Kabompo","ascii":"Kabompo","lat":-13.59268,"lon":24.20081,"population":15069},{"id":916938,"name":"Ibenga","ascii":"Ibenga","lat":-13.36667,"lon":28.43333,"population":14056},{"id":13132723,"name":"Chinkuli","ascii":"Chinkuli","lat":-15.29973,"lon":28.41596,"population":14034},{"id":912226,"name":"Kataba","ascii":"Kataba","lat":-11.88333,"lon":29.78333,"population":14000},{"id":13132721,"name":"Chilongolo","ascii":"Chilongolo","lat":-15.49236,"lon":28.16456,"population":13662},{"id":920901,"name":"Chama","ascii":"Chama","lat":-11.21303,"lon":33.1521,"population":12923},{"id":909722,"name":"Lubwe","ascii":"Lubwe","lat":-11.11654,"lon":29.64619,"population":12643},{"id":904241,"name":"Mungwi","ascii":"Mungwi","lat":-10.1732,"lon":31.36942,"population":12536},{"id":911300,"name":"Kazungula","ascii":"Kazungula","lat":-17.79356,"lon":25.27473,"population":12095},{"id":910361,"name":"Limulunga","ascii":"Limulunga","lat":-15.09691,"lon":23.13757,"population":10684},{"id":902344,"name":"Nakambala","ascii":"Nakambala","lat":-15.83244,"lon":27.77994,"population":10425},{"id":13132720,"name":"Chalimbana","ascii":"Chalimbana","lat":-15.38546,"lon":28.70085,"population":10196},{"id":13132722,"name":"Chilubi","ascii":"Chilubi","lat":-11.11459,"lon":29.94634,"population":9962},{"id":909752,"name":"Lubombo","ascii":"Lubombo","lat":-15.86698,"lon":27.87632,"population":9811},{"id":909887,"name":"Luangwa","ascii":"Luangwa","lat":-15.61667,"lon":30.41667,"population":9187},{"id":175808,"name":"Mununga","ascii":"Mununga","lat":-9.04865,"lon":29.04265,"population":9135},{"id":915285,"name":"Kalengwa","ascii":"Kalengwa","lat":-13.46586,"lon":25.00271,"population":7574},{"id":905382,"name":"Mufumbwe","ascii":"Mufumbwe","lat":-13.68333,"lon":24.8,"population":6155},{"id":921028,"name":"Chadiza","ascii":"Chadiza","lat":-14.06779,"lon":32.43917,"population":5670},{"id":920233,"name":"Chibombo","ascii":"Chibombo","lat":-14.65685,"lon":28.07057,"population":4477},{"id":902721,"name":"Mwense","ascii":"Mwense","lat":-10.38447,"lon":28.698,"population":4378},{"id":917011,"name":"Gwembe","ascii":"Gwembe","lat":-16.49755,"lon":27.60691,"population":2052}]